     3.02           OBSERVATION DATA    M (MIXED)           RINEX VERSION / TYPE
Assistant 1.0       StaticToRinex       20220622 160316 LCL PGM / RUN BY / DATE 
       G = GPS       R = GLONASS       C = COMPASS          COMMENT             
       S = SBAS      J = QZSS          E = GALILEO          COMMENT             
WG017                                                       MARKER NAME         
1                                                           MARKER NUMBER       
                                                            MARKER TYPE         
                                                            OBSERVER / AGENCY
G10A3416000150      UniStrong G10A      0.33.171013         REC # / TYPE / VERS 
0                   UNIG10E2250                             ANT # / TYPE        
 -2267424.2262  5008961.0885  3221788.0691                  APPROX POSITION XYZ 
        1.5132        0.0000        0.0000                  ANTENNA: DELTA H/E/N
G    8 C1C L1C D1C S1C C2P L2P D2P S2P                      SYS / # / OBS TYPES 
R    8 C1C L1C D1C S1C C2P L2P D2P S2P                      SYS / # / OBS TYPES 
C   12 C1I L1I D1I S1I C7I L7I D7I S7I C6I L6I D6I S6I      SYS / # / OBS TYPES 
S    4 C1C L1C D1C S1C                                      SYS / # / OBS TYPES 
DBHZ                                                        SIGNAL STRENGTH UNIT
    10.000                                                  INTERVAL            
  2022    06    21    00    59   30.0000000     GPS         TIME OF FIRST OBS   
  2022    06    21    02    30   40.0000000     GPS         TIME OF LAST OBS    
     0                                                      RCV CLOCK OFFS APPL 
G L1C  0.00000                                              SYS / PHASE SHIFT   
G L2P  0.00000                                              SYS / PHASE SHIFT   
R L1C  0.00000                                              SYS / PHASE SHIFT   
R L2P  0.25000                                              SYS / PHASE SHIFT   
C L1I  0.00000                                              SYS / PHASE SHIFT   
C L7I  0.00000                                              SYS / PHASE SHIFT   
C L6I  0.00000                                              SYS / PHASE SHIFT   
S L1C  0.00000                                              SYS / PHASE SHIFT   
 22 R02  9 R03  9 R04  9 R05  9 R06 -4 R07  9 R08  9 R09 -2 GLONASS SLOT / FRQ #
    R10 -7 R11  0 R12 -1 R13  9 R14  9 R15  9 R16 -1 R17  9 GLONASS SLOT / FRQ #
    R18  9 R19  9 R20  2 R21  4 R22  9 R23  9               GLONASS SLOT / FRQ #
 C1C        0 C1P        0 C2C        0 C2P        0        GLONASS COD/PHS/BIS 
    18                                                      LEAP SECONDS        
*** Above antenna height is from mark to PHASE CENTER.      COMMENT             
    31     1        1.4880        ANT MEASURE TYPE/HEIGT    COMMENT             
    0.0730    0.1050    0.1320    0.1390    0.0000          COMMENT             
                    BASE STATION                            COMMENT             
                                                            END OF HEADER       
> 2022 06 21 00 59 30.0000000  0 27       0.000000000000
G01  19907812.227 8 104616259.242 8        70.375 8        50.548 8  19907828.883 8  81519231.578 8        54.572 8        50.226 8
G03  24181993.691 6 127077233.524 6      2852.213 6        38.854 6  24182013.250 8  99021281.900 8      2223.244 8        48.376 8
G07  20847481.422 7 109554254.603 7     -1791.988 7        47.221 7  20847495.316 8  85367009.953 8     -1396.307 8        50.226 8
G08  22929266.125 7 120494099.943 7     -2324.684 7        43.959 7  22929282.309 7  93891544.004 7     -1811.678 7        44.265 7
G14  22053263.535 7 115890681.558 7      2437.350 7        44.974 7  22053278.172 8  90304492.412 8      1899.143 8        48.536 8
G17  22727845.359 7 119435629.498 7      1538.541 7        43.850 7  22727860.742 8  93066792.820 8      1199.084 8        50.226 8
G21  21653990.566 8 113792486.283 8     -2480.816 8        48.622 8  21654002.930 8  88669525.326 8     -1933.064 8        50.226 8
G30  21146125.570 8 111123637.888 8       -24.430 8        48.871 8  21146142.039 8  86589915.844 8       -18.943 8        50.226 8
R09  22548568.371 8 120408090.888 8     -3744.146 8        48.212 8  22548572.523 7  93650765.773 7     -2911.459 7        45.235 7
R10  19539427.727 8 104156146.922 8     -1260.018 8        51.779 8                                                                
R11  20301027.867 9 108482537.444 9      2781.848 9        54.238 9  20301031.020 8  84375326.161 8      2163.670 8        50.949 8
R20  21133570.789 6 113010681.687 6     -3276.340 6        40.315 6  21133572.219 7  87897226.272 7     -2548.156 7        46.951 7
R21  19688401.398 9 105356615.954 9       526.197 9        55.573 9  19688404.836 8  81944058.296 8       409.277 8        51.107 8
C01  37566238.699 7 195617264.819 7        29.527 7        43.887 7  37566246.391 7 151263708.175 7        22.984 7        44.269 7  37566255.664 7 158955122.125 7        24.258 7        43.468 7
C02  37770307.348 6 196679902.607 6        22.594 6        41.438 6  37770312.355 7 152085394.090 7        17.203 7        45.248 7  37770321.734 7 159818593.629 7        18.418 7        42.144 7
C03  37028432.184 7 192816762.574 7        51.988 7        45.980 7  37028437.762 7 149098175.688 7        40.211 7        46.702 7  37028444.629 7 156679468.620 7        42.559 7        44.831 7
C04  38591180.414 6 200954406.110 6        24.117 6        40.103 6  38591186.891 7 155390719.688 7        18.629 7        43.644 7  38591195.395 6 163291976.757 6        19.141 6        41.864 6
C05  39466735.988 6 205513652.34816        28.434 6        39.024 6  39466746.148 7 158916232.060 7        21.891 7        42.062 7  39466752.859 6 166996746.442 6        23.027 6        39.926 6
C06  39159239.496 6 203912428.502 6     -1815.943 6        40.710 6  39159247.512 7 157678062.861 7     -1403.930 7        43.625 7  39159253.691 7 165695616.416 7     -1475.957 7        42.868 7
C07  36310811.598 8 189079925.076 8       274.195 8        48.377 8  36310814.891 8 146208604.683 8       211.578 8        49.145 8  36310820.711 8 153642964.404 8       222.656 8        48.795 8
C08  38487450.254 6 200414263.251 6      1789.605 6        40.672 6  38487458.445 7 154973047.413 7      1383.648 7        44.667 7  38487463.105 6 162853052.725 6      1454.318 6        41.776 6
C09  38645499.789 7 201237261.920 7     -1782.428 7        43.366 7  38645510.309 7 155609454.396 7     -1378.559 7        45.100 7  38645513.633 6 163521814.185 6     -1448.047 6        40.785 6
C10  36742185.520 7 191326204.931 7       391.012 7        46.960 7  36742193.711 7 147945585.301 7       302.438 7        47.913 7  36742198.184 7 155468264.440 7       318.066 7        46.888 7
C11  23871985.508 7 124307685.177 7     -2442.135 7        46.906 7  23871993.699 7  96122622.305 7     -1888.383 7        47.819 7  23871997.941 7 101010236.885 7     -1984.531 7        46.740 7
C13  39191225.766 6 204078997.576 6      1652.887 6        41.835 6  39191241.324 7 157806890.351 7      1277.945 7        43.682 7  39191245.203 7 165830984.222 7      1342.775 7        42.198 7
C16  39475059.074 6 205556986.211 6     -1769.674 6        40.595 6  39475076.246 6 158949760.05016     -1368.734 6        39.294 6  39475076.289 5 167031964.97715     -1438.965 5        32.144 5
S37  36963094.945 7 194242372.541 7         3.695 7        42.356 7
> 2022 06 21 00 59 40.0000000  0 27       0.000000000000
G01  19907687.785 8 104615605.746 8        62.656 8        50.695 8  19907704.645 8  81518723.351 8        48.805 8        50.226 8
G03  24176568.125 6 127048720.349 6      2852.383 6        39.788 6  24176587.184 8  98999063.852 8      2222.242 8        49.204 8
G07  20850899.367 7 109572215.133 7     -1797.637 7        47.515 7  20850913.074 8  85381005.151 8     -1400.609 8        50.226 8
G08  22933691.723 7 120517359.115 7     -2325.273 7        44.528 7  22933708.609 7  93909668.013 7     -1811.664 7        45.549 7
G14  22048629.266 7 115866327.305 7      2435.820 7        45.275 7  22048644.477 8  90285515.072 8      1898.141 8        48.433 8
G17  22724923.043 7 119420269.755 7      1535.898 7        45.726 7  22724937.965 8  93054824.228 8      1196.695 8        50.226 8
G21  21658716.656 8 113817324.536 8     -2484.746 8        48.652 8  21658729.734 8  88688879.815 8     -1936.332 8        50.226 8
G30  21146180.137 8 111123926.592 8       -31.055 8        48.766 8  21146197.164 8  86590140.799 8       -24.320 8        50.226 8
R09  22555583.777 7 120445561.675 7     -3747.814 7        47.522 7  22555591.223 7  93679909.674 7     -2915.059 7        45.481 7
R10  19541798.695 8 104168796.794 8     -1267.730 8        51.687 8                                                                
R11  20295829.602 9 108454756.405 9      2776.664 9        54.619 9  20295833.324 8  84353718.697 8      2159.652 8        50.453 8
R20  21139698.586 6 113043469.250 6     -3279.027 6        40.895 6  21139707.035 7  87922727.679 7     -2550.264 7        47.760 7
R21  19687427.328 9 105351401.095 9       519.184 9        54.842 9  19687430.477 8  81940002.311 8       403.803 8        51.138 8
C01  37566184.445 7 195616982.928 7        29.191 7        43.586 7  37566192.422 7 151263490.196 7        22.354 7        44.575 7  37566201.461 7 158954893.052 7        23.918 7        43.199 7
C02  37770265.793 6 196679686.793 6        22.473 6        41.687 6  37770270.910 7 152085227.190 7        17.451 7        45.327 7  37770280.340 7 159818418.258 7        18.527 7        42.304 7
C03  37028334.895 7 192816256.976 7        51.652 7        45.924 7  37028340.188 7 149097784.739 7        39.658 7        46.712 7  37028347.629 7 156679057.792 7        41.906 7        44.757 7
C04  38591137.074 6 200954179.477 6        23.195 6        40.895 6  38591143.762 7 155390544.412 7        18.369 7        44.621 7  38591151.426 6 163291792.580 6        19.191 6        41.687 6
C05  39466683.523 6 205513379.146 6        28.488 6        38.968 6  39466694.184 7 158916020.818 7        22.100 7        42.632 7  39466700.516 6 166996524.462 6        23.020 6        39.880 6
C06  39162729.523 6 203930602.188 6     -1815.691 6        40.634 6  39162737.715 7 157692115.895 7     -1404.717 7        43.720 7  39162743.867 7 165710383.979 7     -1475.887 7        42.959 7
C07  36310287.145 8 189077194.781 8       274.230 8        48.542 8  36310290.723 8 146206493.432 8       211.846 8        49.220 8  36310296.246 8 153640745.799 8       222.805 8        48.634 8
C08  38484016.672 6 200396384.824 6      1788.313 6        40.858 6  38484024.934 7 154959222.645 7      1383.311 7        44.559 7  38484029.828 6 162838525.028 6      1453.213 6        41.835 6
C09  38648925.961 7 201255103.565 7     -1783.738 7        43.304 7  38648936.691 7 155623250.654 7     -1378.916 7        45.494 7  38648939.875 6 163536311.975 6     -1449.305 6        40.822 6
C10  36741436.379 7 191322303.271 7       391.262 7        47.005 7  36741444.570 8 147942568.277 8       302.803 8        48.409 8  36741448.855 7 155465094.018 7       318.273 7        46.557 7
C11  23876678.828 7 124332123.059 7     -2443.074 7        46.263 7  23876686.125 7  96141519.209 7     -1888.818 7        47.992 7  23876691.012 7 101030094.645 7     -1985.398 7        47.213 7
C13  39188054.148 7 204062484.325 7      1651.867 7        42.062 7  39188070.531 7 157794121.270 7      1277.334 7        44.253 7  39188073.688 6 165817565.847 6      1342.373 6        41.747 6
C16  39478459.773 6 205574692.925 6     -1769.852 6        40.189 6  39478476.590 6 158963451.937 6     -1368.486 6        38.911 6  39478476.359 5 167046353.093 5     -1437.547 5        31.242 5
S37  36963090.414 7 194242350.580 7         2.695 7        42.433 7
> 2022 06 21 00 59 50.0000000  0 27       0.000000000000
G01  19907577.781 8 104615024.778 8        54.834 8        50.755 8  19907594.023 8  81518269.656 8        42.900 8        50.226 8
G03  24171142.254 6 127020208.088 6      2851.748 6        39.397 6  24171161.500 8  98976846.538 8      2222.195 8        48.202 8
G07  20854328.168 7 109590232.152 7     -1804.053 7        47.752 7  20854341.977 8  85395044.373 8     -1405.732 8        50.226 8
G08  22938118.449 7 120540619.052 7     -2325.869 7        45.222 7  22938134.902 7  93927792.635 7     -1812.256 7        45.114 7
G14  22043997.125 7 115841985.508 7      2433.721 7        46.518 7  22044012.379 8  90266547.438 8      1896.514 8        49.254 8
G17  22722003.855 7 119404930.593 7      1533.506 7        45.288 7  22722019.438 8  93042871.657 8      1194.248 8        50.226 8
G21  21663450.883 8 113842200.414 8     -2489.111 8        48.616 8  21663463.219 8  88708263.604 8     -1939.561 8        50.226 8
G30  21146247.707 8 111124280.533 8       -38.115 8        48.658 8  21146264.363 8  86590416.603 8       -29.385 8        50.226 8
R09  22562609.766 7 120483067.573 7     -3751.971 7        47.585 7  22562615.352 7  93709080.898 7     -2918.396 7        45.506 7
R10  19544189.699 8 104181520.758 8     -1275.879 8        51.829 8                                                                
R11  20290638.910 9 108427023.636 9      2771.178 9        55.144 9  20290642.203 8  84332148.765 8      2155.295 8        51.570 8
R20  21145836.535 6 113076280.332 6     -3282.117 6        40.015 6  21145842.840 7  87948247.385 7     -2552.496 7        47.475 7
R21  19686464.410 9 105346252.456 9       511.734 9        54.879 9  19686469.855 8  81935997.803 8       397.994 8        50.509 8
C01  37566130.566 7 195616700.997 7        28.672 7        44.030 7  37566138.723 7 151263272.185 7        21.863 7        45.568 7  37566147.297 7 158954663.966 7        23.182 7        43.527 7
C02  37770223.934 6 196679470.778 6        21.973 6        41.564 6  37770229.336 7 152085060.149 7        17.059 7        45.235 7  37770238.926 7 159818242.728 7        18.025 7        42.751 7
C03  37028238.016 7 192815751.233 7        50.918 7        46.014 7  37028243.488 7 149097393.678 7        39.480 7        47.014 7  37028250.637 7 156678646.830 7        41.658 7        44.860 7
C04  38591093.711 6 200953952.930 6        22.793 6        40.231 6  38591100.223 7 155390369.266 7        17.820 7        43.758 7  38591108.164 6 163291608.513 6        18.709 6        41.864 6
C05  39466631.434 6 205513105.738 6        27.695 6        39.448 6  39466641.703 7 158915809.393 7        21.355 7        42.382 7  39466648.141 6 166996302.308 6        22.146 6        39.448 6
C06  39166218.961 6 203948774.028 6     -1816.563 6        40.634 6  39166227.438 7 157706167.462 7     -1404.660 7        44.134 7  39166233.484 7 165725150.056 7     -1476.174 7        42.868 7
C07  36309762.387 8 189074461.063 8       273.926 8        48.628 8  36309765.820 8 146204379.548 8       211.648 8        49.679 8  36309771.438 8 153638524.434 8       222.635 8        48.560 8
C08  38480585.465 6 200378513.929 6      1786.992 6        41.309 6  38480592.977 7 154945403.787 7      1381.922 7        44.860 7  38480598.266 6 162824003.511 6      1451.834 6        41.950 6
C09  38652353.117 7 201272948.786 7     -1784.512 7        43.157 7  38652363.992 7 155637049.688 7     -1380.129 7        46.134 7  38652366.797 6 163550812.661 6     -1450.041 6        39.971 6
C10  36740685.605 7 191318396.602 7       391.406 7        47.031 7  36740694.156 8 147939547.402 8       302.488 8        48.479 8  36740698.578 7 155461919.533 7       317.986 7        46.861 7
C11  23881372.348 7 124356566.374 7     -2444.004 7        46.796 7  23881379.145 7  96160420.343 7     -1890.305 7        47.654 7  23881385.355 7 101049956.861 7     -1986.096 7        47.662 7
C13  39184884.656 7 204045975.794 7      1650.957 7        42.728 7  39184899.824 7 157781355.820 7      1276.941 7        44.151 7  39184903.480 7 165804151.338 7      1341.365 7        42.034 7
C16  39481859.637 6 205592395.936 6     -1769.824 6        39.741 6  39481876.125 6 158977140.990 6     -1368.801 6        39.448 6  39479309.371 5                     -1438.768 5        30.103 5
S37  36963086.441 7 194242328.534 7         2.412 7        42.533 7
> 2022 06 21 01 00  0.0000000  0 27       0.000000000000
G01  19907480.781 8 104614516.222 8        48.037 8        50.866 8  19907497.066 8  81517873.371 8        37.248 8        50.226 8
G03  24165716.512 6 126991696.714 6      2852.488 6        38.616 6  24165735.887 7  98954629.940 7      2222.482 7        47.446 7
G07  20857767.402 8 109608305.400 8     -1809.385 8        48.124 8  20857781.152 8  85409127.400 8     -1409.781 8        50.226 8
G08  22942544.012 7 120563879.442 7     -2325.264 7        43.923 7  22942561.285 7  93945917.604 7     -1811.813 7        45.058 7
G14  22039367.977 7 115817656.095 7      2432.898 7        46.759 7  22039382.602 8  90247589.485 8      1895.803 8        49.661 8
G17  22719088.375 7 119389611.805 7      1531.377 7        45.141 7  22719104.688 8  93030934.952 8      1194.006 8        50.226 8
G21  21668191.539 8 113867113.593 8     -2492.432 8        48.807 8  21668204.258 8  88727676.482 8     -1942.066 8        50.226 8
G30  21146327.430 8 111124699.577 8       -44.248 8        48.766 8  21146343.914 8  86590743.116 8       -34.510 8        50.226 8
R09  22569638.602 7 120520608.274 7     -3755.016 7        47.221 7  22569642.898 7  93738279.147 7     -2920.480 7        44.636 7
R10  19546590.996 8 104194318.810 8     -1282.389 8        51.967 8                                                                
R11  20285458.371 9 108399339.262 9      2766.820 9        55.171 9  20285463.527 8  84310616.477 8      2152.172 8        51.826 8
R20  21151974.902 6 113109114.748 6     -3283.627 6        40.672 6  21151982.922 8  87973785.231 8     -2554.195 8        48.688 8
R21  19685515.660 9 105341169.824 9       505.844 9        55.314 9  19685520.531 8  81932044.643 8       393.557 8        50.800 8
C01  37566075.926 7 195616418.888 7        29.330 7        43.995 7  37566084.332 7 151263054.024 7        22.754 7        45.168 7  37566093.188 7 158954434.729 7        23.666 7        43.507 7
C02  37770182.602 6 196679254.426 6        22.357 6        41.533 6  37770187.570 7 152084892.843 7        17.207 7        45.003 7  37770197.547 7 159818066.913 7        18.510 7        42.558 7
C03  37028140.410 7 192815245.227 7        51.576 7        45.726 7  37028146.168 7 149097002.389 7        40.059 7        46.996 7  37028153.359 7 156678235.684 7        41.400 7        44.605 7
C04  38591050.160 6 200953726.356 6        23.627 6        40.103 6  38591056.527 7 155390194.050 7        18.105 7        43.995 7  38591064.703 7 163291424.369 7        19.037 7        42.483 7
C05  39466578.758 6 205512831.984 6        28.197 6        39.548 6  39466589.027 7 158915597.679 7        21.797 7        42.330 7  39466595.543 6 166996079.798 6        23.061 6        39.834 6
C06  39169708.918 6 203966943.802 6     -1816.566 6        40.822 6  39169716.715 7 157720217.434 7     -1403.438 7        43.644 7  39169722.727 7 165739914.473 7     -1475.670 7        42.704 7
C07  36309236.398 8 189071723.796 8       274.447 8        48.836 8  36309240.262 8 146202262.906 8       212.383 8        49.193 8  36309245.809 8 153636300.171 8       223.236 8        48.742 8
C08  38477155.176 6 200360650.409 6      1786.752 6        41.438 6  38477162.652 7 154931590.604 7      1381.641 7        44.831 7  38477167.613 7 162809487.928 7      1452.436 7        42.006 7
C09  38655781.152 7 201290797.395 7     -1783.598 7        43.157 7  38655791.488 7 155650851.317 7     -1379.453 7        45.568 7  38655794.438 6 163565316.086 6     -1449.869 6        40.315 6
C10  36739934.855 7 191314484.699 7       392.416 7        47.187 7  36739942.621 8 147936522.481 8       303.496 8        48.165 8  36739947.285 7 155458740.801 7       318.588 7        46.557 7
C11  23886067.070 7 124381014.930 7     -2444.457 7        46.273 7  23886073.758 7  96179325.503 7     -1889.883 7        47.475 7  23886080.613 8 101069823.287 8     -1985.982 8        48.027 8
C13  39181715.332 7 204029471.838 7      1651.068 7        43.263 7  39181729.676 7 157768593.947 7      1276.855 7        43.507 7  39181734.027 7 165790740.548 7      1341.283 7        42.144 7
C16  39485258.910 6 205610095.099 6     -1768.637 6        39.741 6  39485275.258 6 158990827.049 6     -1368.223 6        39.241 6  39485276.824 5 167075134.16415     -1437.252 5        32.144 5
S37  36963082.023 7 194242306.373 7         2.959 7        42.775 7
> 2022 06 21 01 00 10.0000000  0 27       0.000000000000
G01  19907397.809 8 104614080.084 8        40.410 8        50.792 8  19907413.934 8  81517532.527 8        31.314 8        50.226 8
G03  24160291.488 6 126963186.600 6      2850.469 6        37.662 6  24160310.234 7  98932414.250 7      2221.453 7        46.796 7
G07  20861216.938 7 109626434.915 7     -1815.412 7        47.585 7  20861230.973 8  85423254.265 8     -1414.311 8        50.226 8
G08  22946970.008 7 120587140.231 7     -2325.549 7        43.092 7  22946987.695 7  93964042.896 7     -1812.182 7        44.999 7
G14  22034740.547 7 115793339.190 7      2431.582 7        46.438 7  22034754.973 8  90228641.268 8      1894.715 8        49.466 8
G17  22716177.332 7 119374313.418 7      1529.355 7        45.392 7  22716193.602 8  93019014.191 8      1192.096 8        50.226 8
G21  21672939.348 8 113892064.067 8     -2496.311 8        48.634 8  21672952.141 8  88747118.408 8     -1945.131 8        50.226 8
G30  21146419.742 8 111125183.771 8       -51.289 8        48.985 8  21146436.039 8  86591120.393 8       -39.779 8        50.226 8
R09  22576675.609 7 120558183.979 7     -3759.055 7        47.722 7  22576680.766 7  93767504.660 7     -2923.422 7        44.874 7
R10  19549004.477 8 104207190.997 8     -1290.254 8        51.690 8                                                                
R11  20280286.859 9 108371703.407 9      2761.668 9        55.320 9  20280289.582 8  84289121.938 8      2148.041 8        51.930 8
R20  21158122.582 6 113141972.120 6     -3286.613 6        40.437 6  21158127.020 8  87999340.960 8     -2556.201 8        48.754 8
R21  19684578.375 9 105336153.314 9       498.914 9        55.417 9  19684581.094 8  81928142.928 8       388.094 8        51.178 8
C01  37566021.891 7 195616136.688 7        28.744 7        44.219 7  37566030.191 7 151262835.810 7        22.344 7        44.917 7  37566039.063 7 158954205.405 7        23.207 7        43.488 7
C02  37770140.980 6 196679037.718 6        22.201 6        41.595 6  37770145.738 7 152084725.263 7        17.129 7        45.086 7  37770155.941 7 159817890.821 7        17.953 7        42.607 7
C03  37028043.055 7 192814739.030 7        51.166 7        45.820 7  37028048.922 7 149096610.970 7        39.277 7        46.712 7  37028056.086 7 156677824.346 7        41.156 7        44.651 7
C04  38591006.750 6 200953499.805 6        23.158 6        40.059 6  38591012.902 7 155390018.849 7        17.832 7        43.682 7  38591021.152 6 163291240.271 6        18.969 6        41.687 6
C05  39466526.121 6 205512557.876 6        28.041 6        38.854 6  39466536.352 7 158915385.728 7        21.699 7        42.433 7  39466542.957 6 166995857.093 6        22.621 6        39.926 6
C06  39173198.125 6 203985111.518 6     -1816.061 6        40.517 6  39173205.746 7 157734265.862 7     -1404.629 7        43.221 7  39173211.379 7 165754677.198 7     -1475.914 7        42.798 7
C07  36308709.984 8 189068983.058 8       274.643 8        48.789 8  36308713.988 8 146200143.588 8       212.363 8        49.166 8  36308719.527 8 153634073.099 8       223.188 8        48.854 8
C08  38473726.605 7 200342794.522 7      1785.619 7        42.006 7  38473733.941 7 154917783.294 7      1380.508 7        45.072 7  38473738.613 6 162794978.589 6      1450.512 6        41.835 6
C09  38659209.188 7 201308649.476 7     -1784.830 7        42.981 7  38659219.922 7 155664655.650 7     -1380.215 7        45.605 7  38659222.605 6 163579822.364 6     -1451.109 6        40.437 6
C10  36739182.605 7 191310567.720 7       392.455 7        47.084 7  36739190.012 8 147933493.618 8       303.398 8        48.185 8  36739194.906 7 155455557.924 7       319.105 7        46.294 7
C11  23890762.938 7 124405468.764 7     -2445.279 7        46.325 7  23890769.910 7  96198234.731 7     -1890.703 7        47.475 7  23890776.352 7 101089694.021 7     -1986.988 7        47.507 7
C13  39178547.188 7 204012972.579 7      1649.447 7        42.981 7  39178561.285 7 157755835.692 7      1275.801 7        43.507 7  39178565.406 7 165777333.520 7      1341.098 7        42.034 7
C16  39488657.539 6 205627790.408 6     -1769.225 6        40.189 6  39488672.816 6 159004510.160 6     -1367.813 6        38.676 6  39488673.281 5 167089512.999 5     -1438.141 5        32.656 5
S37  36963077.891 7 194242284.131 7         2.813 7        42.062 7
> 2022 06 21 01 00 20.0000000  0 27       0.000000000000
G01  19907328.563 8 104613716.430 8        33.588 8        50.541 8  19907344.648 8  81517249.159 8        26.066 8        50.226 8
G03  24154866.027 6 126934677.663 6      2851.518 6        36.014 6  24154884.813 7  98910199.521 7      2221.887 7        45.662 7
G07  20864678.055 8 109644620.696 8     -1821.041 8        48.041 8  20864691.777 8  85437424.994 8     -1419.090 8        50.226 8
G08  22951396.141 7 120610401.674 7     -2325.416 7        43.135 7  22951414.742 7  93982168.680 7     -1812.313 7        44.920 7
G14  22030115.398 7 115769034.913 7      2429.994 7        46.356 7  22030130.180 8  90209702.872 8      1893.527 8        49.789 8
G17  22713269.719 7 119359035.523 7      1527.611 7        44.757 7  22713285.184 8  93007109.351 8      1189.641 8        50.226 8
G21  21677694.305 8 113917051.773 8     -2500.260 8        48.055 8  21677707.270 8  88766589.354 8     -1948.191 8        50.226 8
G30  21146523.926 8 111125733.193 8       -57.760 8        48.670 8  21146540.738 8  86591548.507 8       -44.793 8        50.226 8
R09  22583719.191 8 120595794.519 8     -3762.275 8        48.652 8  22583724.348 7  93796757.233 7     -2925.580 7        44.065 7
R10  19551432.414 8 104220137.655 8     -1298.031 8        51.829 8                                                                
R11  20275124.074 9 108344116.206 9      2756.896 9        54.897 9  20275126.938 8  84267665.244 8      2144.100 8        52.496 8
R20  21164268.102 6 113174852.666 6     -3288.773 6        39.971 6  21164274.977 7  88024914.697 7     -2557.762 7        47.863 7
R21  19683653.105 9 105331202.969 9       492.391 9        55.284 9  19683656.828 8  81924292.666 8       382.934 8        51.332 8
C01  37565967.852 7 195615854.452 7        28.506 7        43.682 7  37565975.613 7 151262617.563 7        21.834 7        45.208 7  37565984.762 7 158953976.053 7        23.307 7        43.407 7
C02  37770098.957 6 196678820.845 6        22.139 6        41.470 6  37770104.180 7 152084557.552 7        17.166 7        44.816 7  37770114.305 7 159817714.580 7        18.131 7        42.607 7
C03  37027946.160 7 192814232.727 7        51.357 7        45.726 7  37027951.273 7 149096219.460 7        39.627 7        46.969 7  37027959.121 7 156677412.937 7        41.197 7        45.114 7
C04  38590962.473 6 200953273.332 6        22.666 6        39.645 6  38590969.449 7 155389843.720 7        18.064 7        43.720 7  38590977.719 7 163291056.253 7        18.619 7        42.090 7
C05  39466473.297 6 205512283.593 6        28.213 6        39.741 6  39466484.137 7 158915173.600 7        21.580 7        42.583 7  39466490.395 6 166995634.191 6        22.174 6        39.548 6
C06  39176686.004 6 204003277.300 6     -1815.752 6        40.273 6  39176694.375 7 157748312.738 7     -1403.732 7        43.407 7  39176699.891 7 165769438.356 7     -1475.854 7        42.656 7
C07  36308183.023 8 189066238.874 8       274.990 8        48.795 8  36308186.527 8 146198021.607 8       212.713 8        49.156 8  36308192.473 8 153631843.233 8       223.307 8        49.046 8
C08  38470299.352 7 200324946.214 7      1784.676 7        42.845 7  38470306.613 7 154903981.834 7      1379.998 7        45.195 7  38470310.855 6 162780475.363 6      1450.299 6        41.717 6
C09  38662638.363 7 201326505.088 7     -1785.439 7        42.533 7  38662648.988 7 155678462.684 7     -1380.412 7        45.494 7  38662651.965 6 163594331.451 6     -1450.736 6        40.634 6
C10  36738429.383 7 191306645.773 7       392.783 7        47.084 7  36738437.145 8 147930460.924 8       303.631 8        48.055 8  36738441.750 7 155452371.024 7       319.186 7        46.458 7
C11  23895460.512 7 124429927.876 7     -2445.791 7        46.702 7  23895467.738 7  96217148.069 7     -1891.467 7        47.877 7  23895473.383 7 101109569.040 7     -1987.182 7        47.593 7
C13  39175378.895 7 203996477.955 7      1650.125 7        42.632 7  39175393.492 7 157743081.031 7      1275.682 7        43.468 7  39175397.598 6 165763930.335 6      1340.279 6        41.978 6
C16  39492055.520 6 205645481.962 6     -1767.744 6        40.059 6  39492069.398 6 159018190.342 6     -1366.975 6        38.736 6  39492070.574 5 167103888.864 5     -1438.275 5        31.864 5
S37  36963073.754 7 194242261.897 7         2.436 7        42.356 7
> 2022 06 21 01 00 30.0000000  0 27       0.000000000000
G01  19907273.305 8 104613425.465 8        26.031 8        50.952 8  19907289.387 8  81517022.438 8        20.336 8        50.226 8
G03  24149439.953 5 126906170.369 5      2851.107 5        35.666 5  24149460.418 7  98887986.084 7      2221.525 7        44.653 7
G07  20868149.438 8 109662862.844 8     -1826.469 8        48.083 8  20868163.191 8  85451639.641 8     -1423.141 8        50.226 8
G08  22955823.805 7 120633663.951 7     -2325.531 7        43.242 7  22955842.020 7  94000295.097 7     -1812.340 7        44.176 7
G14  22025492.789 7 115744743.520 7      2429.000 7        46.167 7  22025507.813 8  90190774.534 8      1892.756 8        49.876 8
G17  22710366.211 7 119343778.254 7      1525.406 7        44.801 7  22710381.309 8  92995220.581 8      1188.188 8        50.226 8
G21  21682456.664 8 113942076.800 8     -2503.773 8        48.041 8  21682469.398 8  88786089.349 8     -1951.031 8        50.226 8
G30  21146641.234 8 111126347.999 8       -64.145 8        48.985 8  21146657.563 8  86592027.583 8       -50.074 8        50.226 8
R09  22590769.758 8 120633440.003 8     -3765.600 8        48.428 8  22590773.766 7  93826037.029 7     -2928.848 7        43.304 7
R10  19553875.922 8 104233158.468 8     -1305.332 8        51.984 8                                                                
R11  20269970.273 9 108316578.191 9      2751.889 9        54.622 9  20269974.859 8  84246246.808 8      2140.262 8        51.975 8
R20  21170422.031 6 113207756.438 6     -3291.422 6        40.103 6  21170429.480 7  88050506.523 7     -2559.846 7        47.329 7
R21  19682740.832 9 105326318.933 9       485.539 9        55.164 9  19682743.555 8  81920493.970 8       377.625 8        51.131 8
C01  37565913.414 7 195615572.371 7        28.477 7        43.567 7  37565921.711 7 151262399.441 7        22.127 7        45.544 7  37565930.449 7 158953746.844 7        23.145 7        43.178 7
C02  37770057.508 6 196678603.908 6        22.109 6        41.374 6  37770062.656 7 152084389.791 7        17.303 7        45.235 7  37770072.582 7 159817538.299 7        18.008 7        42.680 7
C03  37027848.508 7 192813726.490 7        51.133 7        45.690 7  37027854.375 7 149095827.990 7        39.725 7        47.093 7  37027861.844 7 156677001.549 7        41.758 7        44.932 7
C04  38590919.020 6 200953047.164 6        23.145 6        40.103 6  38590926.316 7 155389668.827 7        18.025 7        43.869 7  38590934.387 6 163290872.471 6        18.613 6        41.893 6
C05  39466421.184 6 205512009.253 6        27.852 6        39.241 6  39466431.273 7 158914961.453 7        21.326 7        43.048 7  39466437.617 6 166995411.255 6        22.578 6        40.189 6
C06  39180174.199 6 204021441.344 6     -1815.645 6        39.645 6  39180182.250 7 157762358.310 7     -1404.299 7        43.427 7  39180187.965 7 165784198.094 7     -1475.879 7        42.821 7
C07  36307655.453 8 189063491.540 8       275.000 8        48.807 8  36307658.742 8 146195897.182 8       213.104 8        49.543 8  36307664.961 8 153629610.790 8       223.867 8        49.096 8
C08  38466873.238 7 200307105.687 7      1784.588 7        42.704 7  38466880.539 7 154890186.438 7      1379.490 7        45.469 7  38466884.637 6 162765978.479 6      1449.512 6        41.502 6
C09  38666067.750 7 201344364.334 7     -1785.371 7        42.558 7  38666078.730 7 155692272.550 7     -1380.529 7        45.568 7  38666081.887 6 163608843.532 6     -1451.348 6        41.141 6
C10  36737675.188 7 191302719.013 7       393.496 7        47.296 7  36737682.914 8 147927424.497 8       304.197 8        48.076 8  36737687.523 7 155449180.199 7       320.000 7        46.508 7
C11  23900158.801 7 124454392.399 7     -2446.367 7        46.606 7  23900166.242 7  96236065.576 7     -1891.408 7        47.841 7  23900171.500 7 101129448.472 7     -1987.695 7        47.213 7
C13  39172212.207 7 203979988.346 7      1649.451 7        42.821 7  39172226.375 7 157730330.240 7      1275.350 7        43.468 7  39172230.977 6 165750531.178 6      1340.332 6        41.595 6
C16  39495452.102 6 205663169.946 6     -1768.086 6        40.189 6  39495466.699 6 159031867.731 6     -1366.662 6        39.597 6  39495467.605 5 167118261.743 5     -1436.289 5        32.407 5
S37  36963069.434 7 194242239.874 7         2.750 7        42.558 7
> 2022 06 21 01 00 40.0000000  0 27       0.000000000000
G01  19907231.641 8 104613205.825 8        18.225 8        50.759 8  19907240.613 7  81516823.298 7        14.256 7        42.192 7
G03  24144016.605 6 126877663.478 6      2850.039 6        36.231 6  24144035.508 7  98865772.953 7      2221.092 7        44.261 7
G07  20871631.129 7 109681159.924 7     -1832.557 7        47.730 7  20871644.953 8  85465897.101 8     -1428.164 8        50.226 8
G08  22960250.332 7 120656925.857 7     -2326.170 7        43.605 7  22960267.160 7  94018421.226 7     -1812.344 7        44.537 7
G14  22020872.328 7 115720463.772 7      2427.129 7        46.188 7  22020887.137 8  90171855.251 8      1891.248 8        49.304 8
G17  22707466.859 7 119328540.269 7      1522.773 7        44.874 7  22707481.828 8  92983346.820 8      1186.248 8        50.226 8
G21  21687225.750 8 113967137.707 8     -2508.045 8        48.199 8  21687238.285 8  88805617.334 8     -1954.277 8        50.226 8
G30  21146770.422 8 111127026.899 8       -71.170 8        48.917 8  21146786.594 8  86592556.589 8       -55.432 8        50.226 8
R09  22597825.480 8 120671118.930 8     -3769.730 8        49.085 8  22597831.355 7  93855342.827 7     -2931.891 7        43.366 7
R10  19556330.035 8 104246252.421 8     -1313.164 8        51.800 8                                                                
R11  20264826.508 9 108289088.008 9      2746.545 9        54.452 9  20264829.516 8  84224865.550 8      2136.221 8        51.806 8
R20  21176579.406 6 113240681.696 6     -3293.486 6        40.231 6  21176586.566 7  88076115.048 7     -2562.131 7        47.826 7
R21  19681839.164 9 105321499.773 9       478.588 9        55.242 9  19681844.176 8  81916745.738 8       372.035 8        51.335 8
C01  37565859.121 7 195615289.135 7        28.053 7        43.905 7  37565867.387 7 151262180.415 7        21.945 7        45.506 7  37565876.137 7 158953516.684 7        23.219 7        43.387 7
C02  37770015.484 6 196678385.606 6        21.783 6        41.533 6  37770020.746 7 152084220.982 7        16.730 7        45.154 7  37770030.617 7 159817360.914 7        17.398 7        42.751 7
C03  37027751.324 7 192813219.010 7        50.846 7        45.935 7  37027757.336 7 149095435.578 7        39.289 7        47.321 7  37027764.219 7 156676589.186 7        41.031 7        44.932 7
C04  38590875.566 6 200952819.979 6        22.604 6        39.926 6  38590882.723 7 155389493.151 7        17.355 7        44.151 7  38590890.570 7 163290687.854 7        18.434 7        42.251 7
C05  39466368.074 6 205511733.585 6        27.428 6        39.188 6  39466377.984 7 158914748.272 7        21.301 7        43.304 7  39466384.879 6 166995187.242 6        22.223 6        40.315 6
C06  39183661.688 6 204039602.247 6     -1816.791 6        40.397 6  39183670.523 7 157776401.405 7     -1404.520 7        43.795 7  39183675.746 7 165798955.270 7     -1475.922 7        42.775 7
C07  36307127.133 8 189060739.648 8       275.416 8        48.754 8  36307130.355 8 146193769.263 8       212.805 8        49.118 8  36307136.449 8 153627374.648 8       223.727 8        48.911 8
C08  38463447.918 7 200289271.692 7      1782.857 7        42.583 7  38463454.895 7 154876396.063 7      1378.527 7        45.003 7  38463459.660 6 162751486.869 6      1449.195 6        41.687 6
C09  38669498.141 7 201362225.895 7     -1786.381 7        42.607 7  38669508.836 7 155706084.215 7     -1381.316 7        45.581 7  38669512.355 6 163623357.483 6     -1451.859 6        41.502 6
C10  36736920.070 7 191298786.160 7       393.346 7        47.387 7  36736927.617 7 147924383.360 7       304.113 7        47.985 7  36736932.254 7 155445984.436 7       319.586 7        46.596 7
C11  23904857.094 7 124478860.992 7     -2447.416 7        46.377 7  23904865.359 8  96254986.230 8     -1892.313 8        48.523 8  23904870.238 7 101149331.199 7     -1988.598 7        47.616 7
C13  39169046.383 7 203963502.426 7      1648.150 7        42.821 7  39169060.480 7 157717582.305 7      1274.582 7        43.325 7  39169065.156 6 165737135.033 6      1339.352 6        41.950 6
C16  39498848.082 6 205680852.993 6     -1768.529 6        40.231 6  39498862.641 6 159045541.330 6     -1366.492 6        39.448 6  39498863.699 5 167132630.672 5     -1438.305 5        33.113 5
S37  36963064.977 7 194242216.689 7         2.697 7        42.583 7
> 2022 06 21 01 00 50.0000000  0 27       0.000000000000
G01  19907203.125 8 104613059.158 8        11.238 8        50.146 8  19907219.723 8  81516736.012 8         8.730 8        50.226 8
G03  24138592.520 6 126849158.784 6      2850.652 6        36.014 6  24138610.680 7  98843561.509 7      2221.211 7        43.885 7
G07  20875123.387 7 109699513.565 7     -1837.783 7        47.530 7  20875137.469 8  85480198.629 8     -1432.070 8        50.226 8
G08  22964677.266 7 120680188.634 7     -2326.143 7        43.720 7  22964693.836 7  94036548.028 7     -1811.990 7        44.265 7
G14  22016254.707 7 115696197.352 7      2426.492 7        45.980 7  22016269.730 8  90152946.382 8      1890.762 8        49.698 8
G17  22704571.211 7 119313323.201 7      1520.926 7        44.543 7  22704586.008 8  92971489.381 8      1185.430 8        50.226 8
G21  21692001.402 7 113992236.092 7     -2511.416 7        47.546 7  21692013.965 8  88825174.512 8     -1956.951 8        50.226 8
G30  21146911.898 8 111127771.538 8       -77.590 8        48.542 8  21146928.367 8  86593136.814 8       -60.234 8        50.226 8
R09  22604889.352 8 120708832.999 8     -3772.662 8        48.560 8  22604894.793 7  93884675.981 7     -2934.926 7        43.644 7
R10  19558801.602 8 104259421.271 8     -1320.387 8        52.084 8                                                                
R11  20259690.598 9 108261647.657 9      2741.947 9        54.253 9  20259694.605 8  84203523.068 8      2132.578 8        51.315 8
R20  21182742.348 6 113273630.341 6     -3295.488 6        40.477 6  21182748.938 8  88101741.752 8     -2563.217 8        48.232 8
R21  19680951.801 9 105316747.326 9       472.150 9        54.838 9  19680954.664 8  81913049.379 8       367.314 8        51.083 8
C01  37565804.813 7 195615006.398 7        28.393 7        43.977 7  37565813.109 7 151261961.772 7        22.277 7        45.750 7  37565821.988 7 158953286.942 7        23.324 7        43.527 7
C02  37769973.910 6 196678167.658 6        22.104 6        41.564 6  37769978.813 7 152084052.441 7        17.043 7        45.275 7  37769988.898 7 159817183.796 7        18.129 7        42.558 7
C03  37027653.801 7 192812711.949 7        50.893 7        45.726 7  37027659.813 7 149095043.474 7        39.465 7        47.354 7  37027666.945 7 156676177.166 7        41.566 7        44.917 7
C04  38590832.133 6 200952593.423 6        23.100 6        40.059 6  38590839.109 7 155389317.952 7        17.648 7        44.449 7  38590847.105 7 163290503.740 7        18.598 7        42.278 7
C05  39466315.230 6 205511458.202 6        27.826 6        39.448 6  39466325.531 7 158914535.339 7        21.516 7        43.070 7  39466331.777 6 166994963.465 6        22.621 6        39.645 6
C06  39187149.328 6 204057761.654 6     -1815.162 6        40.477 6  39187157.629 7 157790443.384 7     -1403.914 7        43.625 7  39187163.203 7 165813711.261 7     -1475.836 7        43.048 7
C07  36306598.082 8 189057984.926 8       275.893 8        48.990 8  36306601.266 8 146191639.131 8       213.371 8        49.246 8  36306607.438 8 153625136.215 8       224.125 8        48.730 8
C08  38460024.973 7 200271445.962 7      1782.084 7        42.936 7  38460032.309 7 154862612.079 7      1377.941 7        45.235 7  38460036.250 6 162737002.027 6      1448.266 6        41.806 6
C09  38672928.477 7 201380091.455 7     -1786.900 7        42.433 7  38672939.566 7 155719898.956 7     -1381.375 7        45.366 7  38672943.234 6 163637874.669 6     -1451.363 6        41.470 6
C10  36736164.430 7 191294848.823 7       394.330 7        47.419 7  36736170.977 7 147921338.768 7       304.699 7        47.841 7  36736176.027 7 155442785.025 7       320.648 7        46.654 7
C11  23909557.441 7 124503335.246 7     -2447.076 7        46.942 7  23909565.207 8  96273911.243 8     -1892.352 8        48.305 8  23909570.492 7 101169218.510 7     -1988.609 7        47.569 7
C13  39165881.293 7 203947021.873 7      1648.041 7        42.751 7  39165895.527 7 157704838.488 7      1274.387 7        43.221 7  39165900.172 6 165723743.230 6      1339.184 6        41.835 6
C16  39502242.105 6 205698532.736 6     -1768.072 6        40.015 6  39502257.633 6 159059212.379 6     -1366.648 6        39.788 6  39502259.449 5 167146996.825 5     -1435.191 5        33.325 5
S37  36963060.926 7 194242194.108 7         2.020 7        42.382 7
> 2022 06 21 01 01  0.0000000  0 27       0.000000000000
G01  19907189.367 8 104612985.444 8         4.367 8        50.257 8  19907205.695 8  81516679.566 8         3.363 8        50.226 8
G03  24133168.887 5 126820656.376 5      2849.250 5        35.544 5  24133186.457 7  98821351.844 7      2221.293 7        43.372 7
G07  20878627.402 7 109717923.666 7     -1843.094 7        47.370 7  20878640.824 8  85494544.139 8     -1436.109 8        50.226 8
G08  22969104.367 7 120703452.419 7     -2325.670 7        43.869 7  22969121.898 7  94054675.655 7     -1812.184 7        45.107 7
G14  22011639.832 7 115671944.369 7      2425.363 7        46.304 7  22011654.539 8  90134047.959 8      1889.926 8        49.633 8
G17  22701679.160 7 119298127.043 7      1519.699 7        43.995 7  22701694.570 8  92959648.257 8      1183.578 8        50.226 8
G21  21696784.516 7 114017371.860 7     -2514.811 7        47.752 7  21696797.207 8  88844760.790 8     -1959.625 8        50.226 8
G30  21147066.418 8 111128581.868 8       -83.543 8        48.640 8  21147082.672 8  86593768.251 8       -65.152 8        50.226 8
R09  22611956.398 8 120746582.056 8     -3775.813 8        48.076 8  22611960.695 7  93914036.297 7     -2937.078 7        43.644 7
R10  19561287.805 8 104272664.784 8     -1327.629 8        51.738 8                                                                
R11  20254564.879 9 108234257.107 9      2737.135 9        55.011 9  20254568.746 8  84182219.322 8      2128.998 8        51.158 8
R20  21188905.742 6 113306601.934 6     -3297.844 6        40.710 6  21188915.340 7  88127386.301 7     -2564.865 7        47.804 7
R21  19680074.914 9 105312061.209 9       465.887 9        54.624 9  19680079.641 8  81909404.627 8       362.518 8        51.371 8
C01  37565751.168 7 195614724.151 7        28.785 7        44.012 7  37565758.859 7 151261743.538 7        22.334 7        45.469 7  37565767.730 7 158953057.593 7        23.277 7        43.527 7
C02  37769931.965 6 196677949.984 6        22.594 6        41.406 6  37769936.902 7 152083884.104 7        17.373 7        45.114 7  37769947.117 7 159817006.918 7        17.965 7        42.583 7
C03  37027556.086 7 192812205.273 7        51.363 7        45.797 7  37027562.309 7 149094651.688 7        39.697 7        47.075 7  37027569.586 7 156675765.436 7        41.617 7        44.772 7
C04  38590789.223 6 200952367.490 6        23.316 6        40.189 6  38590795.555 7 155389143.239 7        17.686 7        43.777 7  38590803.652 7 163290320.159 7        18.648 7        42.144 7
C05  39466262.195 6 205511183.153 6        27.809 6        39.188 6  39466272.246 7 158914322.625 7        21.787 7        42.913 7  39466278.750 6 166994739.954 6        22.867 6        40.189 6
C06  39190636.781 6 204075919.544 6     -1815.434 6        40.595 6  39190644.723 7 157804484.176 7     -1403.936 7        43.507 7  39190650.398 7 165828465.983 7     -1474.887 7        43.199 7
C07  36306068.801 8 189055227.350 8       276.617 8        49.013 8  36306071.770 8 146189506.793 8       213.975 8        48.865 8  36306077.957 8 153622895.459 8       224.723 8        48.917 8
C08  38456603.949 7 200253628.320 7      1782.203 7        43.199 7  38456610.316 7 154848834.359 7      1377.979 7        44.575 7  38456614.695 6 162722523.750 6      1448.219 6        41.626 6
C09  38676360.195 7 201397960.886 7     -1786.625 7        42.090 7  38676371.426 7 155733716.703 7     -1381.514 7        45.702 7  38676374.727 6 163652395.017 6     -1451.527 6        41.564 6
C10  36735407.527 7 191290906.981 7       395.094 7        47.403 7  36735414.074 7 147918290.680 7       305.420 7        47.885 7  36735419.066 7 155439581.951 7       321.090 7        46.263 7
C11  23914258.746 7 124527815.104 7     -2447.717 7        46.778 7  23914266.758 8  96292840.613 8     -1892.627 8        48.305 8  23914271.879 7 101189110.380 7     -1988.871 7        47.623 7
C13  39162716.613 6 203930546.699 6      1647.340 6        41.835 6  39162732.176 7 157692098.836 7      1274.111 7        43.468 7  39162736.492 6 165710355.786 6      1339.273 6        41.835 6
C16  39505637.406 6 205716209.095 6     -1766.938 6        40.517 6  39505651.645 6 159072880.846 6     -1366.045 6        39.597 6  39505654.199 5 167161360.300 5     -1435.902 5        33.527 5
S37  36963056.473 7 194242171.983 7         2.570 7        42.607 7
> 2022 06 21 01 01 10.0000000  0 27       0.000000000000
G01  19907189.457 8 104612984.155 8        -2.869 8        50.949 8  19907205.426 8  81516677.562 8        -2.152 8        50.226 8
G03  24127744.648 5 126792155.780 5      2851.096 5        34.727 5  24127763.621 7  98799143.664 7      2220.875 7        43.538 7
G07  20882141.117 7 109736389.623 7     -1848.609 7        47.730 7  20882154.695 8  85508933.181 8     -1440.727 8        50.226 8
G08  22973531.008 7 120726716.803 7     -2325.914 7        43.488 7  22973548.406 7  94072803.719 7     -1812.680 7        44.425 7
G14  22007026.922 7 115647704.373 7      2424.455 7        46.315 7  22007042.121 8  90115159.672 8      1889.234 8        49.607 8
G17  22698790.941 7 119282951.290 7      1517.131 7        44.433 7  22698807.195 8  92947822.991 8      1181.891 8        50.226 8
G21  21701574.895 7 114042544.405 7     -2518.434 7        47.700 7  21701587.559 8  88864375.745 8     -1962.406 8        50.226 8
G30  21147232.781 8 111129457.423 8       -90.018 8        48.990 8  21147249.266 8  86594450.474 8       -69.965 8        50.226 8
R09  22619034.004 7 120784365.536 7     -3779.043 7        47.263 7  22619037.301 7  93943423.361 7     -2939.586 7        43.547 7
R10  19563784.426 8 104285982.481 8     -1334.604 8        51.144 8                                                                
R11  20249449.012 9 108206916.021 9      2732.438 9        55.089 9  20249453.023 8  84160954.028 8      2125.121 8        51.072 8
R20  21195078.840 6 113339596.218 6     -3299.791 6        41.037 6  21195083.426 7  88153048.504 7     -2566.539 7        47.554 7
R21  19679212.750 9 105307440.885 9       459.387 9        55.508 9  19679214.039 8  81905811.055 8       357.328 8        50.974 8
C01  37565696.418 7 195614441.873 7        29.102 7        44.012 7  37565704.719 7 151261525.270 7        22.314 7        45.494 7  37565713.699 7 158952828.227 7        23.607 7        43.221 7
C02  37769889.594 6 196677732.151 6        22.637 6        41.564 6  37769895.746 7 152083715.659 7        17.529 7        45.222 7  37769905.277 7 159816829.887 7        18.197 7        42.936 7
C03  37027458.945 7 192811698.499 7        51.465 7        45.820 7  37027465.277 7 149094259.806 7        39.873 7        47.321 7  37027472.469 7 156675353.646 7        41.576 7        44.946 7
C04  38590745.203 6 200952141.668 6        23.223 6        39.880 6  38590752.465 7 155388968.615 7        18.096 7        43.663 7  38590760.508 7 163290136.656 7        18.803 7        42.433 7
C05  39466210.023 6 205510907.854 6        28.379 6        39.693 6  39466219.930 7 158914109.726 7        22.158 7        43.003 7  39466226.156 6 166994516.232 6        23.100 6        40.356 6
C06  39194123.273 6 204094075.376 6     -1814.922 6        40.397 6  39194131.070 7 157818523.368 7     -1402.998 7        42.959 7  39194137.086 7 165843219.072 7     -1474.811 7        43.547 7
C07  36305538.379 8 189052466.435 8       276.719 8        48.957 8  36305541.668 8 146187371.864 8       214.207 8        49.241 8  36305547.637 8 153620651.979 8       225.092 8        48.882 8
C08  38453183.855 7 200235818.490 7      1781.895 7        43.263 7  38453189.652 7 154835062.693 7      1377.371 7        44.465 7  38453194.582 6 162708051.819 6      1446.889 6        41.776 6
C09  38679792.379 7 201415833.750 7     -1786.348 7        42.117 7  38679803.328 7 155747537.117 7     -1381.436 7        45.288 7  38679807.105 6 163666918.159 6     -1451.842 6        41.002 6
C10  36734649.586 7 191286960.234 7       395.586 7        47.246 7  36734656.633 7 147915238.804 7       305.945 7        47.971 7  36734661.270 7 155436374.906 7       321.439 7        46.577 7
C11  23918961.156 7 124552299.960 7     -2448.184 7        46.842 7  23918968.918 8  96311773.843 8     -1893.076 8        48.974 8  23918973.914 7 101209006.331 7     -1989.225 7        47.826 7
C13  39159553.621 6 203914076.466 6      1646.719 6        41.595 6  39159569.434 7 157679363.009 7      1274.109 7        43.507 7  39159573.441 7 165696972.412 7      1338.646 7        42.062 7
C16  39509030.387 6 205733881.594 6     -1766.152 6        40.231 6  39509045.625 6 159086546.270 6     -1364.658 6        39.834 6  39509048.336 5 167175720.611 5     -1435.162 5        34.253 5
S37  36963052.125 7 194242149.880 7         2.951 7        42.508 7
> 2022 06 21 01 01 20.0000000  0 27       0.000000000000
G01  19907202.762 8 104613055.227 8       -10.211 8        50.924 8  19907217.387 8  81516727.950 8        -7.908 8        50.226 8
G03  24122320.461 5 126763657.188 5      2851.154 5        35.666 5  24122340.895 7  98776936.988 7      2221.426 7        43.898 7
G07  20885666.039 8 109754911.408 8     -1854.293 8        48.006 8  20885679.391 8  85523365.725 8     -1444.842 8        50.226 8
G08  22977957.984 7 120749981.494 7     -2326.070 7        43.178 7  22977974.867 7  94090932.036 7     -1812.498 7        43.993 7
G14  22002416.355 7 115623477.412 7      2422.775 7        46.167 7  22002431.652 8  90096281.524 8      1887.852 8        49.827 8
G17  22695908.352 7 119267795.825 7      1515.354 7        45.820 7  22695923.348 8  92936013.580 8      1180.410 8        50.226 8
G21  21706372.336 8 114067753.613 8     -2521.949 8        48.138 8  21706384.711 8  88884019.278 8     -1965.174 8        50.226 8
G30  21147412.359 8 111130398.135 8       -96.852 8        48.974 8  21147427.973 8  86595183.494 8       -75.057 8        50.226 8
R09  22626113.672 7 120822183.249 7     -3782.643 7        47.692 7  22626122.695 7  93972837.074 7     -2942.301 7        43.814 7
R10  19566297.285 8 104299374.356 8     -1342.277 8        51.299 8                                                                
R11  20244343.078 9 108179624.485 9      2727.195 9        55.149 9  20244344.512 8  84139727.292 8      2121.191 8        51.229 8
R20  21201251.992 6 113372612.657 6     -3302.438 6        40.315 6  21201258.727 7  88178727.950 7     -2568.320 7        47.136 7
R21  19678362.234 9 105302886.604 9       452.730 9        55.520 9  19678363.813 8  81902268.835 8       352.166 8        50.811 8
C01  37565642.363 7 195614159.578 7        29.158 7        43.850 7  37565650.520 7 151261306.975 7        22.156 7        45.327 7  37565659.242 7 158952598.822 7        23.645 7        43.325 7
C02  37769848.238 6 196677514.054 6        22.518 6        41.374 6  37769853.676 7 152083547.021 7        17.098 7        45.182 7  37769863.375 7 159816652.680 7        18.449 7        43.092 7
C03  37027361.605 7 192811191.603 7        51.639 7        45.832 7  37027368.043 7 149093867.840 7        39.910 7        47.378 7  37027375.027 7                        41.730 7        44.727 7
C04  38590702.094 6 200951915.949 6        23.475 6        40.672 6  38590709.250 7 155388794.041 7        18.191 7        44.335 7  38590716.738 6 163289953.229 6        19.133 6        41.776 6
C05  39466156.109 6 205510632.313 6        28.592 6        39.024 6  39466167.164 7 158913896.671 7        21.707 7        43.366 7  39466173.094 6 166994292.327 6        23.039 6        40.477 6
C06  39197609.918 6 204112229.138 6     -1814.475 6        40.710 6  39197617.430 7 157832560.970 7     -1402.414 7        43.199 7  39197623.434 7 165857970.460 7     -1474.615 7        43.263 7
C07  36305007.719 8 189049702.124 8       277.127 8        48.968 8  36305010.832 8 146185234.333 8       214.305 8        49.085 8  36305016.855 8 153618405.755 8       225.461 8        48.682 8
C08  38449764.602 7 200218016.437 7      1780.428 7        43.048 7  38449770.469 7 154821296.995 7      1376.609 7        44.030 7  38449775.891 7 162693586.185 7      1446.477 7        42.034 7
C09  38683224.723 7 201433709.960 7     -1786.623 7        42.330 7  38683236.527 7 155761360.109 7     -1381.926 7        45.262 7  38683240.215 6 163681444.045 6     -1452.135 6        41.209 6
C10  36733890.270 7 191283008.472 7       396.014 7        47.280 7  36733897.277 7 147912183.054 7       306.316 7        47.554 7  36733902.289 7 155433163.771 7       322.180 7        46.407 7
C11  23923664.551 7 124576789.786 7     -2448.186 7        46.712 7  23923671.598 8  96330710.930 8     -1893.215 8        48.158 8  23923676.855 7 101228906.313 7     -1989.361 7        47.662 7
C13  39156391.824 7 203897610.956 7      1647.146 7        42.006 7  39156406.852 7 157666630.888 7      1273.699 7        43.284 7  39156411.609 7 165683592.877 7      1338.586 7        42.304 7
C16  39512423.844 6 205751550.189 6     -1765.568 6        39.788 6  39512439.441 6 159100208.750 6     -1365.969 6        40.231 6  39512441.488 5 167190077.763 5     -1434.635 5        34.253 5
S37  36963047.973 7 194242127.776 7         3.188 7        42.656 7
> 2022 06 21 01 01 30.0000000  0 27       0.000000000000
G01  19907229.945 8 104613198.727 8       -16.904 8        50.630 8  19907246.172 8  81516845.768 8       -13.121 8        50.226 8
G03  24116897.703 5 126735160.761 5      2850.965 5        34.417 5  24116918.621 7  98754732.053 7      2221.193 7        44.146 7
G07  20889201.266 8 109773489.026 8     -1859.482 8        48.245 8  20889214.961 8  85537841.774 8     -1449.195 8        50.226 8
G08  22982384.957 7 120773246.651 7     -2325.420 7        43.427 7  22982402.715 7  94109060.737 7     -1812.027 7        44.803 7
G14  21997808.648 7 115599263.612 7      2421.570 7        45.924 7  21997823.762 8  90077413.645 8      1886.916 8        49.580 8
G17  22693027.766 7 119252660.681 7      1513.660 7        45.843 7  22693043.246 8  92924219.973 8      1179.064 8        50.226 8
G21  21711175.785 7 114092999.463 7     -2525.342 7        47.562 7  21711189.063 8  88903691.354 8     -1967.770 8        50.226 8
G30  21147603.527 8 111131404.072 8      -102.783 8        48.865 8  21147619.254 8  86595967.340 8       -79.938 8        50.226 8
R09  22633203.793 8 120860035.266 8     -3785.971 8        48.670 8  22633210.668 7  94002277.479 7     -2944.502 7        44.269 7
R10  19568823.031 8 104312840.557 8     -1349.369 8        51.533 8                                                                
R11  20239244.734 9 108152382.810 9      2722.477 9        55.188 9  20239248.602 8  84118539.333 8      2117.543 8        51.741 8
R20  21207428.578 6 113405651.233 6     -3304.248 6        40.103 6  21207436.457 8  88204424.600 8     -2569.881 8        48.318 8
R21  19677523.180 9 105298398.178 9       446.506 9        54.925 9  19677526.188 8  81898777.861 8       347.262 8        51.086 8
C01  37565588.094 7 195613877.330 7        28.783 7        43.814 7  37565596.320 7 151261088.713 7        22.631 7        45.168 7  37565605.043 7 158952369.474 7        23.523 7        43.407 7
C02  37769806.414 6 196677295.820 6        22.436 6        41.438 6  37769811.961 7 152083378.260 7        17.436 7        45.208 7  37769821.270 7 159816475.359 7        18.172 7        42.775 7
C03  37027264.012 7 192810684.673 7        51.498 7        45.820 7  37027270.668 7 149093475.860 7        39.740 7        47.483 7  37027277.422 7 156674529.81417        41.980 7        44.682 7
C04  38590659.270 6 200951690.414 6        23.666 6        39.880 6  38590665.891 7 155388619.659 7        18.080 7        44.048 7  38590673.902 7 163289769.961 7        18.895 7        42.144 7
C05  39466103.734 6 205510356.661 6        28.705 6        38.736 6  39466113.680 7 158913683.519 7        21.596 7        43.026 7  39466120.176 6 166994068.344 6        22.820 6        40.059 6
C06  39201095.563 6 204130380.837 6     -1813.736 6        40.748 6  39201103.469 7 157846597.005 7     -1402.330 7        43.113 7  39201109.199 7 165872720.155 7     -1473.566 7        43.304 7
C07  36304475.809 8 189046934.578 8       277.963 8        48.968 8  36304479.277 8 146183094.290 8       214.818 8        49.188 8  36304485.324 8 153616156.894 8       225.789 8        48.882 8
C08  38446346.703 7 200200222.319 7      1779.076 7        42.775 7  38446352.676 7 154807537.435 7      1376.516 7        44.219 7  38446358.531 6 162679126.954 6      1446.824 6        41.656 6
C09  38686658.531 7 201451589.622 7     -1786.744 7        42.144 7  38686669.980 7 155775185.774 7     -1381.939 7        45.195 7  38686673.816 6 163695972.686 6     -1452.004 6        41.342 6
C10  36733130.875 7 191279051.841 7       397.045 7        47.467 7  36733137.957 8 147909123.544 8       306.869 8        48.212 8  36733142.523 7 155429948.703 7       322.527 7        46.596 7
C11  23928367.227 7 124601284.651 7     -2448.775 7        46.567 7  23928375.883 8  96349651.887 8     -1893.639 8        48.566 8  23928380.512 7 101248810.370 7     -1989.875 7        47.515 7
C13  39153231.422 7 203881150.538 7      1646.420 7        42.171 7  39153246.270 7 157653902.642 7      1273.645 7        43.682 7  39153250.434 6 165670217.459 6      1337.156 6        41.893 6
C16  39515815.727 6 205769214.936 6     -1765.279 6        39.834 6  39515831.609 6 159113868.198 6     -1364.928 6        40.822 6  39515834.215 5 167204431.771 5     -1433.840 5        34.575 5
S37  36963043.965 7 194242105.772 7         2.939 7        42.656 7
> 2022 06 21 01 01 40.0000000  0 27       0.000000000000
G01  19907270.684 8 104613414.704 8       -25.133 8        50.227 8  19907287.242 8  81517014.063 8       -19.629 8        50.226 8
G03  24111475.621 5 126706666.682 5      2849.887 5        35.288 5  24111496.469 7  98732528.912 7      2220.020 7        44.858 7
G07  20892746.613 7 109792122.375 7     -1865.855 7        47.804 7  20892760.723 8  85552361.254 8     -1454.180 8        50.226 8
G08  22986812.465 7 120796512.430 7     -2325.973 7        43.092 7  22986830.281 7  94127189.868 7     -1812.324 7        44.103 7
G14  21993202.906 7 115575063.065 7      2419.438 7        45.773 7  21993217.977 8  90058556.095 8      1885.293 8        49.337 8
G17  22690151.145 7 119237545.939 7      1510.707 7        45.086 7  22690166.914 8  92912442.239 8      1177.285 8        50.226 8
G21  21715986.492 7 114118281.906 7     -2529.977 7        47.196 7  21716000.027 8  88923391.953 8     -1971.504 8        50.226 8
G30  21147806.816 8 111132475.280 8      -110.152 8        48.259 8  21147823.230 8  86596802.061 8       -86.230 8        50.226 8
R09  22640299.176 8 120897921.442 8     -3790.266 8        48.934 8  22640302.039 7  94031744.479 7     -2948.150 7        45.031 7
R10  19571364.215 8 104326380.849 8     -1357.709 8        52.090 8                                                                
R11  20234156.379 9 108125191.163 9      2716.701 9        54.644 9  20234160.961 8  84097390.260 8      2113.154 8        51.770 8
R20  21213612.723 6 113438712.199 6     -3307.330 6        39.834 6  21213620.742 7  88230138.668 7     -2572.104 7        47.899 7
R21  19676695.832 9 105293975.685 9       438.971 9        54.523 9  19676700.844 8  81895338.128 8       341.525 8        51.390 8
C01  37565533.855 7 195613595.146 7        28.260 7        43.887 7  37565541.977 7 151260870.501 7        21.992 7        45.481 7  37565550.859 7 158952140.168 7        23.168 7        43.178 7
C02  37769764.195 6 196677077.459 6        21.951 6        41.406 6  37769770.207 7 152083209.404 7        17.012 7        45.443 7  37769779.508 7 159816297.892 7        17.914 7        42.458 7
C03  37027166.883 7 192810177.742 7        50.721 7        45.843 7  37027173.430 7 149093083.858 7        39.453 7        47.459 7  37027180.152 7 156674117.897 7        41.371 7        44.712 7
C04  38590615.371 6 200951465.050 6        23.064 6        40.231 6  38590622.738 7 155388445.398 7        17.461 7        44.012 7  38590630.473 6 163289586.828 6        18.148 6        41.776 6
C05  39466050.496 6 205510080.869 6        28.084 6        38.911 6  39466060.980 7 158913470.235 7        21.367 7        42.959 7  39466067.273 6 166993844.230 6        22.660 6        39.880 6
C06  39204580.238 6 204148530.530 6     -1815.412 6        40.822 6  39204589.539 7 157860631.459 7     -1403.223 7        43.325 7  39204594.855 7 165887468.235 7     -1474.723 7        43.242 7
C07  36303944.070 8 189044163.823 8       276.814 8        48.940 8  36303947.219 8 146180951.755 8       214.297 8        49.252 8  36303953.215 8 153613905.426 8       225.219 8        48.900 8
C08  38442931.344 7 200182435.955 7      1778.475 7        42.704 7  38442937.352 7 154793783.895 7      1375.098 7        44.048 7  38442943.055 7 162664674.115 7      1444.828 7        42.062 7
C09  38690092.375 7 201469472.678 7     -1788.088 7        42.144 7  38690104.574 7 155789014.046 7     -1382.578 7        45.379 7  38690107.957 6 163710504.102 6     -1452.535 6        40.822 6
C10  36732370.301 7 191275090.322 7       396.346 7        47.387 7  36732377.273 8 147906060.233 8       306.816 8        48.096 8  36732381.746 7 155426729.639 7       322.289 7        46.625 7
C11  23933073.191 7 124625784.467 7     -2450.080 7        47.127 7  23933080.883 8  96368596.682 8     -1894.395 8        48.199 8  23933085.840 8 101268718.466 8     -1991.031 8        48.090 8
C13  39150071.086 6 203864695.063 6      1645.506 6        41.921 6  39150086.504 7 157641178.258 7      1272.422 7        43.869 7  39150090.297 6 165656846.046 6      1336.625 6        41.893 6
C16  39519207.574 6 205786875.834 6     -1765.764 6        40.015 6  39519223.883 6 159127524.678 6     -1365.410 6        41.037 6  39519225.430 5 167218782.638 5     -1434.332 5        34.727 5
S37  36963039.484 7 194242083.848 7         1.762 7        42.751 7
> 2022 06 21 01 01 50.0000000  0 27       0.000000000000
G01  19907325.742 8 104613702.987 8       -31.639 8        50.340 8  19907340.094 8  81517230.700 8       -24.418 8        49.250 8
G03  24106055.406 6 126678175.005 6      2850.549 6        36.231 6  24106073.926 7  98710327.570 7      2221.070 7        44.683 7
G07  20896302.840 7 109810811.223 7     -1870.936 7        47.321 7  20896316.938 8  85566923.964 8     -1457.523 8        50.226 8
G08  22991240.410 7 120819778.610 7     -2326.150 7        43.221 7  22991257.254 7  94145319.342 7     -1812.094 7        44.278 7
G14  21988600.895 7 115550875.768 7      2418.557 7        46.252 7  21988615.359 8  90039708.854 8      1884.625 8        49.417 8
G17  22687278.539 7 119222451.512 7      1508.869 7        43.923 7  22687294.023 8  92900680.369 8      1175.406 8        50.226 8
G21  21720804.934 7 114143600.757 7     -2533.064 7        47.569 7  21720817.813 8  88943120.901 8     -1973.773 8        50.226 8
G30  21148023.711 8 111133611.638 8      -116.170 8        48.622 8  21148039.535 8  86597687.517 8       -90.629 8        50.226 8
R09  22647401.582 8 120935841.672 8     -3793.094 8        49.090 8  22647407.742 7  94061237.922 7     -2949.930 7        43.923 7
R10  19573918.578 8 104339995.530 8     -1364.672 8        51.987 8                                                                
R11  20229075.910 9 108098049.496 9      2712.268 9        54.271 9  20229079.348 8  84076280.103 8      2109.654 8        51.738 8
R20  21219799.734 6 113471795.117 6     -3308.816 6        40.273 6  21219806.609 7  88255869.804 7     -2573.436 7        47.782 7
R21  19675882.098 9 105289618.721 9       432.953 9        54.794 9  19675886.395 8  81891949.388 8       336.793 8        51.511 8
C01  37565479.410 7 195613312.979 7        28.873 7        43.758 7  37565488.066 7 151260652.309 7        22.246 7        45.690 7  37565496.629 7 158951910.886 7        23.490 7        43.468 7
C02  37769722.344 6 196676858.903 6        22.721 6        41.595 6  37769727.887 7 152083040.402 7        17.305 7        45.222 7  37769737.488 7 159816120.302 7        18.393 7        42.704 7
C03  37027069.332 7 192809670.716 7        50.943 7        45.726 7  37027075.555 7 149092691.792 7        39.434 7        47.354 7  37027082.730 7 156673705.88817        41.791 7        44.712 7
C04  38590572.195 6 200951239.842 6        23.033 6        39.880 6  38590579.527 7 155388271.229 7        17.930 7        44.168 7  38590587.434 7 163289403.819 7        18.959 7        42.304 7
C05  39465997.625 6 205509804.902 6        28.150 6        38.854 6  39466008.465 7 158913256.838 7        21.660 7        43.304 7  39466013.969 6 166993619.976 6        22.826 6        39.597 6
C06  39208065.707 6 204166678.017 6     -1813.588 6        41.002 6  39208074.867 7 157874664.229 7     -1402.930 7        43.304 7  39208079.867 7 165902214.540 7     -1474.596 7        42.981 7
C07  36303411.160 8 189041389.732 8       278.131 8        48.957 8  36303414.598 8 146178806.650 8       215.313 8        49.377 8  36303420.363 8 153611651.246 8       226.205 8        48.579 8
C08  38439517.887 7 200164657.541 7      1778.326 7        42.483 7  38439523.504 7 154780036.518 7      1374.863 7        44.319 7  38439528.754 7 162650227.693 7      1445.111 7        42.117 7
C09  38693528.156 7 201487359.020 7     -1787.572 7        42.356 7  38693539.816 7 155802844.877 7     -1382.715 7        45.738 7  38693542.652 6 163725038.207 6     -1452.291 6        41.107 6
C10  36731608.695 7 191271123.915 7       397.311 7        47.499 7  36731615.883 8 147902993.162 8       307.480 8        48.325 8  36731619.992 7 155423506.609 7       323.080 7        46.428 7
C11  23937779.523 7 124650289.093 7     -2449.994 7        47.631 7  23937787.355 8  96387545.196 8     -1894.648 8        49.278 8  23937791.742 8 101288630.461 8     -1990.904 8        48.083 8
C13  39146911.582 6 203848244.680 6      1645.377 6        41.595 6  39146927.754 7 157628457.789 7      1272.578 7        43.977 7  39146931.145 6 165643478.771 6      1337.025 6        41.502 6
C16  39522598.602 6 205804532.765 6     -1764.467 6        39.548 6  39522614.664 6 159141178.111 6     -1364.863 6        40.710 6  39522616.875 5 167233130.353 5     -1434.576 5        35.017 5
S37  36963036.305 7 194242061.952 7         2.600 7        42.458 7
> 2022 06 21 01 02  0.0000000  0 27       0.000000000000
G01  19907394.715 8 104614063.600 8       -39.748 8        50.755 8  19907410.516 8  81517517.693 8       -30.906 8        50.226 8
G03  24100634.375 6 126649685.764 6      2848.279 6        36.335 6  24100652.949 7  98688128.183 7      2219.992 7        45.055 7
G07  20899869.270 7 109829555.549 7     -1877.521 7        47.031 7  20899883.707 8  85581529.926 8     -1462.918 8        50.226 8
G08  22995667.395 7 120843045.353 7     -2327.072 7        42.751 7  22995684.293 7  94163449.225 7     -1813.016 7        43.755 7
G14  21984000.352 7 115526701.760 7      2416.619 7        46.002 7  21984014.930 8  90020871.965 8      1883.117 8        49.252 8
G17  22684409.840 7 119207377.316 7      1506.443 7        43.682 7  22684425.637 8  92888934.256 8      1173.547 8        50.226 8
G21  21725630.141 7 114168955.880 7     -2537.580 7        47.877 7  21725642.719 8  88962878.143 8     -1977.332 8        50.226 8
G30  21148252.090 8 111134813.165 8      -123.732 8        48.579 8  21148268.391 8  86598623.768 8       -96.141 8        50.226 8
R09  22654508.902 8 120973795.774 8     -3797.363 8        48.754 8  22654512.340 7  94090757.750 7     -2953.189 7        44.253 7
R10  19576486.875 8 104353684.225 8     -1372.764 8        51.699 8                                                                
R11  20224006.219 9 108070958.158 9      2706.494 9        55.011 9  20224009.656 8  84055209.067 8      2105.203 8        51.726 8
R20  21225989.078 6 113504899.909 6     -3311.918 6        40.103 6  21225996.098 8  88281617.952 8     -2575.820 8        48.124 8
R21  19675079.430 9 105285327.514 9       425.807 9        54.947 9  19675083.297 8  81888611.783 8       331.186 8        51.027 8
C01  37565425.324 7 195613030.778 7        28.232 7        43.959 7  37565433.770 7 151260434.094 7        21.635 7        45.593 7  37565442.660 7 158951681.573 7        22.902 7        43.387 7
C02  37769680.531 6 196676640.142 6        22.100 6        41.470 6  37769685.930 7 152082871.251 7        16.908 7        45.235 7  37769695.539 7 159815942.552 7        17.844 7        42.821 7
C03  37026972.320 7 192809163.571 7        50.693 7        45.714 7  37026978.688 7 149092299.628 7        39.252 7        47.321 7  37026985.449 7 156673293.797 7        41.320 7        44.772 7
C04  38590529.234 6 200951014.725 6        22.646 6        40.189 6  38590536.105 7 155388097.165 7        17.260 7        43.905 7  38590544.059 7 163289220.878 7        18.625 7        42.144 7
C05  39465944.438 6 205509528.677 6        27.764 6        39.241 6  39465954.953 7 158913043.210 7        21.420 7        43.092 7  39465961.266 6 166993395.477 6        22.766 6        39.788 6
C06  39211549.680 6 204184823.395 6     -1814.854 6        40.710 6  39211559.730 7 157888695.344 7     -1403.170 7        43.304 7  39211564.469 7 165916959.104 7     -1474.676 7        43.178 7
C07  36302877.828 8 189038612.322 8       277.998 8        48.945 8  36302881.367 8 146176658.985 8       214.740 8        49.278 8  36302887.027 8 153609394.373 8       225.949 8        48.934 8
C08  38436104.898 7 200146886.956 7      1776.260 7        42.304 7  38436110.660 7 154766295.158 7      1373.900 7        44.401 7  38436116.426 7 162635787.640 7      1443.664 7        42.225 7
C09  38696963.656 7 201505248.666 7     -1789.424 7        42.483 7  38696975.602 7 155816678.243 7     -1383.424 7        45.773 7  38696978.051 6 163739575.005 6     -1454.129 6        40.858 6
C10  36730846.199 7 191267152.567 7       397.080 7        47.623 7  36730853.211 8 147899922.264 8       307.260 8        48.292 8  36730857.352 7 155420279.563 7       322.902 7        46.417 7
C11  23942485.785 7 124674798.498 7     -2451.221 7        47.321 7  23942494.156 8  96406497.390 8     -1895.416 8        49.002 8  23942498.156 7 101308546.330 7     -1991.785 7        47.546 7
C13  39143753.477 6 203831799.209 6      1644.229 6        41.626 6  39143769.828 7 157615741.142 7      1271.439 7        44.117 7  39143772.961 6 165630115.489 6      1336.086 6        41.564 6
C16  39525988.238 6 205822185.727 6     -1765.166 6        39.788 6  39526004.980 6 159154828.426 6     -1364.869 6        41.107 6  39526006.742 5 167247474.761 5     -1433.699 5        35.017 5
S37  36963031.586 7 194242040.085 7         2.068 7        42.433 7
> 2022 06 21 01 02 10.0000000  0 27       0.000000000000
G01  19907476.984 8 104614496.381 8       -46.602 8        50.223 8  19907492.969 8  81517855.938 8       -36.443 8        50.226 8
G03  24095213.184 5 126621198.932 5      2849.219 5        35.785 5  24095231.816 7  98665930.696 7      2220.002 7        44.509 7
G07  20903447.273 7 109848355.189 7     -1882.598 7        46.842 7  20903461.039 8  85596178.971 8     -1466.814 8        50.226 8
G08  23000094.789 7 120866312.239 7     -2326.563 7        42.433 7  23000110.715 7  94181579.265 7     -1812.557 7        43.309 7
G14  21979402.512 7 115502540.988 7      2415.566 7        45.785 7  21979417.820 8  90002045.412 8      1882.248 8        49.726 8
G17  22681545.699 7 119192323.157 7      1504.648 7        44.236 7  22681560.652 8  92877203.767 8      1172.658 8        50.226 8
G21  21730462.059 7 114194347.004 7     -2540.996 7        47.877 7  21730474.594 8  88982663.439 8     -1979.959 8        50.226 8
G30  21148492.906 8 111136079.695 8      -130.078 8        48.151 8  21148509.375 8  86599610.662 8      -101.111 8        50.226 8
R09  22661621.645 8 121011783.567 8     -3800.406 8        49.361 8  22661627.516 7  94120303.771 7     -2955.719 7        44.903 7
R10  19579069.051 8 104367447.115 8     -1379.824 8        51.659 8                                                                
R11  20218945.824 9 108043916.948 9      2701.807 9        55.031 9  20218949.117 8  84034177.037 8      2101.557 8        51.614 8
R20  21232184.852 6 113538025.975 6     -3312.934 6        40.315 6  21232192.156 8  88307382.673 8     -2577.260 8        48.298 8
R21  19674290.496 9 105281101.786 9       419.531 9        55.329 9  19674293.793 8  81885325.110 8       326.305 8        50.800 8
C01  37565371.121 7 195612748.428 7        28.873 7        43.720 7  37565379.133 7 151260215.774 7        22.219 7        45.506 7  37565388.254 7 158951452.161 7        23.346 7        43.304 7
C02  37769638.199 6 196676421.085 6        21.842 6        41.406 6  37769643.961 7 152082701.827 7        17.063 7        45.469 7  37769653.441 7 159815764.514 7        18.033 7        42.728 7
C03  37026874.469 7 192808656.213 7        50.885 7        45.878 7  37026881.016 7 149091907.298 7        39.680 7        47.255 7  37026887.977 7 156672881.525 7        41.451 7        44.772 7
C04  38590486.012 6 200950789.629 6        22.467 6        40.477 6  38590492.918 7 155387923.092 7        17.434 7        43.923 7  38590500.801 7 163289037.977 7        18.463 7        42.198 7
C05  39465891.520 6 205509252.167 6        27.994 6        38.854 6  39465902.285 7 158912829.385 7        21.672 7        42.868 7  39465908.016 6 166993170.802 6        22.604 6        39.548 6
C06  39215033.457 6 204202966.464 6     -1814.760 6        40.397 6  39215043.652 7 157902724.684 7     -1402.938 7        43.387 7  39215048.746 7 165931701.790 7     -1474.174 7        43.178 7
C07  36302343.477 8 189035831.544 8       278.189 8        49.063 8  36302347.340 8 146174508.694 8       215.480 8        49.708 8  36302352.879 8 153607134.759 8       226.236 8        48.670 8
C08  38432693.328 7 200129124.085 7      1776.666 7        42.433 7  38432699.801 7 154752559.808 7      1373.215 7        44.772 7  38432705.398 7 162621353.872 7      1443.443 7        42.251 7
C09  38700400.141 7 201523141.459 7     -1789.682 7        42.433 7  38700411.195 7 155830514.038 7     -1383.719 7        45.878 7  38700414.078 6 163754114.308 6     -1454.252 6        40.785 6
C10  36730082.613 7 191263176.158 7       398.287 7        47.685 7  36730089.625 8 147896847.480 8       307.551 8        48.485 8  36730093.789 7 155417048.419 7       323.365 7        46.273 7
C11  23947193.465 7 124699312.480 7     -2451.537 7        47.093 7  23947201.332 8  96425453.146 8     -1895.691 8        48.923 8  23947206.012 7 101328465.950 7     -1992.260 7        47.467 7
C13  39140596.645 6 203815358.672 6      1643.775 6        41.656 6  39140612.137 7 157603028.284 7      1271.086 7        44.151 7  39140615.813 6 165616756.214 6      1335.631 6        41.276 6
C16  39529377.398 6 205839834.544 6     -1764.193 6        39.834 6  39529393.746 6 159168475.562 6     -1364.070 6        41.002 6  39529395.852 5 167261815.821 5     -1433.139 5        35.154 5
S37  36963027.570 7 194242018.107 7         2.344 7        42.117 7
> 2022 06 21 01 02 20.0000000  0 27       0.000000000000
G01  19907572.828 8 104615001.302 8       -53.645 8        49.885 8  19907588.984 8  81518248.366 8       -41.596 8        50.226 8
G03  24089791.977 5 126592714.678 5      2848.621 5        34.575 5  24089811.340 7  98643735.195 7      2219.867 7        43.548 7
G07  20907035.418 7 109867210.085 7     -1887.980 7        46.577 7  20907049.086 8  85610871.088 8     -1471.322 8        50.226 8
G08  23004522.602 7 120889579.457 7     -2326.379 7        42.356 7  23004539.258 7  94199709.557 7     -1813.061 7        43.641 7
G14  21974807.801 7 115478393.514 7      2414.480 7        45.327 7  21974823.000 8  89983229.214 8      1881.352 8        49.616 8
G17  22678684.980 7 119177289.114 7      1502.391 7        43.795 7  22678699.734 8  92865488.916 8      1171.410 8        50.226 8
G21  21735300.828 7 114219774.032 7     -2544.170 7        47.767 7  21735313.051 8  89002476.701 8     -1982.494 8        50.226 8
G30  21148746.438 8 111137411.250 8      -136.301 8        48.096 8  21148762.750 8  86600648.228 8      -106.186 8        50.226 8
R09  22668740.816 7 121049804.783 7     -3803.398 7        47.515 7  22668745.398 7  94149875.799 7     -2958.416 7        45.469 7
R10  19581662.090 8 104381283.938 8     -1386.830 8        51.875 8                                                                
R11  20213893.574 9 108016926.204 9      2697.031 9        55.428 9  20213897.441 8  84013184.234 8      2097.762 8        51.558 8
R20  21238383.328 6 113571173.592 6     -3315.602 6        39.397 6  21238390.344 7  88333164.138 7     -2578.732 7        47.892 7
R21  19673512.434 9 105276941.389 9       413.148 9        55.101 9  19673516.730 8  81882089.260 8       321.156 8        51.192 8
C01  37565316.898 7 195612465.985 7        28.252 7        43.644 7  37565325.590 7 151259997.347 7        22.219 7        45.593 7  37565334.141 7 158951222.623 7        22.967 7        43.547 7
C02  37769596.426 6 196676201.687 6        22.393 6        41.626 6  37769601.684 7 152082532.197 7        17.102 7        45.456 7  37769611.301 7 159815586.249 7        18.025 7        42.868 7
C03  37026777.211 7 192808148.630 7        51.064 7        45.820 7  37026783.617 7 149091514.813 7        39.406 7        47.467 7  37026790.605 7 156672469.072 7        41.502 7        44.816 7
C04  38590443.129 6 200950564.531 6        22.803 6        40.437 6  38590449.785 7 155387749.027 7        17.844 7        44.185 7  38590457.727 7 163288855.071 7        18.377 7        42.330 7
C05  39465837.652 6 205508975.307 6        27.744 6        39.294 6  39465848.387 7 158912615.280 7        21.730 7        43.263 7  39465855.133 6 166992945.819 6        22.811 6        40.103 6
C06  39218517.289 6 204221107.206 6     -1814.658 6        40.397 6  39218527.055 7 157916752.199 7     -1402.430 7        43.448 7  39218532.484 7 165946442.582 7     -1473.615 7        42.913 7
C07  36301809.039 8 189033047.287 8       278.643 8        48.928 8  36301812.902 8 146172355.732 8       215.617 8        49.885 8  36301818.230 8 153604872.317 8       226.539 8        48.911 8
C08  38429283.813 7 200111369.084 7      1775.381 7        42.508 7  38429289.715 7 154738830.524 7      1372.297 7        44.742 7  38429295.824 7 162606926.493 7      1442.281 7        42.798 7
C09  38703836.895 7 201541037.307 7     -1788.857 7        42.171 7  38703848.020 7 155844352.226 7     -1383.973 7        45.785 7  38703850.855 6 163768656.167 6     -1454.631 6        40.967 6
C10  36729317.867 7 191259194.774 7       398.779 7        47.623 7  36729324.953 8 147893768.806 8       308.176 8        48.498 8  36729329.188 7 155413813.224 7       323.648 7        46.508 7
C11  23951901.984 7 124723831.026 7     -2451.980 7        46.987 7  23951910.031 8  96444412.430 8     -1895.965 8        48.616 8  23951914.496 7 101348389.268 7     -1992.482 7        47.585 7
C13  39137440.762 7 203798923.080 7      1643.896 7        42.356 7  39137456.039 7 157590319.247 7      1271.184 7        44.433 7  39137459.344 6 165603400.967 6      1335.465 6        41.107 6
C16  39532765.715 6 205857479.230 6     -1764.502 6        39.693 6  39532782.637 6 159182119.493 6     -1363.973 6        41.470 6  39532784.219 5 167276153.554 5     -1433.752 5        35.288 5
S37  36963022.535 7 194241995.999 7         2.430 7        42.006 7
> 2022 06 21 01 02 30.0000000  0 27       0.000000000000
G01  19907682.992 8 104615578.623 8       -61.322 8        49.660 8  19907698.945 8  81518700.238 8       -48.061 8        50.226 8
G03  24084371.781 5 126564233.332 5      2847.213 5        35.666 5  24084391.715 7  98621542.006 7      2218.990 7        43.820 7
G07  20910634.020 7 109886120.351 7     -1893.861 7        47.023 7  20910647.684 8  85625606.335 8     -1475.795 8        50.226 8
G08  23008950.273 7 120912847.023 7     -2326.947 7        42.508 7  23008967.648 7  94217840.118 7     -1813.412 7        44.591 7
G14  21970215.250 7 115454259.691 7      2412.779 7        45.366 7  21970230.559 8  89964423.638 8      1880.123 8        49.703 8
G17  22675827.414 7 119162275.359 7      1500.143 7        42.704 7  22675842.527 8  92853789.945 8      1168.658 8        50.226 8
G21  21740145.762 7 114245237.177 7     -2548.178 7        47.127 7  21740158.652 8  89022318.103 8     -1985.697 8        50.209 8
G30  21149011.996 7 111138808.028 7      -143.217 7        47.782 7  21149028.297 8  86601736.617 8      -111.244 8        50.226 8
R09  22675866.875 7 121087859.795 7     -3807.082 7        46.749 7  22675872.891 7  94179474.073 7     -2961.180 7        45.262 7
R10  19584273.195 8 104395194.887 8     -1394.889 8        52.187 8                                                                
R11  20208855.234 9 107989986.166 9      2691.457 9        55.268 9  20208857.094 8  83992230.892 8      2093.418 8        51.696 8
R20  21244583.965 6 113604342.692 6     -3317.879 6        40.231 6  21244590.699 7  88358962.316 7     -2581.066 7        47.435 7
R21  19672747.703 9 105272846.820 9       406.068 9        54.570 9  19672753.289 8  81878904.606 8       315.680 8        51.687 8
C01  37565262.754 7 195612183.642 7        28.297 7        43.887 7  37565271.270 7 151259779.025 7        21.914 7        45.519 7  37565279.797 7 158950993.210 7        22.404 7        43.586 7
C02  37769554.125 6 196675982.218 6        21.617 6        41.438 6  37769559.813 7 152082362.481 7        16.816 7        45.544 7  37769569.094 7 159815407.903 7        17.834 7        42.936 7
C03  37026679.965 7 192807641.070 7        50.758 7        45.785 7  37026686.008 7 149091122.345 7        39.082 7        47.467 7  37026693.063 7 156672056.648 7        41.057 7        44.889 7
C04  38590399.469 6 200950339.670 6        22.594 6        40.634 6  38590406.586 7 155387575.142 7        17.402 7        43.739 7  38590414.500 6 163288672.327 6        18.342 6        41.595 6
C05  39465784.836 6 205508698.378 6        28.082 6        38.795 6  39465795.461 7 158912401.150 7        21.328 7        43.157 7  39465801.926 6 166992720.811 6        22.053 6        40.356 6
C06  39222000.234 6 204239245.770 6     -1813.539 6        40.356 6  39222010.074 7 157930778.075 7     -1402.461 7        42.959 7  39222015.855 7 165961181.664 7     -1474.395 7        42.798 7
C07  36301273.641 8 189030259.900 8       278.766 8        48.996 8  36301277.504 8 146170200.353 8       215.430 8        49.636 8  36301282.863 8 153602607.335 8       226.525 8        48.748 8
C08  38425875.738 7 200093622.046 7      1774.352 7        42.607 7  38425882.105 7 154725107.409 7      1371.855 7        45.248 7  38425887.637 7 162592505.562 7      1442.111 7        42.728 7
C09  38707274.770 7 201558936.562 7     -1790.316 7        42.278 7  38707285.180 7 155858193.003 7     -1384.121 7        45.340 7  38707288.113 6 163783200.737 6     -1455.020 6        40.785 6
C10  36728551.949 7 191255208.603 7       398.629 7        47.362 7  36728559.750 8 147890686.439 8       308.359 8        48.566 8  36728563.684 7 155410574.140 7       323.635 7        46.567 7
C11  23956611.227 7 124748354.262 7     -2452.426 7        46.731 7  23956619.207 8  96463375.338 8     -1896.465 8        48.957 8  23956624.020 7 101368316.396 7     -1993.262 7        47.562 7
C13  39134285.066 7 203782492.728 7      1641.852 7        42.034 7  39134300.379 7 157577614.248 7      1270.625 7        43.923 7  39134304.148 6 165590049.949 6      1334.650 6        41.107 6
C16  39536153.613 6 205875120.008 6     -1764.887 6        40.059 6  39536170.250 6 159195760.369 6     -1364.043 6        41.502 6  39536172.215 5 167290488.071 5     -1433.750 5        35.544 5
S37  36963018.797 6 194241974.071 6         2.232 6        41.776 6
> 2022 06 21 01 02 40.0000000  0 27       0.000000000000
G01  19907806.344 8 104616228.352 8       -68.621 8        49.778 8  19907822.555 8  81519191.514 8       -53.602 8        50.226 8
G03  24078953.613 6 126535755.081 6      2848.430 6        37.179 6  24078972.156 7  98599351.201 7      2218.879 7        44.042 7
G07  20914243.234 7 109905085.909 7     -1899.596 7        47.127 7  20914256.457 8  85640384.668 8     -1479.889 8        50.226 8
G08  23013378.262 7 120936115.080 7     -2326.959 7        42.936 7  23013395.219 7  94235971.079 7     -1813.346 7        44.755 7
G14  21965625.152 7 115430139.628 7      2411.164 7        45.182 7  21965640.492 8  89945628.805 8      1878.957 8        49.429 8
G17  22672974.027 7 119147281.920 7      1498.234 7        42.382 7  22672989.453 8  92842106.753 8      1167.141 8        50.226 8
G21  21744998.301 7 114270736.394 7     -2551.959 7        47.014 7  21745011.324 8  89042187.610 8     -1988.600 8        50.211 8
G30  21149290.605 7 111140270.118 7      -149.695 7        47.804 7  21149306.543 8  86602875.903 8      -116.434 8        50.226 8
R09  22682998.539 7 121125948.621 7     -3810.760 7        46.906 7  22683005.988 7  94209098.641 7     -2963.691 7        44.697 7
R10  19586897.637 8 104409180.077 8     -1402.324 8        52.198 8                                                                
R11  20203821.352 9 107963097.112 9      2686.131 9        54.922 9  20203825.648 8  83971317.171 8      2089.318 8        51.480 8
R20  21250794.363 6 113637533.385 6     -3320.766 6        40.477 6  21250798.805 7  88384777.287 7     -2582.258 7        46.294 7
R21  19671994.879 9 105268817.908 9       399.426 9        55.000 9  19671998.461 8  81875771.003 8       310.518 8        51.486 8
C01  37565208.422 7 195611901.507 7        27.980 7        43.625 7  37565216.828 7 151259560.838 7        22.131 7        45.314 7  37565225.605 7 158950763.941 7        22.793 7        43.625 7
C02  37769512.172 6 196675762.785 6        21.770 6        41.502 6  37769517.430 7 152082192.797 7        16.721 7        45.127 7  37769526.914 7 159815229.594 7        17.832 7        42.656 7
C03  37026582.094 7 192807133.645 7        50.227 7        45.678 7  37026588.676 7 149090729.959 7        39.104 7        47.162 7  37026595.730 7 156671644.313 7        40.879 7        44.757 7
C04  38590356.227 6 200950115.158 6        22.160 6        40.015 6  38590363.668 7 155387401.518 7        17.521 7        43.701 7  38590371.199 6 163288489.893 6        17.734 6        41.626 6
C05  39465731.434 6 205508421.460 6        27.941 6        39.024 6  39465742.629 7 158912186.998 7        21.018 7        43.178 7  39465748.711 6 166992495.756 6        22.148 6        39.834 6
C06  39225483.922 6 204257382.288 6     -1813.543 6        40.146 6  39225493.297 7 157944802.344 7     -1402.498 7        43.284 7  39225498.555 7 165975919.019 7     -1474.043 7        42.458 7
C07  36300737.734 8 189027469.426 8       278.879 8        49.063 8  36300741.738 8 146168042.575 8       215.842 8        49.528 8  36300747.125 8 153600339.858 8       226.465 8        48.940 8
C08  38422468.906 7 200075883.299 7      1773.254 7        42.508 7  38422475.523 7 154711390.681 7      1371.506 7        44.932 7  38422481.004 7 162578091.405 7      1441.229 7        42.632 7
C09  38710712.703 7 201576839.173 7     -1790.457 7        42.607 7  38710723.148 7 155872036.409 7     -1384.158 7        44.801 7  38710725.957 6 163797748.054 6     -1454.941 6        40.517 6
C10  36727785.699 7 191251217.682 7       399.191 7        47.491 7  36727793.035 8 147887600.403 8       308.674 8        48.138 8  36727797.520 7 155407331.167 7       324.219 7        46.407 7
C11  23961320.570 7 124772882.279 7     -2453.189 7        45.678 7  23961329.012 8  96482341.950 8     -1897.225 8        48.517 8  23961333.934 7 101388247.405 7     -1993.555 7        47.459 7
C13  39131130.289 7 203766067.567 7      1642.453 7        42.034 7  39131145.637 7 157564913.300 7      1270.158 7        43.366 7  39131149.680 6 165576703.171 6      1334.648 6        40.967 6
C16  39539541.320 6 205892756.859 6     -1763.836 6        40.059 6  39539557.063 6 159209398.275 6     -1363.455 6        40.931 6  39539558.988 5 167304819.438 5     -1433.457 5        35.785 5
S37  36963014.797 7 194241952.376 7         1.867 7        42.062 7
> 2022 06 21 01 02 50.0000000  0 27       0.000000000000
G01  19907943.785 8 104616950.034 8       -75.465 8        50.163 8  19907959.980 8  81519768.861 8       -58.668 8        50.226 8
G03  24073535.223 6 126507279.653 6      2847.387 6        36.915 6  24073553.023 7  98577162.553 7      2218.793 7        43.107 7
G07  20917862.672 7 109924106.294 7     -1904.625 7        47.145 7  20917875.965 8  85655205.740 8     -1483.863 8        50.226 8
G08  23017806.457 7 120959383.116 7     -2326.598 7        43.488 7  23017823.441 7  94254102.011 7     -1812.711 7        45.175 7
G14  21961037.984 7 115406032.939 7      2410.297 7        45.506 7  21961052.879 8  89926844.368 8      1878.148 8        49.471 8
G17  22670124.422 7 119132308.260 7      1496.918 7        42.981 7  22670140.336 8  92830438.983 8      1166.352 8        50.226 8
G21  21749857.344 7 114296271.179 7     -2555.289 7        47.305 7  21749870.340 8  89062084.826 8     -1991.090 8        50.226 8
G30  21149580.867 7 111141797.052 7      -155.602 7        47.928 7  21149597.250 8  86604065.723 8      -121.207 8        50.226 8
R09  22690140.445 7 121164070.489 7     -3813.545 7        47.110 7  22690145.457 7  94238748.945 7     -2966.227 7        44.682 7
R10  19589536.328 8 104423239.287 8     -1409.252 8        52.185 8                                                                
R11  20198800.285 9 107936258.814 9      2681.785 9        55.039 9  20198802.719 8  83950442.939 8      2086.084 8        50.702 8
R20  21256999.816 6 113670744.922 6     -3322.182 6        40.315 6  21257012.422 7  88410608.444 7     -2583.424 7        47.443 7
R21  19671254.445 9 105264854.078 9       393.539 9        54.915 9  19671258.023 8  81872688.024 8       305.975 8        51.062 8
C01  37565154.367 7 195611619.073 7        28.428 7        43.682 7  37565162.348 7 151259342.446 7        22.086 7        45.353 7  37565171.453 7 158950534.431 7        23.207 7        43.567 7
C02  37769469.672 6 196675542.864 6        22.295 6        41.533 6  37769475.395 7 152082022.730 7        17.223 7        45.168 7  37769484.875 7 159815050.888 7        18.480 7        42.508 7
C03  37026484.543 7 192806625.840 7        51.162 7        45.617 7  37026491.230 7 149090337.283 7        39.488 7        47.119 7  37026498.066 7 156671231.681 7        41.352 7        44.667 7
C04  38590313.586 6 200949890.500 6        22.100 6        40.437 6  38590320.453 7 155387227.796 7        17.477 7        43.644 7  38590328.359 6 163288307.320 6        18.402 6        41.687 6
C05  39465678.668 6 205508144.064 6        27.959 6        39.241 6  39465689.219 7 158911972.476 7        21.793 7        43.221 7  39465695.309 6 166992270.329 6        23.051 6        39.741 6
C06  39228966.387 6 204275516.314 6     -1813.271 6        40.015 6  39228975.223 7 157958824.671 7     -1401.664 7        43.092 7  39228980.969 7 165990654.349 7     -1473.121 7        42.458 7
C07  36300201.352 8 189024675.515 8       279.795 8        48.996 8  36300205.395 8 146165882.131 8       216.441 8        49.894 8  36300210.410 8 153598069.556 8       227.543 8        48.434 8
C08  38419064.535 7 200058152.209 7      1773.779 7        42.845 7  38419070.867 7 154697679.904 7      1370.777 7        45.086 7  38419075.668 6 162563683.438 6      1441.098 6        41.950 6
C09  38714150.949 7 201594744.672 7     -1790.322 7        42.433 7  38714162.074 7 155885882.063 7     -1384.027 7        45.045 7  38714164.352 6 163812297.706 6     -1454.723 6        40.437 6
C10  36727017.727 7 191247221.612 7       399.990 7        47.451 7  36727025.453 8 147884510.390 8       309.195 8        48.124 8  36727030.031 7 155404084.022 7       325.355 7        46.377 7
C11  23966031.297 7 124797414.545 7     -2453.213 7        45.808 7  23966040.277 8  96501311.816 8     -1896.898 8        48.688 8  23966045.363 7 101408181.859 7     -1993.395 7        47.499 7
C13  39127977.188 7 203749647.335 7      1641.904 7        42.382 7  39127992.391 7 157552216.162 7      1269.781 7        43.586 7  39127996.383 6 165563360.403 6      1334.594 6        41.209 6
C16  39542928.164 6 205910389.359 6     -1762.334 6        40.517 6  39542942.867 6 159223032.806 6     -1362.406 6        41.002 6  39542945.250 6 167319147.272 6     -1432.301 6        36.231 6
S37  36963010.863 7 194241930.436 7         2.465 7        42.583 7
> 2022 06 21 01 03  0.0000000  0 27       0.000000000000
G01  19908094.996 8 104617743.913 8       -82.996 8        50.307 8  19908111.223 8  81520384.478 8       -64.785 8        50.226 8
G03  24068116.293 6 126478807.319 6      2848.371 6        36.335 6  24068134.766 7  98554976.377 7      2218.926 7        42.670 7
G07  20921492.590 7 109943181.687 7     -1910.164 7        47.263 7  20921506.156 8  85670069.672 8     -1488.283 8        50.226 8
G08  23022233.969 7 120982651.344 7     -2327.000 7        43.527 7  23022251.855 7  94272233.067 7     -1812.873 7        45.351 7
G14  21956453.281 7 115381939.920 7      2409.152 7        45.593 7  21956468.363 8  89908070.608 8      1877.148 8        49.182 8
G17  22667279.145 7 119117354.604 7      1494.289 7        43.407 7  22667295.215 8  92818786.796 8      1164.746 8        50.226 8
G21  21754723.148 7 114321841.626 7     -2558.699 7        47.271 7  21754736.254 8  89082009.840 8     -1993.869 8        50.226 8
G30  21149884.039 8 111143389.063 8      -162.137 8        48.252 8  21149900.238 8  86605306.244 8      -126.447 8        50.226 8
R09  22697285.820 7 121202225.706 7     -3817.199 7        47.863 7  22697288.828 7  94268425.203 7     -2968.811 7        42.251 7
R10  19592185.223 8 104437372.613 8     -1416.732 8        51.665 8                                                                
R11  20193786.414 9 107909471.521 9      2676.156 9        55.289 9  20193789.996 8  83929608.394 8      2081.623 8        50.560 8
R20  21263218.195 6 113703977.455 6     -3324.590 6        40.231 6  21263225.930 7  88436455.970 7     -2585.504 7        47.921 7
R21  19670525.645 9 105260955.643 9       386.676 9        55.047 9  19670529.367 8  81869655.902 8       300.750 8        51.076 8
C01  37565099.883 7 195611336.650 7        28.063 7        44.012 7  37565108.004 7 151259124.067 7        21.969 7        45.222 7  37565117.270 7 158950304.919 7        23.486 7        43.346 7
C02  37769427.352 6 196675322.770 6        22.281 6        41.864 6  37769433.184 7 152081852.544 7        17.223 7        45.392 7  37769442.531 7 159814872.050 7        18.193 7        42.483 7
C03  37026386.953 7 192806117.954 7        51.051 7        45.690 7  37026393.570 7 149089944.558 7        39.449 7        47.329 7  37026400.469 7 156670818.980 7        41.240 7        44.575 7
C04  38590270.297 6 200949665.900 6        23.277 6        40.517 6  38590277.059 7 155387054.133 7        17.438 7        44.151 7  38590285.277 7 163288124.862 7        18.486 7        42.558 7
C05  39465625.758 6 205507866.436 6        28.355 6        39.346 6  39465636.094 7 158911757.804 7        21.520 7        43.113 7  39465641.898 6 166992044.756 6        22.939 6        39.548 6
C06  39232448.492 6 204293647.976 6     -1812.934 6        40.059 6  39232457.363 7 157972845.184 7     -1401.801 7        43.304 7  39232462.699 7 166005387.810 7     -1473.428 7        42.006 7
C07  36299664.184 8 189021878.333 8       279.605 8        48.888 8  36299667.832 8 146163719.170 8       216.637 8        49.563 8  36299673.336 8 153595796.603 8       227.471 8        48.591 8
C08  38415660.520 7 200040429.149 7      1772.438 7        42.704 7  38415667.422 7 154683975.285 7      1370.641 7        45.154 7  38415672.031 7 162549282.004 7      1439.717 7        42.117 7
C09  38717590.414 7 201612653.324 7     -1790.941 7        42.330 7  38717601.680 7 155899730.126 7     -1384.906 7        44.772 7  38717603.484 6 163826849.928 6     -1455.146 6        40.059 6
C10  36726249.785 7 191243220.648 7       400.602 7        47.263 7  36726257.047 8 147881416.610 8       309.703 8        48.090 8  36726261.699 7 155400832.933 7       325.732 7        46.283 7
C11  23970743.742 7 124821951.262 7     -2453.637 7        45.405 7  23970752.363 8  96520285.154 8     -1897.406 8        48.027 8  23970757.637 7 101428119.948 7     -1993.877 7        46.942 7
C13  39124824.906 7 203733232.164 7      1641.344 7        42.607 7  39124840.184 7 157539522.930 7      1269.039 7        43.905 7  39124844.090 6 165550021.737 6      1334.443 6        40.556 6
C16  39546313.824 6 205928017.767 6     -1762.211 6        40.785 6  39546328.422 6 159236664.174 6     -1363.246 6        40.748 6  39546330.668 5 167333471.755 5     -1432.178 5        35.901 5
S37  36963006.676 7 194241908.465 7         2.570 7        42.356 7
> 2022 06 21 01 03 10.0000000  0 27       0.000000000000
G01  19908259.664 8 104618609.929 8       -89.215 8        50.409 8  19908276.262 8  81521063.293 8       -69.713 8        50.226 8
G03  24062699.090 6 126450338.327 6      2847.016 6        36.635 6  24062717.691 7  98532792.704 7      2218.822 7        43.057 7
G07  20925132.676 7 109962312.031 7     -1915.096 7        47.841 7  20925146.602 8  85684976.426 8     -1492.020 8        50.226 8
G08  23026661.918 7 121005919.947 7     -2326.053 7        43.527 7  23026679.246 7  94290364.431 7     -1812.078 7        44.718 7
G14  21951871.449 7 115357860.673 7      2408.070 7        46.283 7  21951886.129 8  89889307.579 8      1876.479 8        48.996 8
G17  22664437.598 7 119102420.974 7      1493.109 7        44.417 7  22664453.352 8  92807150.223 8      1163.627 8        50.226 8
G21  21759596.113 7 114347447.669 7     -2561.561 7        47.662 7  21759608.891 8  89101962.585 8     -1996.063 8        50.226 8
G30  21150199.387 8 111145046.162 8      -168.160 8        48.724 8  21150215.813 8  86606597.482 8      -131.139 8        50.226 8
R09  22704436.355 7 121240414.104 7     -3819.627 7        47.119 7  22704443.516 7  94298127.233 7     -2970.697 7        43.178 7
R10  19594852.172 8 104451579.905 8     -1423.471 8        51.761 8                                                                
R11  20188783.148 9 107882735.456 9      2671.756 9        55.355 9  20188785.871 8  83908813.708 8      2077.939 8        51.322 8
R20  21269436.289 6 113737230.697 6     -3325.652 6        40.748 6  21269443.453 7  88462319.574 7     -2586.766 7        47.170 7
R21  19669810.168 9 105257122.477 9       380.711 9        55.390 9  19669812.891 8  81866674.561 8       296.166 8        51.006 8
C01  37565045.766 7 195611054.234 7        28.873 7        43.663 7  37565054.281 7 151258905.671 7        22.498 7        45.248 7  37565062.953 7 158950075.433 7        23.854 7        43.157 7
C02  37769384.895 6 196675102.496 6        22.311 6        41.438 6  37769390.797 7 152081682.205 7        17.752 7        45.058 7  37769400.125 7 159814693.053 7        18.619 7        42.607 7
C03  37026289.191 7 192805609.987 7        51.529 7        45.405 7  37026296.129 7 149089551.761 7        39.881 7        47.238 7  37026302.836 7 156670406.199 7        41.881 7        44.621 7
C04  38590227.160 6 200949441.507 6        23.229 6        40.315 6  38590233.957 7 155386880.594 7        17.850 7        43.488 7  38590242.105 7 163287942.481 7        18.971 7        42.090 7
C05  39465571.926 6 205507588.663 6        28.658 6        39.346 6  39465582.516 7 158911542.993 7        21.932 7        42.981 7  39465588.559 6 166991819.021 6        23.033 6        39.788 6
C06  39235930.531 6 204311777.334 6     -1811.967 6        40.015 6  39235938.832 7 157986863.930 7     -1400.842 7        43.199 7  39235944.270 6 166020119.367 6     -1472.768 6        41.533 6
C07  36299126.523 8 189019077.874 8       280.748 8        49.085 8  36299130.387 8 146161553.688 8       217.029 8        49.674 8  36299135.566 8 153593520.998 8       228.482 8        48.485 8
C08  38412258.406 7 200022714.104 7      1771.686 7        42.225 7  38412265.707 7 154670276.899 7      1370.311 7        45.100 7  38412270.211 7 162534887.069 7      1439.889 7        42.483 7
C09  38721029.633 7 201630565.075 7     -1790.795 7        42.304 7  38721041.188 7 155913580.581 7     -1384.748 7        44.590 7  38721043.656 6 163841404.634 6     -1454.721 6        40.397 6
C10  36725480.027 7 191239214.840 7       401.393 7        47.179 7  36725487.863 8 147878319.049 8       310.584 8        48.232 8  36725492.637 7 155397577.883 7       326.139 7        46.448 7
C11  23975457.195 7 124846492.421 7     -2453.549 7        45.738 7  23975465.746 8  96539261.903 8     -1897.248 8        48.566 8  23975470.684 7 101448061.612 7     -1993.451 7        47.263 7
C13  39121673.672 7 203716822.179 7      1641.744 7        42.251 7  39121688.590 7 157526833.696 7      1269.256 7        43.663 7  39121692.504 6 165536687.310 6      1333.600 6        40.710 6
C16  39549698.527 6 205945642.040 6     -1761.732 6        40.785 6  39549712.336 6 159250292.300 6     -1361.486 6        40.672 6  39549715.383 6 167347792.860 6     -1430.854 6        36.335 6
S37  36963002.352 7 194241886.581 7         2.875 7        42.483 7
> 2022 06 21 01 03 20.0000000  0 27       0.000000000000
G01  19908438.074 8 104619548.119 8       -97.750 8        50.120 8  19908454.660 8  81521794.348 8       -76.146 8        50.226 8
G03  24057282.320 6 126421872.680 6      2845.941 6        37.093 6  24057301.453 7  98510611.762 7      2217.760 7        43.166 7
G07  20928783.930 7 109981497.236 7     -1921.559 7        47.692 7  20928797.594 8  85699925.916 8     -1497.396 8        50.226 8
G08  23031089.301 7 121029188.665 7     -2327.340 7        43.135 7  23031106.715 7  94308495.896 7     -1813.666 7        44.649 7
G14  21947292.055 7 115333795.290 7      2405.492 7        46.438 7  21947306.293 8  89870555.325 8      1874.400 8        48.960 8
G17  22661599.344 7 119087507.461 7      1490.238 7        44.012 7  22661615.055 8  92795529.327 8      1160.963 8        50.226 8
G21  21764475.813 7 114373089.237 7     -2566.188 7        47.906 7  21764488.605 8  89121943.001 8     -1999.662 8        50.226 8
G30  21150526.898 8 111146768.341 8      -175.797 8        48.542 8  21150543.469 8  86607939.427 8      -136.967 8        50.226 8
R09  22711594.637 7 121278635.683 7     -3823.883 7        46.787 7  22711600.078 7  94327855.085 7     -2974.168 7        42.508 7
R10  19597531.016 8 104465861.199 8     -1432.137 8        51.861 8                                                                
R11  20183789.633 9 107856050.782 9      2665.584 9        55.445 9  20183792.496 8  83888058.954 8      2073.217 8        51.358 8
R20  21275660.555 6 113770504.868 6     -3329.326 6        39.834 6  21275665.285 7  88488199.443 7     -2588.932 7        47.707 7
R21  19669106.164 9 105253354.637 9       373.188 9        55.351 9  19669110.746 8  81863744.014 8       290.309 8        51.127 8
C01  37564992.012 7 195610771.794 7        27.959 7        44.082 7  37564999.953 7 151258687.278 7        21.781 7        45.114 7  37565008.898 7 158949845.950 7        22.748 7        43.325 7
C02  37769342.551 6 196674882.021 6        21.748 6        41.502 6  37769348.777 7 152081511.719 7        16.938 7        45.481 7  37769357.926 7 159814513.904 7        17.904 7        42.508 7
C03  37026192.078 7 192805101.929 7        50.479 7        45.750 7  37026198.840 7 149089158.898 7        39.281 7        47.170 7  37026205.508 7 156669993.369 7        41.264 7        44.727 7
C04  38590183.672 6 200949217.225 6        21.865 6        41.107 6  38590190.828 7 155386707.132 7        17.113 7        43.869 7  38590198.871 7 163287760.211 7        17.982 7        42.330 7
C05  39465518.387 6 205507310.720 6        27.451 6        38.491 6  39465529.512 7 158911328.043 7        21.195 7        43.304 7  39465535.176 6 166991593.153 6        22.123 6        39.448 6
C06  39239411.828 6 204329904.399 6     -1812.842 6        39.971 6  39239420.129 7 158000880.890 7     -1401.969 7        43.242 7  39239425.441 6 166034849.063 6     -1473.268 6        41.687 6
C07  36298587.938 8 189016274.213 8       280.283 8        48.928 8  36298591.727 8 146159385.716 8       216.625 8        49.443 8  36298597.078 8 153591242.796 8       227.729 8        48.622 8
C08  38408857.699 7 200005007.097 7      1770.186 7        42.330 7  38408864.566 7 154656584.717 7      1368.480 7        45.168 7  38408870.031 7 162520498.680 7      1438.744 7        42.508 7
C09  38724470.758 7 201648479.900 7     -1791.709 7        42.775 7  38724481.379 7 155927433.442 7     -1385.445 7        44.528 7  38724484.164 6 163855961.885 6     -1455.436 6        40.477 6
C10  36724709.992 7 191235204.168 7       400.889 7        47.196 7  36724717.648 8 147875217.739 8       310.199 8        48.370 8  36724722.426 7 155394318.873 7       326.068 7        46.356 7
C11  23980171.875 7 124871037.904 7     -2455.342 7        46.263 7  23980178.957 8  96558242.009 8     -1898.258 8        48.172 8  23980184.664 7 101468006.844 7     -1994.869 7        47.288 7
C13  39118523.086 7 203700417.369 7      1640.420 7        42.171 7  39118538.504 7 157514148.505 7      1268.070 7        43.304 7  39118542.219 6 165523357.083 6      1332.689 6        40.556 6
C16  39553082.344 6 205963262.140 6     -1761.807 6        40.634 6  39553095.793 6 159263917.267 6     -1362.633 6        40.748 6  39553099.605 6 167362110.607 6     -1432.135 6        36.438 6
S37  36962998.035 7 194241864.705 7         2.426 7        42.680 7
> 2022 06 21 01 03 30.0000000  0 27       0.000000000000
G01  19908630.469 8 104620558.271 8      -104.080 8        50.155 8  19908646.641 8  81522579.483 8       -81.262 8        50.226 8
G03  24051866.082 6 126393410.382 6      2846.877 6        37.812 6  24051884.941 7  98488433.323 7      2217.742 7        42.934 7
G07  20932445.016 7 110000737.051 7     -1926.092 7        47.419 7  20932458.852 8  85714917.948 8     -1500.891 8        50.226 8
G08  23035517.504 7 121052457.569 7     -2326.248 7        43.427 7  23035534.602 7  94326627.503 7     -1812.941 7        45.650 7
G14  21942714.477 7 115309743.678 7      2404.924 7        46.124 7  21942729.145 8  89851813.792 8      1874.012 8        49.616 8
G17  22658765.344 7 119072613.822 7      1488.947 7        44.368 7  22658780.125 8  92783923.884 8      1159.988 8        50.226 8
G21  21769361.762 7 114398766.007 7     -2568.885 7        47.812 7  21769374.543 8  89141950.867 8     -2001.672 8        50.226 8
G30  21150867.391 8 111148555.409 8      -181.365 8        48.504 8  21150883.348 8  86609331.942 8      -141.379 8        50.226 8
R09  22718759.316 7 121316890.085 7     -3826.734 7        46.969 7  22718763.328 7  94357608.438 7     -2976.496 7        43.977 7
R10  19600222.992 8 104480216.445 8     -1438.734 8        52.150 8                                                                
R11  20178805.094 9 107829417.436 9      2661.129 9        55.293 9  20178808.820 8  83867344.147 8      2069.773 8        51.079 8
R20  21281883.773 6 113803799.373 6     -3329.643 6        40.103 6  21281892.223 7  88514095.216 7     -2590.051 7        47.187 7
R21  19668412.996 9 105249651.768 9       367.381 9        55.233 9  19668416.434 8  81860863.983 8       285.887 8        51.226 8
C01  37564937.180 7 195610489.248 7        28.602 7        43.814 7  37564946.086 7 151258468.801 7        22.064 7        45.593 7  37564954.430 7 158949616.372 7        22.926 7        43.387 7
C02  37769300.703 6 196674661.230 6        22.547 6        41.717 6  37769306.211 7 152081340.983 7        17.475 7        45.208 7  37769315.391 7 159814334.477 7        18.316 7        42.798 7
C03  37026094.355 7 192804593.676 7        51.238 7        45.327 7  37026100.508 7 149088765.883 7        39.545 7        47.179 7  37026107.805 7 156669580.357 7        41.578 7        44.727 7
C04  38590140.969 6 200948992.927 6        22.801 6        40.015 6  38590148.086 7 155386533.683 7        17.689 7        44.202 7  38590155.891 6 163287577.937 6        18.980 6        41.717 6
C05  39465465.195 6 205507032.395 6        28.367 6        39.448 6  39465476.180 7 158911112.843 7        21.615 7        43.304 7  39465482.031 6 166991366.972 6        23.160 6        39.548 6
C06  39242892.117 6 204348028.945 6     -1811.613 6        40.556 6  39242901.094 7 158014895.889 7     -1400.963 7        43.605 7  39242906.133 6 166049576.688 6     -1471.762 6        41.864 6
C07  36298048.734 8 189013467.193 8       281.453 8        48.905 8  36298052.852 8 146157215.152 8       217.729 8        49.616 8  36298057.953 8 153588961.874 8       228.551 8        48.566 8
C08  38405459.199 7 199987308.022 7      1770.008 7        42.006 7  38405465.781 7 154642898.682 7      1368.473 7        45.072 7  38405471.176 7 162506116.745 7      1438.941 7        42.680 7
C09  38727911.836 7 201666397.699 7     -1791.516 7        43.135 7  38727922.176 7 155941288.576 7     -1385.299 7        44.496 7  38727925.223 6 163870521.525 6     -1455.609 6        40.967 6
C10  36723938.945 7 191231188.464 7       402.547 7        47.296 7  36723946.531 8 147872112.547 8       311.225 8        48.383 8  36723951.309 7 155391055.807 7       326.695 7        46.468 7
C11  23984885.469 7 124895587.577 7     -2454.328 7        45.924 7  23984893.770 8  96577225.352 8     -1898.209 8        48.560 8  23984898.934 7 101487955.438 7     -1994.750 7        47.403 7
C13  39115374.141 7 203684017.687 7      1640.555 7        43.003 7  39115389.199 7 157501467.223 7      1268.354 7        43.407 7  39115392.879 6 165510031.030 6      1332.281 6        40.710 6
C16  39556465.078 6 205980877.887 6     -1760.578 6        40.397 6  39556479.102 6 159277538.823 6     -1361.041 6        40.672 6  39556482.563 6 167376424.805 6     -1430.395 6        37.507 6
S37  36962994.250 7 194241842.719 7         2.971 7        42.607 7
> 2022 06 21 01 03 40.0000000  0 27       0.000000000000
G01  19908836.652 8 104621640.526 8      -111.189 8        49.830 8  19908852.449 8  81523422.801 8       -86.838 8        50.226 8
G03  24046451.043 6 126364951.761 6      2845.588 6        37.585 6  24046468.688 7  98466257.757 7      2217.869 7        42.298 7
G07  20936116.457 7 110020031.587 7     -1932.049 7        46.787 7  20936130.180 8  85729952.616 8     -1505.334 8        50.226 8
G08  23039945.898 7 121075726.759 7     -2326.932 7        43.113 7  23039962.297 7  94344759.336 7     -1813.010 7        44.952 7
G14  21938140.676 7 115285706.012 7      2403.752 7        45.275 7  21938155.059 8  89833083.164 8      1873.084 8        48.926 8
G17  22655935.262 7 119057740.204 7      1486.330 7        44.012 7  22655949.270 8  92772334.070 8      1158.670 8        50.226 8
G21  21774254.781 7 114424478.083 7     -2572.459 7        47.443 7  21774267.715 8  89161986.247 8     -2004.572 8        50.226 8
G30  21151219.242 7 111150407.563 7      -188.143 7        47.752 7  21151235.828 8  86610775.173 8      -146.467 8        50.226 8
R09  22725926.773 7 121355177.320 7     -3830.086 7        46.683 7  22725932.219 7  94387387.334 7     -2979.027 7        44.082 7
R10  19602928.203 8 104494645.732 8     -1446.281 8        52.029 8                                                                
R11  20173831.211 9 107802835.806 9      2655.959 9        54.996 9  20173833.070 8  83846669.548 8      2065.680 8        51.289 8
R20  21288116.785 6 113837114.572 6     -3332.449 6        41.002 6  21288123.516 7  88540006.982 7     -2591.588 7        46.924 7
R21  19667732.633 9 105246013.986 9       360.822 9        54.503 9  19667738.789 8  81858034.583 8       280.598 8        51.093 8
C01  37564882.898 7 195610206.716 7        28.387 7        43.905 7  37564891.379 7 151258250.312 7        22.043 7        45.195 7  37564900.320 7 158949386.766 7        23.412 7        43.701 7
C02  37769257.801 6 196674440.251 6        22.352 6        41.687 6  37769263.344 7 152081170.104 7        17.512 7        45.353 7  37769272.953 7 159814154.925 7        17.904 7        42.583 7
C03  37025996.395 7 192804085.322 7        51.355 7        45.340 7  37026003.621 7 149088372.792 7        39.465 7        47.459 7  37026010.254 7 156669167.285 7        41.498 7        44.605 7
C04  38590097.492 6 200948768.777 6        22.801 6        39.971 6  38590105.109 7 155386360.326 7        17.570 7        44.202 7  38590112.789 6 163287395.773 6        18.568 6        41.921 6
C05  39465411.703 6 205506753.904 6        28.016 6        39.134 6  39465422.152 7 158910897.457 7        22.004 7        43.113 7  39465428.523 6 166991140.688 6        22.865 6        40.015 6
C06  39246371.813 6 204366151.097 6     -1811.906 6        40.231 6  39246381.758 7 158028909.048 7     -1401.023 7        43.923 7  39246386.586 6 166064302.416 6     -1472.408 6        41.656 6
C07  36297509.160 8 189010656.987 8       281.531 8        48.730 8  36297513.273 8 146155042.118 8       217.688 8        49.636 8  36297518.410 8 153586678.348 8       228.686 8        48.535 8
C08  38402061.898 7 199969617.101 7      1769.188 7        42.382 7  38402068.516 7 154629218.938 7      1367.902 7        45.392 7  38402073.918 7 162491741.446 7      1437.143 7        42.891 7
C09  38731353.973 7 201684318.542 7     -1791.633 7        43.304 7  38731364.453 7 155955146.089 7     -1385.906 7        44.889 7  38731366.930 6 163885083.647 6     -1455.982 6        40.710 6
C10  36723166.777 7 191227167.968 7       402.625 7        47.427 7  36723174.215 8 147869003.625 8       311.262 8        48.409 8  36723179.168 7 155387788.814 7       326.830 7        46.577 7
C11  23989600.590 7 124920141.511 7     -2455.070 7        45.654 7  23989608.672 7  96596212.017 7     -1898.660 7        47.654 7  23989614.109 7 101507907.525 7     -1995.064 7        46.787 7
C13  39112226.430 7 203667623.212 7      1639.891 7        43.048 7  39112240.879 7 157488790.006 7      1267.551 7        43.325 7  39112244.414 6 165496709.163 6      1331.771 6        40.595 6
C16  39559847.008 6 205998489.517 6     -1761.066 6        40.397 6  39559861.422 6 159291157.154 6     -1360.418 6        40.748 6  39559864.816 6 167390735.634 6     -1430.943 6        37.346 6
S37  36962989.516 6 194241820.799 6         2.424 6        41.950 6
> 2022 06 21 01 03 50.0000000  0 27       0.000000000000
G01  19909055.930 8 104622794.459 8      -118.932 8        50.077 8  19909072.043 8  81524321.958 8       -92.484 8        50.226 8
G03  24041035.648 6 126336496.438 6      2845.893 6        37.005 6  24041053.504 6  98444084.781 6      2217.105 6        41.906 6
G07  20939798.270 7 110039380.301 7     -1937.330 7        46.567 7  20939812.051 8  85745029.533 8     -1509.574 8        50.226 8
G08  23044374.082 7 121098995.731 7     -2327.115 7        43.941 7  23044390.164 7  94362890.989 7     -1813.148 7        45.089 7
G14  21933568.664 7 115261681.979 7      2401.869 7        45.702 7  21933583.043 8  89814363.151 8      1871.656 8        48.683 8
G17  22653108.824 7 119042886.200 7      1484.369 7        44.433 7  22653122.605 8  92760759.564 8      1156.402 8        50.226 8
G21  21779153.590 7 114450225.097 7     -2576.588 7        47.119 7  21779167.086 8  89182048.853 8     -2007.621 8        50.182 8
G30  21151584.762 8 111152324.332 8      -194.928 8        48.151 8  21151600.730 8  86612268.760 8      -151.879 8        50.226 8
R09  22733104.473 7 121393497.068 7     -3833.662 7        46.346 7  22733107.910 7  94417191.510 7     -2981.201 7        44.100 7
R10  19605651.531 8 104509148.536 8     -1453.801 8        51.907 8                                                                
R11  20168866.852 9 107776305.548 9      2650.682 9        54.826 9  20168869.285 8  83826034.907 8      2061.473 8        51.282 8
R20  21294348.438 6 113870449.600 6     -3333.959 6        40.315 6  21294356.457 7  88565934.239 7     -2593.295 7        47.093 7
R21  19667066.375 9 105242441.073 9       354.193 9        55.335 9  19667069.672 8  81855255.627 8       275.549 8        51.086 8
C01  37564829.227 7 195609923.762 7        28.455 7        43.644 7  37564837.098 7 151258031.512 7        22.303 7        44.697 7  37564845.875 7 158949156.854 7        23.023 7        43.448 7
C02  37769215.648 6 196674218.716 6        22.693 6        41.687 6  37769220.871 7 152080998.810 7        16.873 7        44.932 7  37769230.473 7 159813974.918 7        18.004 7        43.070 7
C03  37025898.438 7 192803576.477 7        51.111 7        45.431 7  37025906.129 7 149087979.329 7        39.393 7        47.403 7  37025912.367 7 156668753.818 7        41.285 7        44.590 7
C04  38590054.730 6 200948544.324 6        22.498 6        40.059 6  38590061.813 7 155386186.785 7        17.342 7        44.253 7  38590069.961 7 163287213.384 7        18.648 7        42.144 7
C05  39465357.676 6 205506474.837 6        27.889 6        38.854 6  39465369.016 7 158910681.664 7        21.678 7        42.959 7  39465374.891 6 166990913.922 6        22.848 6        39.741 6
C06  39249851.188 6 204384270.441 6     -1811.721 6        40.015 6  39249861.348 7 158042920.012 7     -1400.902 7        44.202 7  39249866.055 6 166079025.811 6     -1471.938 6        41.656 6
C07  36296968.617 8 189007843.138 8       281.639 8        48.760 8  36296972.410 8 146152866.262 8       217.947 8        49.341 8  36296978.035 8 153584391.860 8       228.961 8        48.736 8
C08  38398665.637 7 199951933.817 7      1767.928 7        42.198 7  38398672.754 7 154615545.117 7      1367.303 7        45.275 7  38398677.965 7 162477372.352 7      1436.480 7        43.135 7
C09  38734795.320 7 201702242.034 7     -1792.580 7        43.070 7  38734807.090 7 155969005.609 7     -1386.176 7        45.431 7  38734809.035 6 163899647.935 6     -1456.156 6        40.858 6
C10  36722394.031 7 191223142.188 7       402.811 7        47.395 7  36722401.402 8 147865890.623 8       311.756 8        48.491 8  36722406.035 7 155384517.526 7       327.379 7        46.488 7
C11  23994316.563 7 124944699.295 7     -2455.783 7        45.991 7  23994324.219 7  96615201.617 7     -1899.301 7        46.824 7  23994330.359 7 101527862.687 7     -1995.570 7        47.459 7
C13  39109078.859 7 203651233.576 7      1638.904 7        43.263 7  39109092.918 7 157476116.498 7      1267.049 7        43.263 7  39109097.082 6 165483391.265 6      1330.875 6        40.517 6
C16  39563227.508 6 206016096.454 6     -1760.588 6        39.834 6  39563242.457 6 159304771.949 6     -1361.430 6        40.785 6  39563246.078 6 167405042.684 6     -1430.395 6        37.179 6
S37  36962985.570 7 194241798.497 7         2.318 7        42.458 7
> 2022 06 21 01 04  0.0000000  0 27       0.000000000000
G01  19909289.430 8 104624020.509 8      -125.918 8        50.286 8                                                                
G03  24035621.164 6 126308044.996 6      2845.996 6        36.824 6  24035640.082 7  98421914.866 7      2216.377 7        42.178 7
G07  20943490.730 7 110058783.613 7     -1942.695 7        47.145 7  20943504.410 8  85760148.986 8     -1513.799 8        50.226 8
G08  23048801.605 7 121122264.987 7     -2326.777 7        43.304 7  23048818.633 7  94381022.865 7     -1812.725 7        45.296 7
G14  21929000.000 7 115237672.127 7      2400.840 7        46.304 7  21929014.277 8  89795654.171 8      1870.811 8        48.484 8
G17  22650285.738 7 119028052.168 7      1483.047 7        44.465 7  22650300.121 8  92749200.579 8      1155.713 8        50.226 8
G21  21784059.613 7 114476007.174 7     -2579.375 7        47.031 7  21784072.992 8  89202138.776 8     -2009.951 8        50.138 8
G30  21151961.496 8 111154306.188 8      -200.996 8        48.165 8  21151977.879 8  86613813.052 8      -156.650 8        50.226 8
R09  22740287.672 7 121431849.595 7     -3836.693 7        46.796 7  22740291.684 7  94447021.215 7     -2983.863 7        44.543 7
R10  19608384.801 8 104523725.537 8     -1460.988 8        52.201 8                                                                
R11  20163911.574 9 107749827.284 9      2645.637 9        55.487 9  20163913.438 8  83805440.694 8      2057.697 8        51.413 8
R20  21300587.594 6 113903804.880 6     -3336.816 6        41.037 6  21300593.180 7  88591877.195 7     -2594.650 7        46.356 7
R21  19666409.633 9 105238933.210 9       348.014 9        55.514 9  19666414.215 8  81852527.282 8       270.541 8        51.079 8
C01  37564774.148 7 195609640.895 7        29.023 7        43.777 7  37564782.840 7 151257812.798 7        22.008 7        45.379 7  37564791.547 7 158948926.996 7        23.305 7        43.387 7
C02  37769173.160 6 196673997.020 6        22.715 6        41.564 6  37769178.633 7 152080827.369 7        17.770 7        45.208 7  37769188.148 7 159813794.753 7        18.617 7        42.775 7
C03  37025800.570 7 192803067.650 7        51.230 7        45.366 7  37025807.941 7 149087585.851 7        39.840 7        47.101 7  37025814.625 7 156668340.352 7        41.508 7        44.605 7
C04  38590011.848 6 200948320.104 6        22.793 6        39.926 6  38590018.969 7 155386013.371 7        17.945 7        44.065 7  38590026.980 7 163287031.184 7        18.871 7        42.062 7
C05  39465304.922 6 205506195.626 6        28.281 6        39.498 6  39465315.078 7 158910465.761 7        22.027 7        43.070 7  39465321.227 6 166990687.040 6        22.816 6        39.548 6
C06  39253330.301 6 204402387.430 6     -1810.762 6        40.059 6  39253341.066 7 158056929.199 7     -1400.512 7        43.586 7  39253345.438 6 166093747.348 6     -1472.008 6        41.921 6
C07  36296427.598 8 189005026.162 8       282.402 8        48.688 8  36296431.676 8 146150688.010 8       218.160 8        49.320 8  36296437.137 8 153582102.846 8       229.516 8        48.706 8
C08  38395272.184 7 199934258.827 7      1767.813 7        42.433 7  38395278.301 7 154601877.702 7      1366.695 7        45.017 7  38395283.668 7 162463009.975 7      1436.508 7        43.284 7
C09  38738237.695 7 201720168.576 7     -1792.617 7        42.607 7  38738249.465 7 155982867.501 7     -1385.746 7        45.100 7  38738251.852 6 163914214.681 6     -1456.520 6        41.107 6
C10  36721619.734 7 191219111.605 7       403.633 7        47.362 7  36721627.391 8 147862773.941 8       312.125 8        48.041 8  36721631.918 7 155381242.345 7       328.344 7        46.488 7
C11  23999033.742 7 124969261.273 7     -2455.781 7        45.785 7  23999042.363 8  96634194.495 8     -1898.988 8        48.338 8  23999047.285 7 101547821.316 7     -1995.758 7        47.499 7
C13  39105931.453 7 203634849.263 7      1638.730 7        42.821 7  39105946.695 7 157463447.137 7      1266.695 7        42.304 7  39105950.551 6 165470077.650 6      1331.332 6        40.356 6
C16  39566607.277 6 206033699.218 6     -1759.336 6        39.548 6  39566622.871 6 159318383.473 6     -1361.059 6        40.315 6  39566626.527 6 167419346.350 6     -1430.133 6        37.662 6
S37  36962981.539 7 194241776.308 7         2.734 7        42.278 7
> 2022 06 21 01 04 10.0000000  0 27       0.000000000000
G01  19909536.027 8 104625318.395 8      -132.795 8        49.839 8  19909552.426 8  81526288.653 8      -103.668 8        50.226 8
G03  24030207.191 6 126279597.408 6      2844.451 6        36.438 6  24030227.293 7  98399747.923 7      2216.859 7        43.289 7
G07  20947193.430 7 110078241.202 7     -1947.756 7        47.075 7  20947207.223 8  85775310.736 8     -1518.121 8        50.226 8
G08  23053228.922 7 121145534.246 7     -2326.506 7        43.003 7  23053246.520 7  94399154.745 7     -1812.906 7        44.185 7
G14  21924433.414 7 115213676.293 7      2398.846 7        45.924 7  21924448.324 8  89776956.129 8      1869.223 8        48.949 8
G17  22647466.449 7 119013237.840 7      1480.896 7        44.134 7  22647482.133 8  92737656.968 8      1154.008 8        50.226 8
G21  21788972.727 7 114501824.053 7     -2583.127 7        47.329 7  21788985.316 8  89222255.832 8     -2012.828 8        50.226 8
G30  21152351.184 8 111156352.874 8      -207.619 8        48.199 8  21152367.109 8  86615407.875 8      -161.891 8        50.226 8
R09  22747474.527 7 121470234.454 7     -3839.859 7        47.362 7  22747480.973 7  94476876.077 7     -2987.021 7        44.202 7
R10  19611133.758 8 104538376.178 8     -1468.484 8        52.073 8                                                                
R11  20158964.539 9 107723400.986 9      2640.205 9        55.429 9  20158969.121 8  83784886.919 8      2053.736 8        51.151 8
R20  21306827.977 6 113937180.149 6     -3338.520 6        40.517 6  21306834.707 7  88617835.732 7     -2596.346 7        47.475 7
R21  19665766.574 9 105235490.230 9       341.348 9        55.131 9  19665771.012 8  81849849.405 8       265.523 8        50.862 8
C01  37564720.395 7 195609357.890 7        28.283 7        43.887 7  37564728.406 7 151257593.938 7        22.246 7        45.208 7  37564737.273 7 158948697.015 7        23.510 7        43.407 7
C02  37769130.496 6 196673774.999 6        22.580 6        41.564 6  37769136.148 7 152080655.683 7        17.480 7        45.405 7  37769145.383 7 159813614.345 7        18.217 7        42.632 7
C03  37025703.246 7 192802558.572 7        51.076 7        45.642 7  37025710.402 7 149087192.205 7        39.570 7        47.305 7  37025717.063 7 156667926.665 7        41.654 7        44.932 7
C04  38589969.078 6 200948095.867 6        22.521 6        39.834 6  38589975.840 7 155385839.958 7        17.227 7        44.368 7  38589983.586 7 163286848.939 7        18.842 7        42.458 7
C05  39465250.918 6 205505916.090 6        28.029 6        39.188 6  39465261.254 7 158910249.592 7        21.934 7        42.891 7  39465267.625 6 166990459.860 6        22.826 6        39.971 6
C06  39256809.559 6 204420501.814 6     -1811.658 6        39.926 6  39256819.039 7 158070936.360 7     -1400.313 7        43.263 7  39256824.141 6 166108466.724 6     -1471.744 6        41.806 6
C07  36295885.723 8 189002205.877 8       282.619 8        48.396 8  36295889.836 8 146148507.166 8       218.555 8        49.498 8  36295895.348 8 153579811.132 8       229.486 8        48.670 8
C08  38391879.383 7 199916591.855 7      1766.389 7        42.751 7  38391885.500 7 154588216.484 7      1365.859 7        45.288 7  38391890.766 7 162448654.128 7      1435.229 7        42.959 7
C09  38741680.570 7 201738097.956 7     -1792.439 7        42.225 7  38741692.840 7 155996731.595 7     -1386.035 7        45.340 7  38741695.172 6 163928783.726 6     -1456.803 6        41.107 6
C10  36720845.121 7 191215076.074 7       403.986 7        47.238 7  36720852.668 8 147859653.385 8       312.910 8        48.158 8  36720857.027 7 155377963.146 7       328.393 7        46.815 7
C11  24003751.996 7 124993827.188 7     -2456.268 7        46.178 7  24003760.617 8  96653190.396 8     -1899.316 8        48.041 8  24003764.813 7 101567783.123 7     -1996.217 7        47.179 7
C13  39102785.949 7 203618470.137 7      1638.107 7        42.407 7  39102801.227 7 157450781.746 7      1266.699 7        42.821 7  39102805.367 6 165456768.260 6      1331.166 6        40.556 6
C16  39569987.051 6 206051297.553 6     -1758.982 6        39.397 6  39570002.684 6 159331991.558 6     -1360.254 6        40.477 6  39570006.168 6 167433646.369 6     -1429.303 6        38.027 6
S37  36962976.723 7 194241753.973 7         2.283 7        42.458 7
> 2022 06 21 01 04 20.0000000  0 27       0.000000000000
G01  19909796.852 8 104626688.500 8      -140.791 8        50.068 8  19909812.906 8  81527356.261 8      -109.471 8        50.226 8
G03  24024794.852 6 126251154.006 6      2845.791 6        36.438 6  24024814.984 7  98377584.342 7      2216.037 7        42.730 7
G07  20950906.773 7 110097753.426 7     -1953.896 7        47.451 7  20950920.410 8  85790515.033 8     -1522.479 8        50.226 8
G08  23057657.297 7 121168803.797 7     -2327.139 7        42.868 7  23057674.238 7  94417286.854 7     -1813.475 7        44.033 7
G14  21919870.180 7 115189694.897 7      2397.295 7        46.335 7  21919884.945 8  89758269.341 8      1868.010 8        49.264 8
G17  22644651.512 7 118998443.685 7      1478.486 7        45.017 7  22644667.352 8  92726129.070 8      1152.209 8        50.226 8
G21  21793892.195 7 114527675.985 7     -2586.533 7        47.600 7  21793904.758 8  89242400.195 8     -2015.428 8        50.226 8
G30  21152752.813 8 111158464.780 8      -214.678 8        48.312 8  21152769.141 8  86617053.503 8      -167.342 8        50.226 8
R09  22754667.746 7 121508652.141 7     -3843.439 7        47.538 7  22754674.480 7  94506756.439 7     -2989.320 7        42.959 7
R10  19613895.383 8 104553101.204 8     -1476.322 8        51.705 8                                                                
R11  20154030.309 9 107697027.060 9      2634.924 9        55.676 9  20154034.031 8  83764373.885 8      2049.111 8        51.705 8
R20  21313072.281 6 113970575.646 6     -3340.912 6        40.397 6  21313080.445 7  88643809.994 7     -2598.529 7        47.411 7
R21  19665136.176 9 105232112.428 9       334.580 9        55.274 9  19665139.473 8  81847222.209 8       260.273 8        51.089 8
C01  37564666.348 7 195609075.075 7        28.168 7        44.168 7  37564674.395 7 151257375.256 7        21.852 7        45.702 7  37564682.844 7 158948467.227 7        23.107 7        43.304 7
C02  37769087.645 6 196673553.009 6        22.113 6        41.656 6  37769093.262 7 152080484.002 7        17.418 7        45.494 7  37769102.684 7 159813433.961 7        17.971 7        42.868 7
C03  37025605.484 7 192802049.619 7        50.707 7        45.519 7  37025612.781 7 149086798.643 7        39.566 7        47.362 7  37025619.328 7 156667513.100 7        41.662 7        44.786 7
C04  38589925.262 6 200947871.967 6        22.621 6        40.059 6  38589932.988 7 155385666.780 7        17.613 7        43.923 7  38589940.629 7 163286666.998 7        18.010 7        42.090 7
C05  39465197.727 6 205505636.560 6        27.680 6        39.693 6  39465207.492 7 158910033.428 7        21.578 7        42.680 7  39465213.996 6 166990232.705 6        22.814 6        40.015 6
C06  39260287.949 6 204438613.857 6     -1810.660 6        40.273 6  39260297.535 7 158084941.709 7     -1400.785 7        43.407 7  39260302.395 7 166123184.234 7     -1471.365 7        42.198 7
C07  36295343.516 8 188999382.643 8       282.191 8        48.318 8  36295348.023 8 146146324.062 8       218.316 8        49.209 8  36295353.305 8 153577517.015 8       229.338 8        48.974 8
C08  38388487.895 7 199898933.279 7      1765.023 7        42.680 7  38388493.797 7 154574561.769 7      1364.762 7        44.590 7  38388499.578 7 162434305.080 7      1434.299 7        43.346 7
C09  38745124.871 7 201756030.532 7     -1793.355 7        42.558 7  38745136.176 7 156010598.187 7     -1387.133 7        45.114 7  38745139.066 6 163943355.380 6     -1457.303 6        41.242 6
C10  36720069.066 7 191211035.874 7       404.047 7        47.162 7  36720076.688 8 147856529.255 8       312.770 8        48.185 8  36720081.086 7 155374680.150 7       328.557 7        46.842 7
C11  24008469.637 7 125018397.384 7     -2457.184 7        45.114 7  24008478.973 8  96672189.615 8     -1900.121 8        48.460 8  24008483.066 7 101587748.396 7     -1996.814 7        47.305 7
C13  39099641.617 7 203602096.544 7      1636.938 7        43.157 7  39099657.180 7 157438120.650 7      1265.895 7        42.936 7  39099661.063 6 165443463.401 6      1330.197 6        40.858 6
C16  39573366.172 6 206068891.815 6     -1759.703 6        39.188 6  39573380.516 6 159345596.495 6     -1360.590 6        40.146 6  39573385.086 6 167447943.080 6     -1429.451 6        37.885 6
S37  36962973.258 7 194241731.892 7         1.846 7        42.458 7
> 2022 06 21 01 04 30.0000000  0 27       0.000000000000
G01  19910071.395 8 104628130.526 8      -147.648 8        50.193 8  19910087.320 8  81528478.916 8      -114.998 8        50.226 8
G03  24019383.492 6 126222714.834 6      2844.031 6        37.263 6  24019402.250 7  98355423.954 7      2216.018 7        42.859 7
G07  20954629.688 7 110117319.861 7     -1959.328 7        47.263 7  20954643.613 8  85805761.579 8     -1526.893 8        50.226 8
G08  23062085.227 7 121192073.363 7     -2326.555 7        42.632 7  23062102.711 7  94435418.971 7     -1813.182 7        44.360 7
G14  21915309.215 7 115165727.761 7      2395.789 7        46.438 7  21915324.313 8  89739593.655 8      1866.877 8        49.431 8
G17  22641840.277 7 118983669.312 7      1476.531 7        45.443 7  22641855.645 8  92714616.591 8      1150.588 8        50.226 8
G21  21798818.367 7 114553562.603 7     -2590.305 7        47.554 7  21798831.090 8  89262571.597 8     -2018.475 8        50.226 8
G30  21153167.441 8 111160641.596 8      -220.852 8        48.700 8  21153183.281 8  86618749.714 8      -172.225 8        50.226 8
R09  22761870.258 7 121547102.082 7     -3846.359 7        47.631 7  22761873.410 7  94536661.893 7     -2991.838 7        43.113 7
R10  19616672.313 8 104567900.011 8     -1483.477 8        51.803 8                                                                
R11  20149104.941 9 107670705.525 9      2629.641 9        54.969 9  20149107.949 8  83743901.584 8      2045.207 8        51.027 8
R20  21319320.293 6 114003990.980 6     -3341.803 6        40.146 6  21319328.457 7  88669799.715 7     -2599.723 7        46.080 7
R21  19664516.219 9 105228799.485 9       328.240 9        55.317 9  19664520.371 8  81844645.477 8       255.135 8        51.470 8
C01  37564611.488 7 195608792.212 7        28.629 7        43.941 7  37564620.109 7 151257156.547 7        21.813 7        45.630 7  37564628.652 7 158948237.372 7        23.143 7        43.625 7
C02  37769045.094 6 196673330.771 6        22.379 6        41.470 6  37769050.855 7 152080312.185 7        17.164 7        45.327 7  37769060.082 7                        17.869 7        42.845 7
C03  37025507.594 7 192801540.545 7        50.699 7        45.544 7  37025514.676 7 149086404.986 7        39.625 7        47.387 7  37025521.504 7 156667099.434 7        41.131 7        44.772 7
C04  38589881.922 6 200947648.165 6        22.438 6        39.971 6  38589889.508 7 155385493.706 7        17.145 7        43.682 7  38589897.895 7 163286485.089 7        18.611 7        42.062 7
C05  39465142.836 6 205505356.781 6        27.945 6        39.448 6  39465154.211 7 158909817.082 7        21.617 7        42.558 7  39465160.234 6 166990005.360 6        22.986 6        39.693 6
C06  39263765.676 6 204456723.391 6     -1810.609 6        40.315 6  39263775.441 7 158098945.112 7     -1400.492 7        43.427 7  39263779.977 6 166137899.674 6     -1471.447 6        41.595 6
C07  36294800.684 8 188996556.178 8       283.023 8        48.338 8  36294804.473 8 146144138.456 8       218.941 8        49.204 8  36294810.598 8 153575220.274 8       230.096 8        48.706 8
C08  38385098.352 7 199881282.917 7      1764.566 7        42.533 7  38385104.148 7 154560913.363 7      1365.113 7        44.682 7  38385109.898 7 162419962.730 7      1433.221 7        42.775 7
C09  38748569.543 7 201773965.948 7     -1793.344 7        42.868 7  38748580.273 7 156024466.959 7     -1386.801 7        44.757 7  38748583.078 6 163957929.358 6     -1457.600 6        40.437 6
C10  36719292.203 7 191206990.886 7       404.977 7        47.229 7  36719299.324 8 147853401.436 8       312.906 8        48.055 8  36719304.289 7 155371393.267 7       329.041 7        46.740 7
C11  24013188.539 7 125042971.574 7     -2457.504 7        45.392 7  24013197.629 7  96691191.897 7     -1900.043 7        47.646 7  24013202.293 7 101607716.914 7     -1996.994 7        47.246 7
C13  39096498.445 7 203585728.156 7      1636.891 7        43.048 7  39096513.469 7 157425463.615 7      1265.504 7        42.583 7  39096517.398 6 165430162.744 6      1330.115 6        40.785 6
C16  39576743.445 6 206086481.633 6     -1757.660 6        38.795 6  39576759.043 6 159359198.029 6     -1359.613 6        40.273 6  39576762.750 6 167462236.253 6     -1429.436 6        37.812 6
S37  36962968.770 7 194241709.770 7         2.508 7        42.607 7
> 2022 06 21 01 04 40.0000000  0 27       0.000000000000
G01  19910359.434 8 104629644.345 8      -154.285 8        50.138 8  19910375.633 8  81529660.516 8      -120.340 8        50.226 8
G03  24013972.609 6 126194279.859 6      2843.371 6        37.427 6  24013990.953 7  98333266.818 7      2215.930 7        42.928 7
G07  20958363.383 7 110136940.249 7     -1964.127 7        47.213 7  20958377.160 8  85821050.181 8     -1530.631 8        50.226 8
G08  23066513.773 7 121215342.983 7     -2326.354 7        43.850 7  23066530.914 7  94453551.104 7     -1812.779 7        45.027 7
G14  21910751.160 7 115141774.830 7      2395.129 7        46.616 7  21910766.199 8  89720929.039 8      1866.281 8        49.504 8
G17  22639031.949 7 118968914.570 7      1475.344 7        44.989 7  22639047.246 8  92703119.399 8      1149.621 8        50.226 8
G21  21803750.887 7 114579483.708 7     -2593.307 7        47.639 7  21803763.664 8  89282769.864 8     -2020.689 8        50.092 8
G30  21153593.707 8 111162883.232 8      -226.822 8        48.706 8  21153610.207 8  86620496.437 8      -176.785 8        50.226 8
R09  22769076.680 7 121585584.271 7     -3849.217 7        46.870 7  22769083.840 7  94566592.428 7     -2993.980 7        45.182 7
R10  19619462.891 8 104582772.434 8     -1490.230 8        52.120 8                                                                
R11  20144188.066 9 107644436.310 9      2624.822 9        55.191 9  20144190.934 8  83723469.997 8      2041.613 8        51.062 8
R20  21325574.508 6 114037425.914 6     -3343.789 6        40.103 6  21325581.813 7  88695804.628 7     -2601.051 7        47.280 7
R21  19663909.625 9 105225551.186 9       322.166 9        55.100 9  19663911.773 8  81842119.005 8       250.775 8        50.913 8
C01  37564557.254 7 195608509.224 7        29.100 7        44.012 7  37564565.160 7 151256937.714 7        22.191 7        45.456 7  37564574.254 7 158948007.426 7        23.510 7        43.366 7
C02  37769001.945 6 196673108.234 6        23.006 6        41.438 6  37769007.777 7 152080140.094 7        17.719 7        45.235 7  37769017.152 7 159813072.53917        18.744 7        42.728 7
C03  37025410.324 7 192801031.229 7        51.482 7        45.519 7  37025416.797 7 149086011.166 7        39.809 7        47.093 7  37025423.875 7 156666685.576 7        41.889 7        44.757 7
C04  38589839.387 6 200947424.341 6        22.889 6        39.788 6  38589846.504 7 155385320.594 7        18.012 7        43.739 7  38589854.875 7 163286303.211 7        18.529 7        42.304 7
C05  39465089.492 6 205505076.705 6        28.709 6        39.498 6  39465100.297 7 158909600.501 7        22.191 7        42.483 7  39465106.441 6 166989777.771 6        23.236 6        39.597 6
C06  39267242.590 6 204474830.244 6     -1809.240 6        40.356 6  39267252.641 7 158112946.443 7     -1399.527 7        43.199 7  39267257.297 6 166152612.956 6     -1470.531 6        41.687 6
C07  36294257.180 8 188993726.416 8       283.650 8        48.441 8  36294261.184 8 146141950.302 8       219.418 8        49.241 8  36294267.074 8 153572920.859 8       230.619 8        48.634 8
C08  38381710.504 7 199863640.555 7      1764.725 7        42.382 7  38381716.156 7 154547271.231 7      1364.027 7        44.651 7  38381721.570 7 162405626.855 7      1434.057 7        42.304 7
C09  38752014.582 7 201791904.074 7     -1792.932 7        42.868 7  38752025.098 7 156038337.801 7     -1386.891 7        44.772 7  38752027.359 6 163972505.507 6     -1456.723 6        40.273 6
C10  36718514.566 7 191202940.891 7       405.760 7        47.221 7  36718521.613 8 147850269.711 8       313.813 8        48.090 8  36718526.371 7 155368102.302 7       329.877 7        46.888 7
C11  24017908.996 7 125067549.514 7     -2457.598 7        45.785 7  24017917.152 7  96710197.108 7     -1900.270 7        46.768 7  24017922.633 7 101627688.475 7     -1996.625 7        47.395 7
C13  39093355.711 7 203569365.002 7      1636.912 7        42.798 7  39093371.523 7 157412810.565 7      1265.805 7        42.728 7  39093375.102 6 165416866.388 6      1329.877 6        40.895 6
C16  39580120.840 6 206104067.028 6     -1758.049 6        38.232 6  39580135.934 6 159372796.104 6     -1359.820 6        40.015 6  39580140.086 6 167476525.794 6     -1429.066 6        37.507 6
S37  36962964.613 7 194241687.547 7         3.059 7        42.775 7
> 2022 06 21 01 04 50.0000000  0 27       0.000000000000
G01  19910661.172 8 104631230.192 8      -162.268 8        50.020 8  19910676.484 8  81530891.239 8      -126.422 8        50.226 8
G03  24008562.402 6 126165849.375 6      2842.420 6        37.346 6  24008580.750 7  98311113.238 7      2215.375 7        43.665 7
G07  20962107.055 7 110156614.879 7     -1969.904 7        46.674 7  20962121.262 8  85836381.034 8     -1534.898 8        50.226 8
G08  23070941.281 7 121238612.748 7     -2326.975 7        42.382 7  23070959.410 7  94471683.379 7     -1813.531 7        43.636 7
G14  21906196.648 7 115117836.444 7      2393.357 7        46.749 7  21906211.027 8  89702275.756 8      1864.887 8        49.251 8
G17  22636228.023 7 118954179.782 7      1472.342 7        44.605 7  22636243.160 8  92691637.761 8      1147.328 8        50.226 8
G21  21808690.234 7 114605439.461 7     -2597.639 7        47.110 7  21808703.082 8  89302995.111 8     -2024.059 8        50.226 8
G30  21154032.387 7 111165189.906 7      -233.908 7        47.956 7  21154049.313 8  86622293.836 8      -181.969 8        50.226 8
R09  22776289.801 7 121624098.808 7     -3853.365 7        46.377 7  22776295.242 7  94596548.124 7     -2996.957 7        45.100 7
R10  19622264.898 8 104597718.881 8     -1498.504 8        52.020 8                                                                
R11  20139283.480 9 107618220.058 9      2618.803 9        54.925 9  20139284.195 8  83703079.563 8      2036.980 8        51.114 8
R20  21331828.980 6 114070880.473 6     -3346.078 6        40.059 6  21331838.004 7  88721824.842 7     -2603.107 7        46.693 7
R21  19663315.027 9 105222367.820 9       314.957 9        55.270 9  19663317.176 8  81839643.062 8       244.775 8        50.683 8
C01  37564503.266 7 195608226.343 7        28.166 7        43.923 7  37564511.387 7 151256718.964 7        21.729 7        45.195 7  37564519.836 7 158947777.577 7        22.459 7        43.366 7
C02  37768959.836 6 196672885.634 6        22.248 6        41.502 6  37768965.023 7 152079967.953 7        17.256 7        45.314 7  37768974.391 7 159812891.650 7        17.928 7        42.728 7
C03  37025312.262 7 192800521.966 7        50.764 7        45.519 7  37025318.988 7 149085617.367 7        39.150 7        47.145 7  37025326.102 7 156666271.752 7        41.482 7        44.946 7
C04  38589796.523 6 200947200.764 6        22.111 6        39.693 6  38589803.641 7 155385147.697 7        17.139 7        43.242 7  38589811.934 7 163286121.512 7        18.006 7        42.171 7
C05  39465035.184 6 205504796.582 6        27.639 6        39.134 6  39465046.203 7 158909383.877 7        21.475 7        42.144 7  39465052.664 6 166989550.130 6        22.615 6        39.971 6
C06  39270719.930 6 204492934.681 6     -1810.154 6        40.231 6  39270730.305 7 158126945.903 7     -1400.010 7        43.644 7  39270734.047 6 166167324.259 6     -1471.096 6        41.806 6
C07  36293713.316 8 188990893.611 8       283.420 8        48.548 8  36293717.320 8 146139759.796 8       219.170 8        49.294 8  36293723.055 8 153570618.980 8       230.076 8        48.658 8
C08  38378324.191 7 199846006.614 7      1763.400 7        42.407 7  38378330.453 7 154533635.551 7      1363.174 7        44.621 7  38378335.281 7 162391297.858 7      1432.537 7        42.304 7
C09  38755459.906 7 201809845.162 7     -1794.471 7        42.607 7  38755470.676 7 156052210.928 7     -1387.842 7        44.903 7  38755472.766 6 163987084.065 6     -1458.146 6        40.189 6
C10  36717735.711 7 191198886.253 7       405.666 7        47.119 7  36717742.793 7 147847134.419 7       313.643 7        47.913 7  36717747.797 7 155364807.589 7       329.471 7        46.712 7
C11  24022629.984 7 125092131.453 7     -2458.729 7        45.469 7  24022639.035 7  96729205.410 7     -1901.123 7        47.892 7  24022643.223 7 101647663.305 7     -1997.521 7        47.677 7
C13  39090214.371 7 203553007.419 7      1635.764 7        42.913 7  39090230.758 7 157400161.889 7      1264.600 7        42.680 7  39090233.941 6 165403574.498 6      1329.861 6        40.634 6
C16  39583496.516 6 206121648.175 6     -1758.592 6        37.885 6  39583512.004 6 159386390.890 6     -1359.346 6        39.597 6  39583516.289 6 167490811.818 6     -1428.518 6        37.885 6
S37  36962960.566 7 194241665.504 7         1.990 7        42.458 7
> 2022 06 21 01 05  0.0000000  0 27       0.000000000000
G01  19910976.785 8 104632887.699 8      -169.555 8        49.834 8  19910993.141 8  81532188.794 8      -131.891 8        50.226 8
G03  24003152.766 6 126137423.178 6      2843.258 6        37.507 6  24003171.711 7  98288962.967 7      2215.805 7        44.336 7
G07  20965862.023 7 110176343.341 7     -1975.141 7        47.145 7  20965875.832 8  85851753.865 8     -1539.352 8        50.226 8
G08  23075369.641 7 121261882.332 7     -2327.016 7        42.533 7  23075386.898 7  94489815.514 7     -1813.121 7        44.081 7
G14  21901644.129 7 115093912.349 7      2392.066 7        46.616 7  21901657.879 8  89683633.616 8      1863.988 8        49.314 8
G17  22633427.664 7 118939464.560 7      1470.621 7        44.134 7  22633443.063 8  92680171.359 8      1145.668 8        50.226 8
G21  21813636.156 7 114631429.512 7     -2600.688 7        47.179 7  21813648.863 8  89323247.083 8     -2026.441 8        50.125 8
G30  21154483.648 7 111167561.268 7      -240.063 7        47.491 7  21154500.520 8  86624141.659 8      -187.262 8        50.226 8
R09  22783506.637 7 121662645.170 7     -3855.715 7        46.356 7  22783513.082 7  94626528.560 7     -2999.107 7        45.031 7
R10  19625083.656 8 104612738.927 8     -1505.559 8        52.128 8                                                                
R11  20134386.906 9 107592056.280 9      2613.992 9        54.937 9  20134388.910 8  83682729.952 8      2033.031 8        50.949 8
R20  21338092.035 6 114104354.379 6     -3348.703 6        39.346 6  21338096.762 7  88747860.043 7     -2604.691 7        46.915 7
R21  19662730.738 9 105219248.924 9       308.816 9        55.715 9  19662737.469 8  81837217.260 8       240.047 8        51.158 8
C01  37564448.305 7 195607943.256 7        28.402 7        43.923 7  37564456.641 7 151256500.066 7        22.104 7        45.248 7  37564465.648 7 158947547.532 7        22.824 7        43.507 7
C02  37768916.254 6 196672662.621 6        21.957 6        41.309 6  37768922.191 7 152079795.488 7        17.221 7        45.248 7  37768931.543 7 159812710.419 7        18.234 7        43.070 7
C03  37025214.270 7 192800012.391 7        50.941 7        45.556 7  37025221.352 7 149085223.322 7        39.311 7        47.296 7  37025227.949 7 156665857.681 7        41.535 7        44.772 7
C04  38589753.297 6 200946977.095 6        22.816 6        39.788 6  38589761.094 7 155384974.754 7        17.338 7        44.100 7  38589769.000 7 163285939.790 7        18.000 7        42.607 7
C05  39464981.367 6 205504515.985 6        27.992 6        38.795 6  39464992.172 7 158909166.896 7        21.811 7        42.583 7  39464998.734 6 166989322.135 6        22.727 6        39.971 6
C06  39274196.336 6 204511036.274 6     -1810.016 6        40.634 6  39274206.316 7 158140943.158 7     -1399.244 7        43.795 7  39274210.316 7 166182033.268 7     -1471.082 7        42.006 7
C07  36293168.801 8 188988057.482 8       284.047 8        48.548 8  36293172.844 8 146137566.715 8       219.486 8        49.315 8  36293178.254 8 153568314.384 8       230.539 8        48.706 8
C08  38374939.266 7 199828380.807 7      1762.504 7        42.458 7  38374945.313 7 154520006.168 7      1362.885 7        44.417 7  38374950.293 7 162376975.453 7      1431.652 7        42.304 7
C09  38758905.621 7 201827788.936 7     -1794.645 7        42.356 7  38758916.461 7 156066086.098 7     -1387.584 7        45.017 7  38758918.699 6 164001664.781 6     -1458.074 6        40.273 6
C10  36716956.063 7 191194826.584 7       405.824 7        47.040 7  36716963.434 8 147843995.224 8       313.900 8        48.020 8  36716967.961 7 155361508.769 7       330.207 7        46.587 7
C11  24027350.539 7 125116717.027 7     -2458.336 7        44.831 7  24027361.055 8  96748216.521 8     -1901.236 8        49.172 8  24027364.406 7 101667641.119 7     -1998.172 7        47.767 7
C13  39087074.887 7 203536655.096 7      1635.102 7        42.981 7  39087090.055 7 157387517.239 7      1264.564 7        42.798 7  39087093.281 6 165390286.907 6      1328.762 6        40.672 6
C16  39586871.504 6 206139224.676 6     -1757.691 6        37.737 6  39586887.492 6 159399982.081 6     -1358.697 6        39.645 6  39586891.715 6 167505094.125 6     -1427.996 6        37.885 6
S37  36962956.227 6 194241643.228 6         2.340 6        41.921 6
> 2022 06 21 01 05 10.0000000  0 27       0.000000000000
G01  19911305.988 8 104634616.989 8      -176.090 8        50.319 8  19911321.984 8  81533535.299 8      -137.354 8        50.226 8
G03  23997744.125 6 126109001.650 6      2842.270 6        38.232 6  23997763.145 7  98266816.344 7      2215.068 7        45.134 7
G07  20969626.148 7 110196125.851 7     -1980.348 7        46.978 7  20969640.242 8  85867168.783 8     -1543.213 8        50.226 8
G08  23079798.285 7 121285151.909 7     -2326.578 7        43.092 7  23079815.141 7  94507947.613 7     -1812.666 7        44.729 7
G14  21897094.184 7 115070002.787 7      2390.668 7        46.438 7  21897108.277 8  89665002.784 8      1862.803 8        49.405 8
G17  22630631.742 7 118924769.072 7      1468.969 7        44.801 7  22630646.766 8  92668720.362 8      1144.385 8        50.226 8
G21  21818587.660 7 114657453.851 7     -2603.727 7        46.796 7  21818600.969 8  89343525.797 8     -2028.955 8        49.946 8
G30  21154946.785 7 111169997.513 7      -246.383 7        47.467 7  21154963.785 8  86626040.019 8      -191.943 8        50.226 8
R09  22790733.781 7 121701223.457 7     -3858.965 7        47.608 7  22790736.930 7  94656533.849 7     -3001.451 7        43.977 7
R10  19627916.301 8 104627832.910 8     -1512.477 8        51.907 8                                                                
R11  20129500.781 9 107565945.338 9      2609.180 9        55.592 9  20129503.074 8  83662421.453 8      2029.125 8        51.117 8
R20  21344354.941 6 114137847.641 6     -3349.533 6        40.103 6  21344362.102 7  88773910.337 7     -2605.631 7        47.296 7
R21  19662160.766 9 105216194.605 9       302.633 9        55.486 9  19662164.633 8  81834841.681 8       235.316 8        50.999 8
C01  37564394.633 7 195607660.116 7        28.625 7        44.202 7  37564402.715 7 151256281.124 7        22.195 7        45.431 7  37564411.328 7 158947317.465 7        23.260 7        43.407 7
C02  37768873.023 6 196672439.341 6        22.609 6        41.656 6  37768879.355 7 152079622.852 7        17.566 7        45.072 7  37768888.930 7 159812528.991 7        18.436 7        42.821 7
C03  37025116.129 7 192799502.694 7        51.184 7        45.568 7  37025123.391 7 149084829.181 7        39.871 7        47.378 7  37025130.121 7 156665443.498 7        41.893 7        44.903 7
C04  38589710.246 6 200946753.569 6        22.707 6        39.971 6  38589717.867 7 155384801.886 7        17.605 7        43.427 7  38589725.945 7 163285758.133 7        18.494 7        42.382 7
C05  39464927.051 6 205504235.157 6        28.742 6        39.241 6  39464938.641 7 158908949.729 7        21.980 7        43.113 7  39464944.871 6 166989093.942 6        23.006 6        40.315 6
C06  39277672.023 6 204529135.246 6     -1808.934 6        40.517 6  39277682.078 7 158154938.404 7     -1399.074 7        43.625 7  39277686.234 6 166196740.129 6     -1470.432 6        41.921 6
C07  36292623.465 8 188985218.113 8       284.406 8        48.658 8  36292627.328 8 146135371.127 8       219.969 8        49.068 8  36292633.023 8 153566007.159 8       231.053 8        48.842 8
C08  38371555.629 6 199810763.176 6      1761.965 6        41.921 6  38371561.996 7 154506383.103 7      1362.354 7        44.401 7  38371566.961 7 162362659.670 7      1431.990 7        42.304 7
C09  38762352.047 7 201845735.529 7     -1794.344 7        42.356 7  38762362.742 7 156079963.480 7     -1387.570 7        44.889 7  38762365.316 6 164016247.843 6     -1457.932 6        40.517 6
C10  36716175.340 7 191190762.027 7       407.473 7        47.119 7  36716182.207 7 147840852.248 7       314.656 7        47.737 7  36716187.629 7 155358205.993 7       330.760 7        46.606 7
C11  24032072.449 7 125141306.378 7     -2458.875 7        44.636 7  24032082.074 7  96767230.526 7     -1901.184 7        47.378 7  24032086.309 7 101687621.931 7     -1997.951 7        47.075 7
C13  39083935.043 7 203520308.023 7      1635.324 7        42.868 7  39083950.961 7 157374876.669 7      1264.131 7        42.382 7  39083953.879 6 165377003.585 6      1328.240 6        40.397 6
C16  39590246.133 6 206156796.662 6     -1756.238 6        37.263 6  39590261.801 6 159413569.800 6     -1357.121 6        39.241 6  39590266.371 6 167519372.792 6     -1427.150 6        37.956 6
S37  36962951.738 7 194241620.941 7         2.953 7        42.407 7
> 2022 06 21 01 05 20.0000000  0 27       0.000000000000
G01  19911648.695 8 104636418.806 8      -184.426 8        50.185 8  19911664.609 8  81534938.302 8      -143.408 8        50.226 8
G03  23992337.688 6 126080585.501 6      2840.164 6        38.911 6  23992355.371 7  98244673.945 7      2214.111 7        45.601 7
G07  20973401.344 7 110215962.977 7     -1987.180 7        47.101 7  20973414.754 8  85882626.261 8     -1548.311 8        50.226 8
G08  23084226.410 7 121308422.237 7     -2327.434 7        42.981 7  23084244.039 7  94526080.340 7     -1813.916 7        44.591 7
G14  21892546.867 7 115046108.529 7      2387.996 7        46.080 7  21892561.133 8  89646383.890 8      1860.713 8        49.318 8
G17  22627838.301 7 118910093.973 7      1465.828 7        43.887 7  22627854.016 8  92657285.226 8      1142.178 8        50.226 8
G21  21823547.227 7 114683513.105 7     -2608.586 7        46.693 7  21823559.707 8  89363831.699 8     -2032.842 8        49.959 8
G30  21155423.715 8 111172499.342 8      -254.074 8        48.041 8  21155439.598 8  86627989.483 8      -197.998 8        50.226 8
R09  22797962.984 7 121739834.474 7     -3863.074 7        46.547 7  22797972.148 7  94686564.606 7     -3005.223 7        42.913 7
R10  19630760.746 8 104643001.394 8     -1520.861 8        52.185 8                                                                
R11  20124624.309 9 107539888.271 9      2602.645 9        55.555 9  20124625.887 8  83642154.841 8      2024.063 8        51.464 8
R20  21350622.770 6 114171360.650 6     -3352.592 6        40.146 6  21350627.211 7  88799976.011 7     -2607.920 7        47.255 7
R21  19661602.879 9 105213205.631 9       295.141 9        55.127 9  19661606.457 8  81832516.922 8       229.373 8        51.406 8
C01  37564340.367 7 195607377.648 7        27.650 7        44.168 7  37564348.379 7 151256062.701 7        21.381 7        45.275 7  37564357.023 7 158947087.920 7        22.545 7        43.507 7
C02  37768830.742 6 196672216.574 6        21.361 6        41.406 6  37768836.500 7 152079450.580 7        16.811 7        45.154 7  37768846.039 7 159812347.973 7        17.350 7        43.048 7
C03  37025018.754 7 192798993.576 7        50.541 7        45.654 7  37025025.695 7 149084435.519 7        38.900 7        47.170 7  37025032.379 7 156665029.810 7        40.982 7        44.989 7
C04  38589668.035 6 200946530.837 6        21.869 6        39.645 6  38589675.512 7 155384629.668 7        16.635 7        43.795 7  38589683.176 7 163285577.154 7        17.486 7        42.171 7
C05  39464874.000 6 205503954.803 6        27.533 6        39.024 6  39464884.840 7 158908732.947 7        20.990 7        42.751 7  39464891.199 6 166988866.128 6        22.135 6        40.103 6
C06  39281146.906 6 204547232.271 6     -1809.889 6        40.517 6  39281157.637 7 158168932.125 7     -1399.537 7        43.527 7  39281161.832 7 166211445.404 7     -1470.834 7        42.062 7
C07  36292077.930 8 188982376.303 8       283.588 8        48.634 8  36292081.289 8 146133173.648 8       219.408 8        48.945 8  36292087.406 8 153563697.942 8       230.455 8        48.664 8
C08  38368173.297 6 199793154.686 6      1759.838 6        41.626 6  38368180.664 7 154492767.106 7      1360.717 7        44.651 7  38368185.730 7 162348351.345 7      1429.928 7        42.225 7
C09  38765799.023 7 201863685.631 7     -1795.592 7        42.632 7  38765809.648 7 156093843.627 7     -1388.580 7        44.605 7  38765812.641 6 164030833.757 6     -1459.193 6        40.595 6
C10  36715393.879 7 191186693.360 7       406.635 7        47.075 7  36715400.891 7 147837706.101 7       314.174 7        47.585 7  36715406.184 7 155354899.870 7       330.221 7        46.702 7
C11  24036794.664 7 125165900.113 7     -2460.104 7        44.335 7  24036804.574 7  96786247.961 7     -1901.979 7        47.305 7  24036809.188 7 101707606.349 7     -1998.725 7        47.023 7
C13  39080796.324 7 203503967.098 7      1633.334 7        42.607 7  39080812.922 7 157362240.839 7      1262.807 7        42.006 7  39080815.977 6 165363725.248 6      1327.291 6        40.517 6
C16  39593619.242 6 206174364.942 6     -1757.018 6        37.005 6  39593636.195 6 159427154.679 6     -1358.951 6        39.134 6  39593640.031 6 167533648.412 6     -1428.178 6        38.364 6
S37  36962947.449 7 194241599.392 7         1.492 7        42.251 7
> 2022 06 21 01 05 30.0000000  0 27       0.000000000000
G01  19912004.953 8 104638292.076 8      -191.189 8        49.834 8  19912021.125 8  81536398.005 8      -149.115 8        50.226 8
G03  23986931.063 6 126052173.869 6      2840.785 6        39.188 6  23986948.246 7  98222535.092 7      2213.795 7        45.899 7
G07  20977185.941 7 110235853.396 7     -1991.873 7        46.693 7  20977199.766 8  85898125.297 8     -1552.377 8        50.226 8
G08  23088654.352 7 121331692.104 7     -2326.912 7        43.003 7  23088672.164 7  94544212.679 7     -1813.432 7        44.736 7
G14  21888002.516 7 115022228.633 7      2387.074 7        45.568 7  21888016.797 8  89627776.182 8      1860.045 8        49.130 8
G17  22625049.402 7 118895438.237 7      1464.652 7        43.869 7  22625064.625 8  92645865.213 8      1140.826 8        50.226 8
G21  21828512.191 7 114709606.192 7     -2611.189 7        47.170 7  21828525.012 8  89384163.966 8     -2034.682 8        50.138 8
G30  21155911.902 7 111175065.691 7      -260.096 7        47.921 7  21155927.816 8  86629989.228 8      -202.689 8        50.226 8
R09  22805199.594 7 121778476.915 7     -3865.881 7        46.438 7  22805203.461 6  94716619.829 6     -3007.258 6        41.978 6
R10  19633618.039 8 104658243.126 8     -1527.980 8        52.265 8                                                                
R11  20119757.250 9 107513884.081 9      2597.516 9        55.278 9  20119761.117 8  83621929.386 8      2020.152 8        51.381 8
R20  21356892.566 6 114204892.407 6     -3354.521 6        39.741 6  21356899.441 7  88826056.218 7     -2608.785 7        47.819 7
R21  19661054.688 9 105210280.818 9       288.992 9        55.024 9  19661060.707 8  81830242.078 8       224.895 8        50.869 8
C01  37564285.914 7 195607094.880 7        27.875 7        44.134 7  37564293.715 7 151255844.042 7        21.516 7        45.456 7  37564302.785 7 158946858.162 7        22.498 7        43.547 7
C02  37768788.059 6 196671993.277 6        22.563 6        41.470 6  37768793.855 7 152079277.929 7        17.219 7        45.288 7  37768803.270 7 159812166.541 7        17.908 7        43.070 7
C03  37024920.770 7 192798484.067 7        50.844 7        45.556 7  37024927.816 7 149084041.521 7        39.523 7        47.221 7  37024934.621 7 156664615.794 7        41.111 7        44.932 7
C04  38589625.246 6 200946307.936 6        21.605 6        39.693 6  38589632.258 7 155384457.303 7        16.887 7        43.468 7  38589640.387 7 163285396.012 7        18.064 7        42.407 7
C05  39464819.480 6 205503673.988 6        27.992 6        39.134 6  39464830.961 7 158908515.788 7        21.125 7        42.959 7  39464837.137 6 166988637.924 6        22.205 6        40.059 6
C06  39284621.926 6 204565326.309 6     -1809.527 6        40.477 6  39284632.191 7 158182923.544 7     -1399.070 7        43.387 7  39284636.621 7 166226148.245 7     -1470.080 7        42.117 7
C07  36291531.563 8 188979531.084 8       284.555 8        48.766 8  36291534.855 8 146130973.545 8       219.836 8        48.905 8  36291540.977 8 153561385.969 8       231.033 8        48.754 8
C08  38364793.461 6 199775554.100 6      1760.277 6        41.864 6  38364801.258 7 154479157.237 7      1360.227 7        44.712 7  38364805.758 7 162334049.448 7      1429.627 7        42.304 7
C09  38769246.965 7 201881638.221 7     -1796.070 7        42.583 7  38769257.195 7 156107725.663 7     -1388.152 7        44.697 7  38769260.535 6 164045421.693 6     -1459.260 6        41.037 6
C10  36714611.664 7 191182619.561 7       407.309 7        47.127 7  36714618.602 7 147834555.980 7       315.051 7        47.662 7  36714623.797 7 155351589.585 7       330.857 7        46.616 7
C11  24041518.805 7 125190497.241 7     -2460.445 7        44.575 7  24041528.070 7  96805268.018 7     -1902.332 7        46.933 7  24041533.086 7 101727593.517 7     -1998.986 7        47.075 7
C13  39077659.492 7 203487631.339 7      1633.090 7        42.936 7  39077675.520 6 157349609.006 6      1262.531 6        41.564 6  39077678.602 6 165350451.104 6      1327.088 6        40.595 6
C16  39596991.879 6 206191928.451 6     -1756.305 6        36.824 6  39597008.762 6 159440735.832 6     -1358.680 6        38.795 6  39597013.121 6 167547920.117 6     -1426.916 6        38.364 6
S37  36962943.258 7 194241577.511 7         2.170 7        42.144 7
> 2022 06 21 01 05 40.0000000  0 27       0.000000000000
G01  19912375.063 8 104640236.942 8      -197.795 8        49.993 8  19912391.332 8  81537913.474 8      -154.055 8        50.226 8
G03  23981525.406 6 126023767.153 6      2840.857 6        39.134 6  23981542.348 7  98200399.991 7      2213.836 7        46.139 7
G07  20980981.672 7 110255797.286 7     -1996.623 7        47.213 7  20980995.379 8  85913665.960 8     -1555.578 8        50.226 8
G08  23093082.117 7 121354961.897 7     -2326.643 7        42.775 7  23093100.117 7  94562344.971 7     -1812.844 7        44.595 7
G14  21883460.707 7 114998363.319 7      2386.033 7        45.469 7  21883475.676 8  89609179.844 8      1859.324 8        49.045 8
G17  22622264.617 7 118880802.067 7      1463.299 7        44.117 7  22622278.973 8  92634460.392 8      1140.223 8        50.226 8
G21  21833484.707 7 114735733.195 7     -2613.908 7        47.812 7  21833497.000 8  89404522.664 8     -2036.867 8        50.058 8
G30  21156413.086 8 111177696.704 8      -265.861 8        48.523 8  21156428.594 8  86632039.360 8      -207.238 8        50.226 8
R09  22812441.758 7 121817150.869 7     -3868.688 7        46.616 7  22812447.773 7  94746699.513 7     -3008.965 7        42.508 7
R10  19636491.773 8 104673558.417 8     -1535.037 8        51.919 8                                                                
R11  20114901.902 9 107487933.226 9      2592.631 9        55.079 9  20114905.051 8  83601745.364 8      2016.566 8        51.747 8
R20  21363165.051 6 114238442.818 6     -3355.791 6        39.597 6  21363174.074 7  88852150.984 7     -2609.715 7        47.654 7
R21  19660520.648 9 105207420.373 9       283.010 9        54.855 9  19660525.090 8  81828017.291 8       219.977 8        50.409 8
C01  37564231.398 7 195606811.938 7        28.676 7        44.151 7  37564239.770 7 151255625.242 7        22.260 7        45.248 7  37564248.391 7 158946628.234 7        23.242 7        43.468 7
C02  37768745.348 6 196671769.686 6        22.641 6        41.276 6  37768750.930 7 152079105.029 7        17.318 7        45.235 7  37768760.379 7 159811984.841 7        18.145 7        42.959 7
C03  37024822.824 7 192797974.306 7        51.195 7        45.630 7  37024829.727 7 149083647.338 7        39.525 7        47.058 7  37024836.781 7 156664201.573 7        41.484 7        44.917 7
C04  38589582.465 6 200946084.983 6        22.621 6        40.103 6  38589589.691 7 155384284.882 7        17.924 7        43.567 7  38589597.582 7 163285214.853 7        18.613 7        42.330 7
C05  39464765.855 6 205503392.787 6        28.305 6        39.448 6  39464776.840 7 158908298.329 7        22.123 7        42.936 7  39464783.199 6 166988409.426 6        23.105 6        40.015 6
C06  39288095.484 6 204583417.517 6     -1808.609 6        40.397 6  39288106.645 7 158196912.790 7     -1398.873 7        43.284 7  39288111.125 7 166240848.803 7     -1469.529 7        42.117 7
C07  36290984.633 8 188976682.590 8       285.316 8        48.730 8  36290987.777 8 146128770.892 8       220.580 8        48.772 8  36290993.938 8 153559071.324 8       231.934 8        48.652 8
C08  38361414.273 6 199757961.763 6      1759.125 6        41.533 6  38361422.430 7 154465553.707 7      1360.111 7        44.512 7  38361427.383 7 162319754.190 7      1429.824 7        42.632 7
C09  38772694.945 7 201899593.353 7     -1795.660 7        42.278 7  38772705.352 7 156121609.678 7     -1387.799 7        44.727 7  38772709.016 6 164060011.687 6     -1459.314 6        41.175 6
C10  36713828.629 7 191178540.843 7       408.637 7        47.255 7  36713835.500 7 147831402.064 7       315.775 7        47.546 7  36713840.598 7 155348275.278 7       332.188 7        46.616 7
C11  24046243.199 7 125215097.817 7     -2460.191 7        44.786 7  24046252.359 7  96824290.719 7     -1902.193 7        47.067 7  24046257.645 7 101747583.482 7     -1998.807 7        46.924 7
C13  39074523.242 7 203471300.905 7      1633.109 7        42.704 7  39074538.625 6 157336981.267 6      1263.178 6        41.342 6  39074542.594 6 165337181.277 6      1327.168 6        40.748 6
C16  39600364.590 6 206209487.282 6     -1755.504 6        37.346 6  39600381.406 6 159454313.349 6     -1357.135 6        39.079 6  39600385.117 6 167562188.084 6     -1426.893 6        38.554 6
S37  36962939.609 7 194241555.539 7         2.283 7        42.356 7
> 2022 06 21 01 05 50.0000000  0 27       0.000000000000
G01  19912759.129 8 104642253.341 8      -205.498 8        50.265 8  19912775.055 8  81539485.686 8      -160.127 8        50.226 8
G03  23976120.547 6 125995365.336 6      2839.385 6        39.241 6  23976137.805 7  98178268.706 7      2212.236 7        46.446 7
G07  20984786.207 7 110275794.514 7     -2002.313 7        47.145 7  20984800.805 8  85929248.204 8     -1560.398 8        50.226 8
G08  23097510.820 7 121378231.444 7     -2326.824 7        44.100 7  23097527.988 7  94580477.067 7     -1813.152 7        45.124 7
G14  21878922.410 7 114974512.636 7      2384.248 7        45.958 7  21878937.051 8  89590594.917 8      1857.861 8        48.991 8
G17  22619482.918 7 118866185.348 7      1460.107 7        44.496 7  22619497.445 8  92623070.760 8      1137.822 8        50.226 8
G21  21838462.883 7 114761893.986 7     -2617.879 7        47.677 7  21838475.520 8  89424907.699 8     -2039.891 8        50.226 8
G30  21156925.074 7 111180392.362 7      -273.037 7        47.752 7  21156941.961 8  86634139.874 8      -212.803 8        50.226 8
R09  22819690.160 7 121855856.225 7     -3871.932 7        46.996 7  22819694.887 6  94776803.622 6     -3011.328 6        41.747 6
R10  19639378.906 8 104688947.368 8     -1542.789 8        51.711 8                                                                
R11  20110054.797 9 107462035.578 9      2586.770 9        55.208 9  20110058.379 8  83581602.754 8      2011.936 8        51.508 8
R20  21369444.059 6 114272011.852 6     -3357.242 6        39.971 6  21369451.508 7  88878260.227 7     -2611.594 7        47.419 7
R21  19659999.008 9 105204624.195 9       276.148 9        54.987 9  19660002.730 8  81825842.483 8       214.582 8        50.931 8
C01  37564176.922 7 195606528.777 7        28.512 7        44.335 7  37564185.188 7 151255406.280 7        22.270 7        45.581 7  37564193.930 7 158946398.158 7        22.918 7        43.527 7
C02  37768702.070 6 196671545.671 6        22.125 6        41.374 6  37768707.723 7 152078931.783 7        17.133 7        45.182 7  37768717.281 7 159811802.796 7        17.859 7        42.845 7
C03  37024724.707 7 192797464.275 7        50.719 7        45.617 7  37024731.859 7 149083252.952 7        39.203 7        47.170 7  37024739.008 7 156663787.119 7        41.316 7        44.917 7
C04  38589539.508 6 200945861.962 6        22.047 6        39.693 6  38589546.629 7 155384112.456 7        16.469 7        43.720 7  38589554.797 7 163285033.633 7        18.035 7        42.090 7
C05  39464711.598 6 205503111.195 6        27.984 6        39.241 6  39464722.723 7 158908080.585 7        21.508 7        42.607 7  39464729.004 6 166988180.577 6        23.016 6        39.926 6
C06  39291569.191 6 204601505.815 6     -1809.066 6        40.595 6  39291580.102 7 158210899.764 7     -1399.000 7        43.387 7  39291584.707 7 166255547.004 7     -1469.953 7        42.251 7
C07  36290437.168 8 188973830.771 8       285.152 8        48.730 8  36290440.496 8 146126565.676 8       220.473 8        48.968 8  36290446.313 8 153556753.979 8       231.883 8        48.688 8
C08  38358037.672 6 199740377.590 6      1757.535 6        41.595 6  38358045.004 7 154451956.511 7      1359.223 7        44.481 7  38358050.598 7 162305465.637 7      1428.445 7        42.656 7
C09  38776142.785 6 201917551.026 6     -1796.684 6        41.893 6  38776153.660 7 156135495.660 7     -1388.980 7        44.860 7  38776157.949 6 164074603.729 6     -1459.641 6        41.502 6
C10  36713044.602 7 191174457.137 7       408.355 7        47.204 7  36713051.363 7 147828244.274 7       315.746 7        47.855 7  36713056.348 7 155344956.948 7       331.648 7        46.606 7
C11  24050968.426 7 125239701.759 7     -2460.824 7        45.017 7  24050977.906 7  96843316.039 7     -1902.885 7        47.775 7  24050982.504 7 101767576.192 7     -1999.602 7        47.005 7
C13  39071388.070 7 203454975.741 7      1632.477 7        42.508 7  39071402.773 6 157324357.664 6      1261.703 6        40.895 6  39071407.465 6 165323915.781 6      1326.004 6        40.672 6
C16  39603735.309 6 206227041.378 6     -1754.848 6        37.093 6  39603752.551 6 159467887.242 6     -1356.734 6        39.241 6  39603756.398 6 167576452.181 6     -1427.063 6        38.554 6
S37  36962935.184 7 194241533.355 7         2.158 7        42.251 7
> 2022 06 21 01 06  0.0000000  0 27       0.000000000000
G01  19913156.273 8 104644341.548 8      -212.033 8        50.364 8  19913172.402 8  81541111.851 8      -165.182 8        50.226 8
G03  23970715.887 6 125966968.805 6      2839.393 6        39.597 6  23970735.004 7  98156141.559 7      2213.959 7        47.050 7
G07  20988601.961 7 110295845.362 7     -2007.268 7        47.170 7  20988616.113 8  85944872.223 8     -1564.303 8        50.226 8
G08  23101939.434 7 121401500.888 7     -2326.584 7        44.465 7  23101956.762 7  94598609.114 7     -1813.111 7        45.524 7
G14  21874386.461 7 114950676.975 7      2382.771 7        46.188 7  21874401.059 8  89572021.698 8      1856.674 8        48.810 8
G17  22616705.141 7 118851588.255 7      1459.021 7        44.590 7  22616720.180 8  92611696.445 8      1136.537 8        50.226 8
G21  21843447.125 7 114788088.740 7     -2620.842 7        47.346 7  21843460.250 8  89445319.181 8     -2042.232 8        50.226 8
G30  21157450.430 8 111183152.960 8      -278.889 8        48.158 8  21157467.742 8  86636290.977 8      -217.525 8        50.226 8
R09  22826943.922 7 121894593.278 7     -3874.816 7        47.451 7  22826948.078 6  94806932.388 6     -3013.955 6        40.785 6
R10  19642279.277 8 104704410.222 8     -1549.645 8        51.315 8                                                                
R11  20105220.070 9 107436191.735 9      2582.189 9        55.292 9  20105220.211 8  83561502.002 8      2008.258 8        51.611 8
R20  21375723.129 6 114305599.686 6     -3359.420 6        40.315 6  21375731.578 7  88904384.060 7     -2612.889 7        47.435 7
R21  19659487.020 9 105201892.494 9       270.301 9        55.129 9  19659493.465 8  81823717.815 8       210.262 8        50.800 8
C01  37564123.043 7 195606245.729 7        29.371 7        44.151 7  37564131.129 7 151255187.437 7        21.828 7        45.617 7  37564139.699 7 158946168.164 7        23.242 7        43.346 7
C02  37768659.031 6 196671321.557 6        22.516 6        41.438 6  37768664.859 7 152078758.474 7        17.570 7        45.379 7  37768674.289 7 159811620.680 7        18.457 7        42.751 7
C03  37024627.219 7 192796954.251 7        51.109 7        45.617 7  37024634.156 7 149082858.554 7        39.855 7        47.305 7  37024640.848 7 156663372.686 7        41.738 7        44.667 7
C04  38589496.215 6 200945639.203 6        22.711 6        39.498 6  38589503.801 7 155383940.167 7        17.551 7        43.758 7  38589512.000 6 163284852.605 6        18.301 6        41.978 6
C05  39464657.965 6 205502829.512 6        28.434 6        39.188 6  39464668.410 7 158907862.760 7        22.180 7        42.913 7  39464674.965 6 166987951.712 6        23.027 6        40.059 6
C06  39295042.523 6 204619591.492 6     -1807.621 6        40.931 6  39295053.148 7 158224884.730 7     -1398.523 7        43.663 7  39295058.016 7 166270243.063 7     -1468.574 7        42.304 7
C07  36289888.906 8 188970975.998 8       285.973 8        48.736 8  36289892.305 8 146124358.188 8       220.988 8        49.252 8  36289898.129 8 153554434.249 8       232.461 8        48.736 8
C08  38354662.734 6 199722801.962 6      1757.672 6        41.950 6  38354669.711 7 154438365.942 7      1358.859 7        44.449 7  38354675.711 7 162291184.023 7      1428.066 7        42.458 7
C09  38779592.047 6 201935511.515 6     -1795.570 6        41.835 6  38779603.027 7 156149383.854 7     -1388.816 7        44.845 7  38779607.137 6 164089198.083 6     -1458.965 6        41.242 6
C10  36712259.590 7 191170368.782 7       409.527 7        47.246 7  36712266.387 7 147825082.909 7       316.535 7        47.935 7  36712271.273 7 155341634.816 7       332.715 7        46.468 7
C11  24055694.746 7 125264309.342 7     -2460.453 7        45.568 7  24055704.152 8  96862344.179 8     -1902.820 8        48.069 8  24055708.258 7 101787571.870 7     -1999.141 7        46.749 7
C13  39068253.992 7 203438656.273 7      1631.871 7        42.483 7  39068268.980 6 157311738.425 6      1261.633 6        41.175 6  39068273.637 6 165310654.887 6      1325.664 6        40.477 6
C16  39607106.902 6 206244591.081 6     -1754.672 6        36.824 6  39607123.359 6 159481457.735 6     -1356.238 6        39.597 6  39607126.559 6 167590712.650 6     -1424.785 6        38.027 6
S37  36962931.383 7 194241511.304 7         2.908 7        42.433 7
> 2022 06 21 01 06 10.0000000  0 27       0.000000000000
G01  19913567.727 8 104646501.550 8      -219.512 8        50.638 8  19913583.438 8  81542795.964 8      -171.051 8        50.226 8
G03  23965314.230 6 125938577.755 6      2838.711 6        40.315 6  23965332.773 7  98134018.731 7      2212.133 7        47.204 7
G07  20992427.875 7 110315949.798 7     -2013.145 7        47.338 7  20992441.152 8  85960537.980 8     -1568.590 8        50.226 8
G08  23106366.762 7 121424770.388 7     -2327.285 7        43.488 7  23106384.934 7  94616741.152 7     -1813.180 7        45.403 7
G14  21869853.516 7 114926856.361 7      2381.406 7        46.014 7  21869868.055 8  89553460.195 8      1855.590 8        48.662 8
G17  22613931.512 7 118837010.851 7      1456.855 7        44.401 7  22613946.535 8  92600337.458 8      1135.063 8        50.226 8
G21  21848438.379 7 114814317.410 7     -2624.473 7        47.623 7  21848451.516 8  89465757.103 8     -2045.172 8        50.226 8
G30  21157988.660 8 111185978.468 8      -286.016 8        48.504 8  21158005.219 8  86638492.656 8      -222.809 8        50.226 8
R09  22834204.555 7 121933361.696 7     -3878.260 7        47.145 7  22834209.426 6  94837085.585 6     -3017.303 6        39.024 6
R10  19645197.117 8 104719946.743 8     -1557.186 8        51.732 8                                                                
R11  20100392.641 9 107410401.812 9      2576.205 9        55.017 9  20100397.367 8  83541443.176 8      2003.990 8        51.348 8
R20  21382009.641 6 114339206.218 6     -3362.084 6        40.634 6  21382017.090 7  88930522.452 7     -2614.480 7        47.246 7
R21  19658989.781 9 105199225.182 9       263.514 9        55.208 9  19658992.500 8  81821643.243 8       205.152 8        50.934 8
C01  37564068.586 7 195605962.828 7        28.510 7        44.065 7  37564076.422 7 151254968.666 7        22.311 7        45.379 7  37564085.152 7 158945938.254 7        23.150 7        43.448 7
C02  37768616.238 6 196671097.357 6        22.553 6        41.595 6  37768621.602 7 152078585.120 7        17.506 7        45.288 7  37768631.211 7 159811438.518 7        18.268 7        42.680 7
C03  37024529.227 7 192796444.286 7        51.029 7        45.702 7  37024536.273 7 149082464.229 7        39.518 7        47.170 7  37024543.051 7 156662958.289 7        41.646 7        44.757 7
C04  38589453.926 6 200945416.687 6        22.201 6        40.103 6  38589461.438 7 155383768.128 7        16.803 7        43.663 7  38589469.215 7 163284671.803 7        18.307 7        42.198 7
C05  39464603.402 6 205502547.776 6        28.275 6        39.294 6  39464614.352 7 158907644.897 7        21.705 7        42.607 7  39464620.773 6 166987722.761 6        22.877 6        39.788 6
C06  39298515.574 6 204637674.564 6     -1807.857 6        41.406 6  39298525.695 7 158238867.659 7     -1398.334 7        43.135 7  39298530.953 7 166284937.005 7     -1468.900 7        42.117 7
C07  36289339.676 8 188968118.258 8       285.658 8        48.603 8  36289343.539 8 146122148.385 8       221.061 8        49.538 8  36289349.367 8 153552112.090 8       232.330 8        48.560 8
C08  38351290.156 7 199705234.855 7      1756.166 7        42.278 7  38351296.094 7 154424781.932 7      1358.014 7        44.048 7  38351302.125 7 162276909.310 7      1427.213 7        42.751 7
C09  38783041.699 6 201953474.865 6     -1796.412 6        41.978 6  38783052.609 7 156163274.236 7     -1388.568 7        44.786 7  38783057.086 6 164103794.771 6     -1460.053 6        41.502 6
C10  36711473.613 7 191166275.811 7       409.467 7        47.321 7  36711480.484 8 147821917.949 8       316.822 8        48.027 8  36711485.250 7 155338308.922 7       333.131 7        46.498 7
C11  24060421.348 7 125288920.595 7     -2461.061 7        46.377 7  24060429.828 7  96881375.127 7     -1902.924 7        47.110 7  24060434.699 7 101807570.517 7     -1999.818 7        46.833 7
C13  39065121.164 7 203422342.392 7      1631.146 7        42.583 7  39065135.973 6 157299123.481 6      1260.846 6        41.438 6  39065140.695 6 165297398.512 6      1325.709 6        40.634 6
C16  39610477.246 6 206262136.304 6     -1754.068 6        37.093 6  39610492.773 6 159495024.763 6     -1356.557 6        39.880 6  39610496.328 6 167604969.579 6     -1425.541 6        38.364 6
S37  36962926.582 7 194241489.429 7         2.109 7        42.607 7
> 2022 06 21 01 06 20.0000000  0 27       0.000000000000
G01  19913992.195 8 104648733.043 8      -227.100 8        50.331 8  19914008.020 8  81544533.785 8      -176.840 8        50.226 8
G03  23959912.566 6 125910192.005 6      2837.979 6        40.556 6  23959930.652 7  98111899.982 7      2211.520 7        47.716 7
G07  20996263.797 7 110336107.436 7     -2018.643 7        46.969 7  20996276.703 8  85976245.229 8     -1572.934 8        50.226 8
G08  23110794.656 7 121448039.671 7     -2327.236 7        43.995 7  23110812.871 7  94634873.044 7     -1813.246 7        45.632 7
G14  21865323.570 7 114903050.649 7      2380.459 7        45.855 7  21865338.121 8  89534910.299 8      1854.977 8        48.745 8
G17  22611160.734 7 118822452.862 7      1454.678 7        43.777 7  22611176.633 8  92588993.573 8      1133.512 8        50.226 8
G21  21853436.352 7 114840579.602 7     -2628.291 7        47.877 7  21853448.645 8  89486221.132 8     -2047.875 8        50.226 8
G30  21158538.621 8 111188868.615 8      -292.627 8        48.377 8  21158554.805 8  86640744.710 8      -227.895 8        50.226 8
R09  22841471.199 7 121972161.338 7     -3881.670 7        46.407 7  22841473.348 6  94867263.014 6     -3018.986 6        39.880 6
R10  19648125.410 8 104735556.989 8     -1564.988 8        52.037 8                                                                
R11  20095575.668 9 107384665.720 9      2570.586 9        55.489 9  20095578.820 8  83521426.243 8      1999.203 8        50.931 8
R20  21388301.020 6 114372831.189 6     -3363.777 6        40.397 6  21388305.746 7  88956675.196 7     -2616.145 7        46.897 7
R21  19658504.570 9 105196621.996 9       256.779 9        55.309 9  19658507.863 8  81819618.550 8       199.797 8        51.037 8
C01  37564013.914 7 195605679.777 7        27.926 7        44.117 7  37564022.426 7 151254749.781 7        21.793 7        45.288 7  37564030.855 7 158945708.261 7        22.561 7        43.407 7
C02  37768572.973 6 196670872.849 6        22.398 6        41.564 6  37768578.375 7 152078411.523 7        17.086 7        45.275 7  37768588.191 7 159811256.081 7        17.775 7        42.607 7
C03  37024431.125 7 192795934.081 7        50.738 7        45.654 7  37024438.242 7 149082069.708 7        39.176 7        47.229 7  37024444.891 7 156662543.710 7        41.330 7        44.667 7
C04  38589411.375 6 200945194.183 6        21.656 6        40.103 6  38589418.746 7 155383596.037 7        17.008 7        43.701 7  38589426.617 7 163284490.973 7        17.736 7        42.090 7
C05  39464549.836 6 205502265.688 6        28.199 6        39.079 6  39464560.070 7 158907426.764 7        21.480 7        42.632 7  39464566.527 6 166987493.523 6        22.912 6        39.645 6
C06  39301987.578 6 204655754.698 6     -1807.855 6        41.564 6  39301997.773 7 158252848.334 7     -1397.992 7        43.003 7  39302003.086 7 166299628.598 7     -1469.568 7        42.144 7
C07  36288790.188 8 188965257.270 8       285.934 8        48.597 8  36288794.410 8 146119936.096 8       221.129 8        49.215 8  36288799.875 8 153549787.303 8       232.385 8        48.634 8
C08  38347918.719 7 199687676.074 7      1755.133 7        42.144 7  38347924.621 7 154411204.370 7      1357.848 7        44.496 7  38347930.129 7 162262641.370 7      1426.525 7        42.607 7
C09  38786491.559 6 201971440.817 6     -1797.621 6        41.175 6  38786502.969 7 156177166.641 7     -1389.379 7        43.507 7  38786506.875 6 164118393.555 6     -1460.232 6        40.103 6
C10  36710686.633 7 191162177.930 7       409.781 7        47.329 7  36710693.430 7 147818749.221 7       316.559 7        47.797 7  36710698.363 7 155334979.061 7       333.107 7        46.557 7
C11  24065148.055 7 125313535.119 7     -2461.957 7        45.820 7  24065156.426 7  96900408.647 7     -1903.949 7        47.288 7  24065161.691 7 101827571.824 7     -2000.428 7        47.031 7
C13  39061989.406 7 203406033.982 7      1629.938 7        42.558 7  39062004.715 6 157286512.778 6      1260.563 6        41.141 6  39062008.996 6 165284146.604 6      1325.373 6        40.710 6
C16  39613844.828 6 206279676.824 6     -1753.383 6        36.915 6  39613861.680 6 159508588.143 6     -1356.137 6        38.968 6  39613864.492 6 167619222.650 6     -1425.135 6        37.885 6
S37  36962921.773 7 194241467.426 7         2.041 7        42.407 7
> 2022 06 21 01 06 30.0000000  0 27       0.000000000000
G01  19914429.941 8 104651035.872 8      -233.553 8        49.746 8  19914446.297 8  81546329.197 8      -182.029 8        50.226 8
G03  23954511.734 6 125881811.603 6      2836.779 6        40.059 6  23954529.879 7  98089785.414 7      2210.217 7        47.854 7
G07  21000109.852 7 110356318.053 7     -2023.494 7        46.842 7  21000123.199 8  85991993.755 8     -1576.893 8        50.226 8
G08  23115222.949 7 121471308.531 7     -2326.424 7        43.527 7  23115240.395 7  94653004.629 7     -1813.104 7        45.473 7
G14  21860796.598 7 114879259.796 7      2378.811 7        45.750 7  21860810.594 8  89516371.973 8      1853.537 8        48.841 8
G17  22608394.367 7 118807914.136 7      1453.205 7        43.720 7  22608410.109 8  92577664.715 8      1132.092 8        50.226 8
G21  21858440.160 7 114866875.066 7     -2630.467 7        47.797 7  21858452.094 8  89506711.109 8     -2049.744 8        49.971 8
G30  21159100.574 7 111191823.234 7      -298.357 7        47.715 7  21159116.672 8  86643047.016 8      -232.654 8        50.226 8
R09  22848742.539 7 122010991.832 7     -3884.242 7        45.431 7  22848743.828 6  94897464.502 6     -3022.006 6        40.231 6
R10  19651067.422 8 104751240.469 8     -1571.678 8        51.773 8                                                                
R11  20090771.266 9 107358983.380 9      2565.729 9        55.443 9  20090773.129 8  83501451.089 8      1995.557 8        50.680 8
R20  21394588.641 6 114406474.166 6     -3364.613 6        39.741 6  21394597.094 7  88982841.936 7     -2617.115 7        46.387 7
R21  19658028.637 9 105194082.713 9       250.904 9        55.190 9  19658034.223 8  81817643.551 8       194.996 8        50.974 8
C01  37563959.602 7 195605396.449 7        28.771 7        44.134 7  37563967.652 7 151254530.699 7        21.855 7        45.481 7  37563976.523 7 158945478.015 7        23.348 7        43.488 7
C02  37768529.289 6 196670647.917 6        22.600 6        41.564 6  37768535.582 7 152078237.586 7        17.676 7        45.581 7  37768544.668 7 159811073.298 7        18.445 7        42.632 7
C03  37024333.098 7 192795423.544 7        51.330 7        45.519 7  37024339.934 7 149081674.909 7        39.688 7        47.263 7  37024346.863 7 156662128.842 7        41.590 7        44.697 7
C04  38589368.906 6 200944971.476 6        22.385 6        39.834 6  38589376.242 7 155383423.853 7        17.207 7        43.720 7  38589383.805 7 163284310.029 7        18.230 7        42.251 7
C05  39464495.207 6 205501983.156 6        28.303 6        39.241 6  39464505.902 7 158907208.263 7        21.973 7        42.913 7  39464512.477 6 166987263.919 6        23.250 6        39.880 6
C06  39305458.980 6 204673831.799 6     -1807.928 6        41.776 6  39305469.391 7 158266826.658 7     -1397.930 7        42.607 7  39305474.633 7 166314317.667 7     -1468.723 7        42.171 7
C07  36288240.207 8 188962393.012 8       286.955 8        48.591 8  36288244.355 8 146117721.260 8       221.855 8        49.346 8  36288249.836 8 153547459.872 8       232.918 8        48.529 8
C08  38344547.500 7 199670125.559 7      1754.494 7        42.508 7  38344554.582 7 154397633.211 7      1357.012 7        44.401 7  38344559.492 7 162248380.152 7      1425.906 7        42.483 7
C09  38789942.535 7 201989409.193 7     -1796.971 7        42.006 7  38789953.660 7 156191061.042 7     -1389.453 7        45.222 7  38789957.289 6 164132994.414 6     -1459.523 6        41.595 6
C10  36709898.582 7 191158075.012 7       410.861 7        47.196 7  36709905.664 7 147815576.573 7       317.500 7        47.855 7  36709910.480 7 155331645.101 7       334.031 7        46.528 7
C11  24069876.020 7 125338152.729 7     -2461.678 7        46.304 7  24069884.281 7  96919444.509 7     -1903.477 7        47.646 7  24069889.160 7 101847575.625 7     -2000.383 7        46.842 7
C13  39058858.188 7 203389730.893 7      1630.393 7        42.433 7  39058873.355 6 157273906.229 6      1260.332 6        40.895 6  39058878.336 6 165270899.032 6      1324.559 6        40.477 6
C16  39617212.457 6 206297212.453 6     -1752.361 6        36.824 6  39617229.555 6 159522147.779 6     -1355.566 6        39.134 6  39617232.066 6 167633471.757 6     -1424.797 6        37.737 6
S37  36962918.367 7 194241445.169 7         2.697 7        42.006 7
> 2022 06 21 01 06 40.0000000  0 27       0.000000000000
G01  19914882.223 8 104653410.329 8      -241.113 8        49.727 8  19914898.074 8  81548179.414 8      -187.875 8        50.226 8
G03  23949112.125 6 125853436.883 6      2836.855 6        39.741 6  23949130.141 8  98067675.243 8      2210.563 8        48.011 8
G07  21003966.000 7 110376581.904 7     -2028.926 7        46.664 7  21003979.852 8  86007783.745 8     -1581.078 8        50.226 8
G08  23119650.895 7 121494577.364 7     -2327.168 7        43.605 7  23119667.453 7  94671136.129 7     -1813.012 7        44.560 7
G14  21856271.711 7 114855484.123 7      2376.777 7        45.481 7  21856286.492 8  89497845.491 8      1851.969 8        49.003 8
G17  22605631.230 7 118793394.911 7      1451.094 7        43.221 7  22605647.027 8  92566351.040 8      1130.934 8        50.226 8
G21  21863450.348 7 114893204.066 7     -2634.414 7        47.246 7  21863462.008 8  89527227.197 8     -2052.797 8        49.676 8
G30  21159675.625 8 111194842.631 8      -305.039 8        48.020 8  21159691.336 8  86645399.788 8      -238.109 8        50.226 8
R09  22856020.551 7 122049853.540 7     -3888.238 7        44.989 7  22856027.281 6  94927690.209 6     -3024.596 6        40.015 6
R10  19654022.551 8 104766997.529 8     -1579.363 8        51.626 8                                                                
R11  20085973.965 9 107333355.347 9      2559.857 9        55.303 9  20085975.828 8  83481518.151 8      1991.170 8        50.702 8
R20  21400885.227 6 114440135.128 6     -3367.574 6        40.710 6  21400891.387 7  89009022.660 7     -2618.691 7        46.778 7
R21  19657565.676 9 105191607.639 9       244.113 9        55.126 9  19657569.973 8  81815718.504 8       189.828 8        51.058 8
C01  37563905.371 7 195605113.159 7        28.131 7        44.286 7  37563913.777 7 151254311.626 7        21.820 7        45.481 7  37563922.227 7 158945247.813 7        23.248 7        43.407 7
C02  37768486.648 6 196670422.817 6        22.545 6        41.342 6  37768492.012 7 152078063.526 7        17.094 7        45.418 7  37768501.543 7 159810890.377 7        18.346 7        42.607 7
C03  37024235.262 7 192794912.949 7        51.080 7        45.519 7  37024242.059 7 149081280.099 7        39.184 7        47.346 7  37024248.805 7 156661713.958 7        41.295 7        44.712 7
C04  38589325.480 6 200944748.991 6        22.115 6        39.788 6  38589332.992 7 155383251.786 7        17.270 7        43.832 7  38589341.063 7 163284129.215 7        18.248 7        42.251 7
C05  39464441.047 6 205501700.419 6        28.033 6        39.079 6  39464451.813 7 158906989.628 7        21.742 7        42.845 7  39464458.316 6 166987034.173 6        23.072 6        39.597 6
C06  39308930.211 6 204691906.097 6     -1807.260 6        41.806 6  39308940.480 7 158280802.794 7     -1397.457 7        42.845 7  39308945.566 7 166329004.474 7     -1468.471 7        42.278 7
C07  36287689.875 8 188959525.675 8       286.881 8        48.597 8  36287693.668 8 146115504.054 8       221.957 8        49.392 8  36287699.449 8 153545129.903 8       233.307 8        48.591 8
C08  38341179.441 7 199652583.510 7      1753.541 7        42.533 7  38341185.984 7 154384068.604 7      1356.137 7        44.512 7  38341190.395 7 162234125.797 7      1425.357 7        42.304 7
C09  38793392.840 6 202007380.039 6     -1797.650 6        41.564 6  38793404.969 7 156204957.226 7     -1390.211 7        44.845 7  38793408.324 6 164147597.195 6     -1460.443 6        41.276 6
C10  36709109.039 7 191153967.364 7       410.787 7        47.049 7  36709116.906 7 147812400.286 7       317.465 7        47.885 7  36709121.637 7 155328307.296 7       334.283 7        46.538 7
C11  24074604.527 7 125362773.723 7     -2462.729 7        46.091 7  24074612.254 7  96938482.987 7     -1903.551 7        47.101 7  24074617.277 7 101867582.187 7     -2000.619 7        46.721 7
C13  39055729.379 7 203373433.433 7      1630.045 7        43.003 7  39055743.688 6 157261304.020 6      1259.887 6        40.634 6  39055748.754 6 165257656.013 6      1324.166 6        40.858 6
C16  39620579.230 6 206314743.505 6     -1752.943 6        37.005 6  39620596.723 6 159535703.818 6     -1355.055 6        39.134 6  39620598.762 6 167647717.098 6     -1424.604 6        37.507 6
S37  36962914.184 7 194241423.017 7         1.816 7        42.117 7
> 2022 06 21 01 06 50.0000000  0 27       0.000000000000
G01  19915347.332 8 104655856.117 8      -247.965 8        50.393 8  19915363.156 8  81550083.215 8      -193.063 8        50.226 8
G03  23943713.043 6 125825067.782 6      2836.977 6        39.548 6  23943731.387 8  98045569.475 8      2210.336 8        48.096 8
G07  21007832.262 7 110396898.686 7     -2034.176 7        47.145 7  21007846.340 8  86023614.981 8     -1585.191 8        50.226 8
G08  23124079.223 7 121517845.714 7     -2326.793 7        44.236 7  23124095.637 7  94689267.303 7     -1812.867 7        44.537 7
G14  21851750.211 7 114831723.505 7      2375.336 7        45.991 7  21851765.309 8  89479330.729 8      1850.883 8        49.271 8
G17  22602871.762 7 118778894.958 7      1449.418 7        43.157 7  22602887.645 8  92555052.397 8      1129.535 8        50.226 8
G21  21868466.496 7 114919566.232 7     -2637.750 7        47.067 7  21868478.559 8  89547769.136 8     -2055.445 8        49.429 8
G30  21160262.363 7 111197926.575 7      -311.461 7        47.963 7  21160278.719 8  86647802.836 8      -242.652 8        50.226 8
R09  22863304.813 7 122088745.858 7     -3890.795 7        44.667 7  22863310.258 6  94957939.710 6     -3025.578 6        40.189 6
R10  19656993.668 8 104782828.189 8     -1586.410 8        52.001 8                                                                
R11  20081188.504 9 107307781.408 9      2554.938 9        55.314 9  20081190.797 8  83461627.332 8      1987.197 8        50.680 8
R20  21407183.480 6 114473814.128 6     -3368.551 6        41.002 6  21407187.922 7  89035217.433 7     -2620.359 7        46.616 7
R21  19657115.418 9 105189196.417 9       238.059 9        55.042 9  19657118.426 8  81813843.100 8       185.248 8        51.151 8
C01  37563851.059 7 195604829.674 7        28.615 7        44.319 7  37563859.465 7 151254092.410 7        22.354 7        45.418 7  37563867.742 7 158945017.459 7        23.416 7        43.488 7
C02  37768443.102 6 196670197.323 6        22.131 6        41.564 6  37768448.574 7 152077889.143 7        17.314 7        45.481 7  37768458.289 7 159810707.131 7        18.494 7        42.558 7
C03  37024136.840 7 192794402.078 7        51.369 7        45.456 7  37024144.137 7 149080885.055 7        39.678 7        47.362 7  37024150.770 7 156661298.830 7        41.424 7        44.697 7
C04  38589283.078 6 200944526.386 6        22.795 6        40.189 6  38589290.234 7 155383079.704 7        17.158 7        43.586 7  38589298.477 7 163283948.370 7        18.064 7        42.483 7
C05  39464386.625 6 205501417.309 6        28.635 6        39.188 6  39464397.180 7 158906770.703 7        22.275 7        43.221 7  39464403.848 6 166986804.133 6        22.771 6        39.788 6
C06  39312400.609 6 204709977.383 6     -1807.029 6        41.564 6  39312410.875 7 158294776.632 7     -1397.451 7        42.959 7  39312415.801 7 166343688.865 7     -1468.596 7        42.117 7
C07  36287138.855 8 188956655.110 8       287.346 8        48.634 8  36287142.648 8 146113284.351 8       222.080 8        49.607 8  36287148.012 8 153542797.338 8       233.338 8        48.658 8
C08  38337811.941 7 199635049.961 7      1752.873 7        42.407 7  38337818.594 7 154370510.574 7      1355.557 7        44.590 7  38337823.121 7 162219878.352 7      1425.154 7        42.356 7
C09  38796844.781 6 202025353.221 6     -1796.893 6        41.374 6  38796856.656 7 156218855.207 7     -1389.736 7        45.208 7  38796859.832 6 164162201.870 6     -1460.627 6        41.141 6
C10  36708319.195 7 191149854.793 7       411.584 7        47.014 7  36708327.102 8 147809220.188 8       318.232 8        48.090 8  36708331.875 7 155324965.501 7       334.510 7        46.518 7
C11  24079332.703 7 125387397.774 7     -2462.342 7        45.843 7  24079340.789 7  96957523.854 7     -1903.760 7        47.507 7  24079346.293 7 101887591.247 7     -2000.959 7        47.040 7
C13  39052600.949 7 203357141.403 7      1629.260 7        43.157 7  39052615.293 6 157248706.010 6      1258.818 6        41.209 6  39052619.828 6 165244417.405 6      1323.514 6        40.477 6
C16  39623945.742 6 206332269.711 6     -1752.693 6        36.915 6  39623962.559 6 159549256.158 6     -1355.498 6        39.397 6  39623964.246 6 167661958.503 6     -1423.049 6        37.179 6
S37  36962909.379 6 194241400.650 6         2.445 6        41.893 6
> 2022 06 21 01 07  0.0000000  0 27       0.000000000000
G01  19915826.516 8 104658373.574 8      -255.645 8        50.364 8  19915842.512 8  81552045.864 8      -199.246 8        50.226 8
G03  23938316.301 6 125796704.758 6      2835.625 6        40.015 6  23938333.914 8  98023468.433 8      2209.289 8        48.309 8
G07  21011709.020 7 110417268.598 7     -2039.785 7        47.760 7  21011722.641 8  86039487.631 8     -1589.578 8        50.226 8
G08  23128506.598 7 121541114.013 7     -2327.207 7        44.030 7  23128523.141 7  94707398.410 7     -1813.426 7        44.721 7
G14  21847231.910 7 114807978.307 7      2373.555 7        46.346 7  21847246.563 8  89460827.990 8      1849.504 8        49.551 8
G17  22600116.496 7 118764414.627 7      1446.543 7        43.263 7  22600131.691 8  92543769.034 8      1127.336 8        50.226 8
G21  21873489.852 7 114945961.803 7     -2641.621 7        47.585 7  21873501.613 8  89568337.099 8     -2058.465 8        49.773 8
G30  21160861.457 8 111201075.334 8      -318.613 8        48.158 8  21160878.070 8  86650256.405 8      -248.113 8        50.226 8
R09  22870593.285 7 122127669.416 7     -3894.488 7        44.621 7  22870595.719 6  94988213.543 6     -3029.063 6        40.858 6
R10  19659976.590 8 104798732.290 8     -1594.400 8        52.364 8                                                                
R11  20076413.266 9 107282262.208 9      2548.762 9        55.373 9  20076414.270 8  83441779.051 8      1982.463 8        51.138 8
R20  21413484.941 6 114507511.307 6     -3371.525 6        41.002 6  21413489.383 7  89061426.329 7     -2621.969 7        46.674 7
R21  19656676.953 9 105186849.345 9       231.061 9        54.763 9  19656681.680 8  81812017.613 8       179.477 8        51.034 8
C01  37563796.758 7 195604546.334 7        27.939 7        44.335 7  37563804.449 7 151253873.310 7        22.063 7        45.418 7  37563813.121 7 158944787.217 7        22.807 7        43.448 7
C02  37768399.855 6 196669971.787 6        22.783 6        41.470 6  37768405.438 7 152077714.755 7        17.102 7        45.443 7  37768415.004 7 159810523.898 7        17.963 7        42.680 7
C03  37024038.684 7 192793891.266 7        50.869 7        45.654 7  37024045.875 7 149080490.062 7        39.367 7        47.362 7  37024052.863 7 156660883.752 7        41.146 7        44.816 7
C04  38589240.371 6 200944304.109 6        22.256 6        40.015 6  38589247.777 7 155382907.789 7        17.023 7        43.850 7  38589255.574 7 163283767.730 7        17.904 7        42.171 7
C05  39464331.969 6 205501134.152 6        28.213 6        39.241 6  39464343.344 7 158906551.745 7        21.594 7        42.751 7  39464349.367 6 166986574.033 6        22.533 6        39.548 6
C06  39315870.164 6 204728045.948 6     -1807.041 6        41.806 6  39315880.969 7 158308748.349 7     -1397.410 7        42.821 7  39315885.848 7 166358370.996 7     -1468.170 7        42.225 7
C07  36286586.598 8 188953781.663 8       286.943 8        48.603 8  36286591.141 8 146111062.416 8       222.180 8        49.731 8  36286596.270 8 153540462.416 8       233.549 8        48.807 8
C08  38334446.316 7 199617524.967 7      1751.826 7        42.330 7  38334452.398 7 154356959.136 7      1354.641 7        44.202 7  38334457.453 7 162205637.854 7      1424.096 7        42.382 7
C09  38800297.484 6 202043329.152 6     -1797.939 6        41.533 6  38800309.074 7 156232755.308 7     -1390.008 7        45.340 7  38800311.730 6 164176808.781 6     -1461.002 6        41.209 6
C10  36707528.938 7 191145737.731 7       411.475 7        47.067 7  36707536.668 8 147806036.615 8       318.020 8        48.239 8  36707541.344 7 155321620.046 7       334.369 7        46.787 7
C11  24084062.184 7 125412025.216 7     -2462.920 7        45.506 7  24084070.270 7  96976567.343 7     -1904.793 7        47.313 7  24084075.797 7 101907603.031 7     -2001.510 7        47.153 7
C13  39049473.574 7 203340855.226 7      1628.193 7        43.026 7  39049488.063 6 157236112.483 6      1258.781 6        40.931 6  39049491.988 6 165231183.572 6      1322.455 6        40.634 6
C16  39627309.660 6 206349791.330 6     -1752.178 6        36.538 6  39627328.691 6 159562804.956 6     -1355.477 6        39.693 6  39627329.266 6 167676196.249 6     -1423.502 6        37.179 6
S37  36962905.484 7 194241378.466 7         2.012 7        42.407 7
> 2022 06 21 01 07 10.0000000  0 27       0.000000000000
G01  19916319.023 8 104660962.383 8      -261.969 8        50.142 8  19916335.336 8  81554064.115 8      -204.098 8        50.226 8
G03  23932920.434 6 125768347.616 6      2836.352 6        40.189 6  23932937.879 8  98001371.971 8      2209.281 8        48.737 8
G07  21015594.957 7 110437691.287 7     -2044.215 7        47.136 7  21015608.707 8  86055401.396 8     -1593.063 8        50.226 8
G08  23132933.992 7 121564382.021 7     -2326.148 7        43.567 7  23132950.434 7  94725529.327 7     -1812.613 7        44.298 7
G14  21842716.059 7 114784248.365 7      2372.914 7        45.980 7  21842731.055 8  89442337.123 8      1849.047 8        49.844 8
G17  22597364.539 7 118749953.574 7      1445.941 7        44.168 7  22597379.578 8  92532500.706 8      1126.313 8        50.226 8
G21  21878518.805 7 114972390.485 7     -2643.766 7        47.313 7  21878531.324 8  89588930.874 8     -2060.094 8        50.079 8
G30  21161472.875 8 111204288.652 8      -323.961 8        48.535 8  21161489.305 8  86652760.287 8      -252.613 8        50.226 8
R09  22877887.645 7 122166623.600 7     -3896.021 7        44.082 7  22877892.516 7  95018511.218 7     -3030.699 7        42.458 7
R10  19662973.703 8 104814710.022 8     -1600.736 8        52.528 8                                                                
R11  20071647.066 9 107256797.554 9      2544.316 9        55.282 9  20071651.223 8  83421973.241 8      1978.795 8        51.887 8
R20  21419786.848 6 114541226.067 6     -3371.691 6        40.231 6  21419796.445 7  89087648.943 7     -2622.436 7        46.768 7
R21  19656250.109 9 105184566.159 9       225.541 9        54.615 9  19656254.695 8  81810241.786 8       175.359 8        51.158 8
C01  37563742.266 7 195604262.860 7        28.811 7        44.352 7  37563750.457 7 151253654.106 7        22.438 7        45.544 7  37563759.035 7 158944556.871 7        23.598 7        43.488 7
C02  37768356.488 6 196669745.989 6        23.342 6        41.533 6  37768362.605 7 152077540.132 7        18.102 7        45.353 7  37768371.727 7 159810340.380 7        18.754 7        42.775 7
C03  37023940.367 7 192793380.246 7        51.682 7        45.678 7  37023947.949 7 149080094.893 7        40.074 7        47.419 7  37023954.625 7 156660468.496 7        41.977 7        44.712 7
C04  38589197.754 6 200944081.854 6        22.932 6        39.741 6  38589205.121 7 155382735.923 7        17.594 7        43.995 7  38589212.984 7 163283587.116 7        18.246 7        42.171 7
C05  39464277.832 6 205500850.722 6        28.576 6        38.968 6  39464289.172 7 158906332.536 7        22.105 7        42.483 7  39464295.047 6 166986343.663 6        23.871 6        39.498 6
C06  39319339.629 6 204746111.468 6     -1805.584 6        41.470 6  39319349.969 7 158322717.729 7     -1396.273 7        42.751 7  39319355.027 6 166373050.712 6     -1467.652 6        41.864 6
C07  36286033.965 8 188950905.020 8       288.088 8        48.428 8  36286038.793 8 146108838.025 8       223.082 8        49.903 8  36286043.949 8 153538124.927 8       234.379 8        48.789 8
C08  38331082.355 7 199600008.458 7      1751.662 7        42.144 7  38331088.188 7 154343414.267 7      1354.840 7        44.100 7  38331093.918 7 162191404.288 7      1423.461 7        42.680 7
C09  38803749.781 6 202061307.475 6     -1797.166 6        41.374 6  38803762.086 7 156246657.252 7     -1389.750 7        45.581 7  38803764.289 6 164191417.582 6     -1459.820 6        41.470 6
C10  36706736.984 7 191141615.779 7       412.854 7        47.040 7  36706745.035 8 147802849.248 8       319.156 8        48.338 8  36706749.750 7 155318270.636 7       335.707 7        46.749 7
C11  24088792.539 7 125436655.725 7     -2462.518 7        45.469 7  24088800.910 7  96995613.195 7     -1903.871 7        47.136 7  24088805.734 7 101927617.322 7     -2001.051 7        47.255 7
C13  39046346.180 7 203324574.589 7      1628.303 7        42.845 7  39046360.918 6 157223523.282 6      1259.332 6        40.672 6  39046365.438 6 165217954.242 6      1322.621 6        40.967 6
C16  39630673.953 6 206367308.193 6     -1751.072 6        36.731 6  39630692.414 6 159576350.022 6     -1354.008 6        39.346 6  39630693.016 6 167690430.069 6     -1423.102 6        36.824 6
S37  36962901.609 7 194241356.183 7         2.992 7        42.558 7
> 2022 06 21 01 07 20.0000000  0 27       0.000000000000
G01  19916825.605 8 104663622.885 8      -269.764 8        50.599 8  19916841.816 8  81556138.230 8      -210.121 8        50.226 8
G03  23927524.902 6 125739996.885 6      2834.533 6        40.146 6  23927543.176 8  97979280.521 8      2208.492 8        48.820 8
G07  21019491.238 7 110458167.020 7     -2050.623 7        47.354 7  21019504.531 8  86071356.489 8     -1597.992 8        50.226 8
G08  23137361.863 7 121587649.921 7     -2327.166 7        43.795 7  23137378.449 7  94743660.150 7     -1813.324 7        44.607 7
G14  21838203.691 7 114760534.114 7      2370.197 7        46.478 7  21838218.629 8  89423858.487 8      1846.871 8        50.211 8
G17  22594617.211 7 118735512.221 7      1442.854 7        45.072 7  22594631.805 8  92521247.708 8      1124.410 8        50.226 8
G21  21883554.242 7 114998852.442 7     -2648.143 7        47.451 7  21883567.180 8  89609550.584 8     -2063.559 8        50.180 8
G30  21162097.078 8 111207566.859 8      -331.443 8        48.974 8  21162112.789 8  86655314.720 8      -257.895 8        50.226 8
R09  22885186.348 7 122205608.657 7     -3900.510 7        44.860 7  22885190.789 7  95048832.888 7     -3033.527 7        42.225 7
R10  19665984.617 8 104830761.305 8     -1608.934 8        51.647 8                                                                
R11  20066893.234 9 107231387.944 9      2538.207 9        55.884 9  20066895.094 8  83402210.217 8      1974.090 8        51.470 8
R20  21426095.387 6 114574958.526 6     -3373.506 6        40.273 6  21426102.836 7  89113885.299 7     -2624.621 7        47.767 7
R21  19655835.203 9 105182347.095 9       218.844 9        55.116 9  19655840.500 8  81808515.837 8       170.164 8        51.127 8
C01  37563687.281 7 195603979.613 7        28.445 7        44.168 7  37563695.867 7 151253435.094 7        21.914 7        45.456 7  37563704.496 7 158944326.712 7        23.256 7        43.427 7
C02  37768313.094 6 196669520.229 6        22.352 6        41.533 6  37768318.926 7 152077365.557 7        17.305 7        45.418 7  37768328.227 7 159810156.938 7        18.158 7        42.845 7
C03  37023842.348 7 192792869.379 7        50.887 7        45.605 7  37023849.680 7 149079699.856 7        39.492 7        47.491 7  37023856.520 7 156660053.367 7        41.557 7        44.772 7
C04  38589154.895 6 200943859.891 6        22.352 6        40.015 6  38589162.871 7 155382564.296 7        16.992 7        43.850 7  38589170.328 7 163283406.776 7        17.963 7        42.330 7
C05  39464223.207 6 205500567.295 6        27.977 6        39.346 6  39464235.152 7 158906113.360 7        21.973 7        42.959 7  39464240.926 6 166986113.374 6        22.826 6        39.788 6
C06  39322808.645 6 204764174.355 6     -1806.809 6        41.776 6  39322819.160 7 158336685.038 7     -1396.680 7        42.330 7  39322823.711 6 166387728.213 6     -1467.271 6        41.747 6
C07  36285480.875 8 188948025.592 8       287.879 8        48.377 8  36285485.777 8 146106611.485 8       222.422 8        49.631 8  36285491.000 8 153535785.167 8       233.939 8        48.795 8
C08  38327720.016 7 199582500.818 7      1749.617 7        42.117 7  38327726.027 7 154329876.258 7      1353.184 7        43.488 7  38327731.820 7 162177177.871 7      1422.357 7        42.751 7
C09  38807202.875 6 202079288.527 6     -1798.020 6        41.175 6  38807215.430 7 156260561.317 7     -1390.977 7        45.222 7  38807217.313 6 164206028.663 6     -1461.568 6        41.342 6
C10  36705944.828 7 191137489.331 7       412.547 7        46.951 7  36705952.770 8 147799658.407 8       319.199 8        48.138 8  36705957.262 7 155314917.562 7       335.189 7        46.683 7
C11  24093522.836 7 125461289.580 7     -2463.176 7        45.003 7  24093531.852 7  97014661.664 7     -1905.234 7        47.119 7  24093536.465 7 101947634.342 7     -2001.979 7        47.221 7
C13  39043220.906 7 203308299.914 7      1627.293 7        42.868 7  39043236.324 6 157210938.694 6      1257.988 6        40.477 6  39043239.809 6 165204729.745 6      1322.143 6        40.710 6
C16  39634037.008 6 206384820.521 6     -1751.125 6        37.093 6  39634055.789 6 159589891.632 6     -1354.199 6        39.448 6  39634056.133 6 167704660.227 6     -1422.740 6        36.824 6
S37  36962897.496 7 194241334.189 7         1.799 7        42.508 7
> 2022 06 21 01 07 30.0000000  0 27       0.000000000000
G01  19917345.234 8 104666354.271 8      -276.199 8        50.231 8  19917361.531 8  81558257.588 8      -215.367 8        50.226 8
G03  23922130.828 6 125711651.871 6      2835.070 6        39.397 6  23922149.918 8  97957193.520 8      2208.852 8        49.089 8
G07  21023397.281 7 110478694.889 7     -2054.734 7        46.852 7  21023410.703 8  86087352.221 8     -1601.031 8        50.226 8
G08  23141789.477 7 121610917.353 7     -2326.375 7        43.527 7  23141806.246 7  94761790.608 7     -1812.535 7        45.158 7
G14  21833694.066 7 114736834.842 7      2369.367 7        46.518 7  21833708.848 8  89405391.520 8      1846.254 8        50.210 8
G17  22591872.770 7 118721089.694 7      1441.301 7        44.946 7  22591887.594 8  92510009.404 8      1123.246 8        50.226 8
G21  21888595.719 7 115025346.763 7     -2650.730 7        46.805 7  21888608.855 8  89630195.495 8     -2065.523 8        50.226 8
G30  21162733.039 8 111210909.178 8      -337.117 8        48.441 8  21162748.609 8  86657919.132 8      -262.672 8        50.226 8
R09  22892493.102 7 122244623.838 7     -3902.453 7        44.151 7  22892498.543 6  95079177.995 6     -3035.018 6        40.858 6
R10  19669009.164 8 104846885.674 8     -1615.777 8        51.397 8                                                                
R11  20062146.875 9 107206032.734 9      2533.158 9        55.168 9  20062151.031 8  83382489.493 8      1970.158 8        51.426 8
R20  21432406.680 6 114608708.156 6     -3375.273 6        39.971 6  21432416.707 7  89140134.950 7     -2625.369 7        47.419 7
R21  19655432.926 9 105180191.246 9       212.660 9        54.892 9  19655437.367 8  81806839.082 8       165.373 8        50.844 8
C01  37563633.324 7 195603695.875 7        28.855 7        44.384 7  37563641.195 7 151253215.693 7        22.094 7        45.327 7  37563649.996 7 158944096.182 7        23.527 7        43.304 7
C02  37768269.297 6 196669293.763 6        22.449 6        41.626 6  37768275.594 7 152077190.427 7        17.738 7        45.301 7  37768284.789 7 159809972.904 7        18.742 7        42.775 7
C03  37023744.391 7 192792357.903 7        51.414 7        45.405 7  37023751.223 7 149079304.352 7        40.043 7        47.119 7  37023758.129 7 156659637.758 7        42.141 7        44.512 7
C04  38589112.316 6 200943637.638 6        22.313 6        39.971 6  38589120.008 7 155382392.416 7        17.660 7        44.117 7  38589127.734 6 163283226.155 6        18.371 6        41.978 6
C05  39464169.320 6 205500283.170 6        28.797 6        39.241 6  39464180.590 7 158905893.654 7        21.977 7        43.092 7  39464185.969 6 166985882.479 6        23.469 6        39.741 6
C06  39326276.465 6 204782233.686 6     -1804.992 6        41.978 6  39326287.164 7 158350649.667 7     -1395.855 7        42.034 7  39326291.777 6 166402402.905 6     -1467.137 6        41.276 6
C07  36284926.957 8 188945142.661 8       288.836 8        48.331 8  36284932.215 8 146104382.209 8       223.227 8        49.679 8  36284937.184 8 153533442.545 8       234.523 8        48.664 8
C08  38324359.387 7 199565001.212 7      1749.930 7        42.251 7  38324365.359 7 154316344.481 7      1352.914 7        43.795 7  38324371.191 7 162162958.063 7      1421.457 7        42.458 7
C09  38810657.102 6 202097271.612 6     -1799.035 6        41.470 6  38810668.336 7 156274466.927 7     -1390.895 7        44.682 7  38810671.176 6 164220641.324 6     -1461.316 6        41.276 6
C10  36705151.410 7 191133357.672 7       413.426 7        47.040 7  36705159.137 7 147796463.550 7       319.926 7        47.985 7  36705163.871 7 155311560.240 7       336.145 7        46.749 7
C11  24098253.301 7 125485926.038 7     -2463.430 7        44.960 7  24098262.102 7  97033712.099 7     -1904.801 7        47.515 7  24098267.219 7 101967653.465 7     -2001.922 7        46.870 7
C13  39040096.199 7 203292030.403 7      1627.098 7        43.113 7  39040111.367 6 157198358.076 6      1258.129 6        40.634 6  39040115.324 6 165191509.463 6      1321.613 6        40.785 6
C16  39637398.191 6 206402327.587 6     -1750.051 6        37.005 6  39637417.723 6 159603429.155 6     -1353.023 6        39.079 6  39637418.109 6 167718886.126 6     -1422.156 6        36.438 6
S37  36962892.836 7 194241311.663 7         2.531 7        42.583 7
> 2022 06 21 01 07 40.0000000  0 27       0.000000000000
G01  19917878.496 8 104669156.453 8      -283.506 8        50.138 8  19917894.793 8  81560450.100 8      -220.736 8        50.226 8
G03  23916737.652 6 125683312.691 6      2833.369 6        37.737 6  23916757.500 8  97935111.064 8      2208.072 8        48.523 8
G07  21027313.809 7 110499274.816 7     -2060.400 7        46.606 7  21027327.188 8  86103388.526 8     -1605.639 8        50.226 8
G08  23146217.129 7 121634183.874 7     -2326.221 7        43.366 7  23146234.043 7  94779920.357 7     -1813.178 7        45.141 7
G14  21829187.203 7 114713150.526 7      2367.842 7        46.674 7  21829201.328 8  89386936.222 8      1845.143 8        50.226 8
G17  22589131.516 7 118706685.885 7      1439.580 7        44.168 7  22589146.313 8  92498785.674 8      1122.291 8        50.226 8
G21  21893643.820 7 115051873.289 7     -2654.170 7        46.888 7  21893656.984 8  89650865.502 8     -2068.139 8        50.121 8
G30  21163381.063 7 111214315.513 7      -343.525 7        47.677 7  21163396.688 8  86660573.422 8      -268.002 8        50.226 8
R09  22899803.762 7 122283668.817 7     -3905.916 7        43.923 7  22899812.066 6  95109546.266 6     -3038.627 6        39.597 6
R10  19672045.781 8 104863082.825 8     -1623.143 8        51.567 8                                                                
R11  20057412.730 9 107180732.023 9      2527.527 9        55.316 9  20057417.746 8  83362811.160 8      1965.924 8        51.580 8
R20  21438723.594 6 114642474.374 6     -3377.527 6        40.015 6  21438730.898 7  89166397.560 7     -2626.852 7        47.507 7
R21  19655040.715 9 105178098.657 9       206.168 9        54.897 9  19655047.160 8  81805211.499 8       160.414 8        50.880 8
C01  37563578.625 7 195603411.557 7        28.301 7        43.941 7  37563586.602 7 151252995.830 7        22.113 7        45.418 7  37563595.281 7 158943865.124 7        22.943 7        43.407 7
C02  37768225.688 6 196669066.419 6        23.438 6        41.502 6  37768232.195 7 152077014.654 7        17.621 7        45.262 7  37768241.074 7 159809788.186 7        18.471 7        42.607 7
C03  37023645.941 7 192791845.771 7        51.270 7        45.531 7  37023653.059 7 149078908.335 7        39.691 7        47.153 7  37023659.898 7 156659221.604 7        41.771 7        44.528 7
C04  38589069.063 6 200943414.848 6        22.617 6        39.597 6  38589077.039 7 155382220.158 7        17.445 7        44.433 7  38589084.688 7 163283045.134 7        18.139 7        42.034 7
C05  39464113.727 6 205499998.228 6        28.574 6        39.024 6  39464125.602 7 158905673.309 7        21.918 7        42.868 7  39464131.492 6 166985650.943 6        23.412 6        39.597 6
C06  39329744.617 7 204800289.561 7     -1805.117 7        42.356 7  39329754.523 6 158364611.561 6     -1395.816 6        41.950 6  39329759.117 6 166417074.737 6     -1467.037 6        41.107 6
C07  36284372.758 8 188942256.059 8       288.984 8        48.364 8  36284377.836 8 146102150.110 8       223.441 8        49.764 8  36284382.867 8 153531096.954 8       234.584 8        48.454 8
C08  38321000.262 7 199547509.720 7      1748.613 7        42.062 7  38321005.844 7 154302818.935 7      1352.426 7        43.387 7  38321011.980 7 162148744.792 7      1420.951 7        42.508 7
C09  38814110.621 6 202115256.462 6     -1798.184 6        41.209 6  38814121.891 7 156288373.916 7     -1390.035 7        44.528 7  38814125.023 6 164235255.519 6     -1462.174 6        41.406 6
C10  36704356.957 7 191129220.709 7       413.945 7        47.110 7  36704364.539 8 147793264.589 8       319.984 8        48.292 8  36704369.492 7 155308198.611 7       336.479 7        46.606 7
C11  24102985.203 7 125510564.894 7     -2463.750 7        44.831 7  24102993.469 7  97052764.410 7     -1905.465 7        46.960 7  24102999.020 7 101987674.521 7     -2001.959 7        46.805 7
C13  39036973.285 7 203275766.112 7      1626.133 7        43.547 7  39036988.559 6 157185781.520 6      1256.605 6        40.822 6  39036991.844 6 165178293.392 6      1320.951 6        40.556 6
C16  39640759.988 6 206419829.305 6     -1749.941 6        36.538 6  39640779.414 6 159616962.515 6     -1353.063 6        39.241 6  39640779.063 6 167733107.672 6     -1421.959 6        36.231 6
S37  36962888.789 7 194241288.577 7         2.412 7        42.117 7
> 2022 06 21 01 07 50.0000000  0 27       0.000000000000
G01  19918425.238 8 104672030.169 8      -290.635 8        49.811 8  19918441.379 8  81562687.366 8      -226.516 8        50.226 8
G03  23911345.938 6 125654980.176 6      2833.350 6        37.093 6  23911366.258 8  97913033.789 8      2207.742 8        48.439 8
G07  21031240.098 7 110519907.495 7     -2065.654 7        46.787 7  21031253.836 8  86119465.917 8     -1609.758 8        50.226 8
G08  23150644.957 7 121657450.267 7     -2326.318 7        43.605 7  23150661.953 7  94798049.969 7     -1812.512 7        45.037 7
G14  21824683.230 7 114689482.082 7      2366.064 7        46.645 7  21824697.543 8  89368493.287 8      1843.602 8        50.226 8
G17  22586394.301 7 118692301.619 7      1437.900 7        44.667 7  22586409.211 8  92487577.197 8      1119.969 8        50.226 8
G21  21898697.527 7 115078432.810 7     -2657.256 7        46.488 7  21898710.777 8  89671561.226 8     -2070.578 8        49.789 8
G30  21164040.992 7 111217786.660 7      -350.186 7        47.467 7  21164057.148 8  86663278.186 8      -272.922 8        50.226 8
R09  22907120.324 7 122322744.355 7     -3908.670 7        44.030 7  22907128.918 6  95139938.249 6     -3040.258 6        40.231 6
R10  19675099.906 8 104879353.579 8     -1630.348 8        52.236 8                                                                
R11  20052689.504 9 107155486.825 9      2522.057 9        55.266 9  20052691.652 8  83343176.029 8      1961.439 8        51.131 8
R20  21445040.543 6 114676258.317 6     -3379.756 6        39.971 6  21445049.137 8  89192673.928 8     -2628.152 8        48.454 8
R21  19654662.570 9 105176070.006 9       199.799 9        54.764 9  19654665.438 8  81803633.660 8       155.342 8        50.755 8
C01  37563524.094 7 195603127.422 7        28.605 7        44.065 7  37563531.930 7 151252776.127 7        22.074 7        45.222 7  37563540.867 7 158943634.223 7        23.754 7        43.135 7
C02  37768182.355 6 196668839.146 6        22.746 6        41.276 6  37768188.473 7 152076838.897 7        17.602 7        45.288 7  37768197.492 7 159809603.500 7        18.832 7        42.433 7
C03  37023547.555 7 192791333.739 7        51.359 7        45.568 7  37023554.922 7 149078512.404 7        39.711 7        47.187 7  37023561.633 7 156658805.544 7        41.820 7        44.512 7
C04  38589026.125 6 200943192.414 6        22.629 6        39.741 6  38589034.207 7 155382048.171 7        17.309 7        43.814 7  38589042.199 6 163282864.392 6        18.402 6        41.893 6
C05  39464059.305 6 205499713.319 6        28.781 6        39.241 6  39464070.430 7 158905452.981 7        22.191 7        42.775 7  39464076.863 6 166985419.438 6        23.148 6        39.645 6
C06  39333211.402 7 204818342.631 7     -1804.891 7        42.251 7  39333221.598 7 158378571.296 7     -1395.445 7        42.558 7  39333226.059 6 166431744.325 6     -1467.398 6        41.002 6
C07  36283817.551 8 188939366.671 8       289.465 8        48.265 8  36283823.023 8 146099915.855 8       223.617 8        49.880 8  36283828.082 8 153528749.083 8       235.160 8        48.609 8
C08  38317643.207 7 199530027.100 7      1748.156 7        42.225 7  38317648.645 7 154289300.293 7      1351.938 7        43.739 7  38317654.332 7 162134538.753 7      1420.688 7        42.483 7
C09  38817564.852 6 202133244.045 6     -1798.973 6        41.002 6  38817575.938 7 156302283.038 7     -1390.797 7        44.667 7  38817579.746 6 164249871.850 6     -1461.773 6        41.747 6
C10  36703561.391 7 191125079.207 7       414.758 7        46.978 7  36703569.617 8 147790062.115 8       320.688 8        48.479 8  36703574.254 7 155304833.309 7       337.172 7        46.488 7
C11  24107717.277 7 125535206.907 7     -2464.051 7        44.712 7  24107725.148 7  97071819.175 7     -1905.465 7        46.488 7  24107731.164 7 102007698.185 7     -2002.066 7        46.616 7
C13  39033851.078 7 203259507.725 7      1625.754 7        43.586 7  39033866.711 6 157173209.488 6      1257.797 6        41.470 6  39033869.832 6 165165082.108 6      1321.371 6        40.710 6
C16  39644120.383 6 206437326.422 6     -1749.031 6        37.507 6  39644140.023 6 159630492.372 6     -1352.945 6        39.448 6  39644139.473 5 167747325.430 5     -1421.344 5        35.901 5
S37  36962884.199 7 194241265.707 7         3.037 7        42.198 7
> 2022 06 21 01 08  0.0000000  0 27       0.000000000000
G01  19918985.887 8 104674975.439 8      -297.178 8        50.210 8  19919001.555 8  81564982.382 8      -231.885 8        50.226 8
G03  23905956.250 6 125626654.489 6      2833.467 6        38.491 6  23905975.824 8  97890961.884 8      2207.646 8        48.522 8
G07  21035175.996 7 110540592.943 7     -2070.244 7        47.023 7  21035190.348 8  86135584.442 8     -1613.467 8        50.226 8
G08  23155072.375 7 121680716.566 7     -2326.514 7        44.352 7  23155089.133 7  94816179.526 7     -1812.139 7        45.351 7
G14  21820182.574 7 114665829.560 7      2365.303 7        46.731 7  21820196.496 8  89350062.746 8      1843.213 8        50.226 8
G17  22583661.113 7 118677936.843 7      1436.475 7        44.528 7  22583675.781 8  92476383.862 8      1119.404 8        50.226 8
G21  21903758.414 7 115105025.214 7     -2660.088 7        47.014 7  21903770.809 8  89692282.557 8     -2072.803 8        49.743 8
G30  21164714.684 8 111221322.593 8      -355.908 8        48.548 8  21164730.250 8  86666033.448 8      -277.373 8        50.226 8
R09  22914444.359 7 122361850.434 7     -3911.383 7        43.995 7  22914453.383 6  95170354.083 6     -3042.240 6        41.747 6
R10  19678166.375 8 104895697.844 8     -1637.434 8        51.844 8                                                                
R11  20047975.473 9 107130297.198 9      2516.920 9        54.531 9  20047977.191 8  83323584.097 8      1957.602 8        51.368 8
R20  21451360.379 6 114710059.629 6     -3380.029 6        39.693 6  21451370.121 7  89218963.823 7     -2629.297 7        47.608 7
R21  19654296.344 9 105174105.230 9       194.094 9        54.578 9  19654299.922 8  81802105.490 8       151.053 8        51.172 8
C01  37563469.660 7 195602843.518 7        29.180 7        44.168 7  37563477.746 7 151252556.602 7        22.637 7        45.494 7  37563486.266 7 158943403.563 7        23.416 7        43.263 7
C02  37768138.473 6 196668611.885 6        23.594 6        41.502 6  37768144.520 7 152076663.163 7        17.734 7        45.262 7  37768153.949 7 159809418.825 7        19.041 7        42.704 7
C03  37023449.367 7 192790821.895 7        51.582 7        45.678 7  37023456.629 7 149078116.600 7        40.098 7        47.179 7  37023463.207 7 156658389.609 7        41.873 7        44.605 7
C04  38588983.531 6 200942970.373 6        22.988 6        39.448 6  38588991.648 7 155381876.459 7        17.832 7        43.923 7  38588999.578 7 163282683.954 7        18.475 7        42.090 7
C05  39464004.656 6 205499428.477 6        29.570 6        39.188 6  39464015.926 7 158905232.698 7        22.773 7        42.868 7  39464021.949 6 166985187.956 6        23.768 6        39.741 6
C06  39336677.887 7 204836392.929 7     -1804.102 7        42.382 7  39336688.547 7 158392528.901 7     -1394.980 7        42.144 7  39336692.512 6 166446411.624 6     -1466.154 6        41.175 6
C07  36283262.797 8 188936474.531 8       289.961 8        48.402 8  36283267.480 8 146097679.472 8       224.434 8        49.741 8  36283272.582 8 153526398.980 8       235.701 8        48.664 8
C08  38314287.035 7 199512553.369 7      1747.070 7        42.117 7  38314293.508 7 154275788.510 7      1350.664 7        44.117 7  38314298.582 7 162120339.906 7      1419.881 7        42.034 7
C09  38821019.387 6 202151234.197 6     -1797.871 6        41.107 6  38821030.941 7 156316194.148 7     -1391.152 7        44.874 7  38821034.828 6 164264490.278 6     -1461.174 6        41.893 6
C10  36702765.133 7 191120933.278 7       415.840 7        47.058 7  36702773.609 8 147786856.225 8       321.367 8        48.560 8  36702778.148 7 155301464.405 7       337.771 7        46.654 7
C11  24112450.629 7 125559852.116 7     -2463.652 7        44.401 7  24112457.676 7  97090876.398 7     -1905.176 7        46.241 7  24112464.195 7 102027724.421 7     -2001.857 7        46.759 7
C13  39030729.898 7 203243255.447 7      1626.016 7        43.758 7  39030746.285 6 157160642.235 6      1256.504 6        41.687 6  39030748.680 6 165151875.816 6      1321.053 6        41.438 6
C16  39647479.336 6 206454818.944 6     -1747.891 6        37.812 6  39647499.477 6 159644018.641 6     -1351.445 6        39.926 6  39647498.590 5 167761539.528 5     -1420.275 5        35.666 5
S37  36962880.059 7 194241243.119 7         3.174 7        42.407 7
> 2022 06 21 01 08 10.0000000  0 27       0.000000000000
G01  19919559.738 8 104677992.840 8      -304.975 8        49.926 8  19919575.879 8  81567332.593 8      -237.674 8        50.226 8
G03  23900568.180 6 125598336.394 6      2832.564 6        39.079 6  23900586.664 8  97868895.878 8      2206.564 8        49.175 8
G07  21039122.672 7 110561331.640 7     -2076.107 7        46.978 7  21039137.180 8  86151744.426 8     -1617.654 8        50.226 8
G08  23159499.836 7 121703983.433 7     -2326.303 7        43.586 7  23159516.406 7  94834309.551 7     -1812.615 7        44.607 7
G14  21815683.816 7 114642193.670 7      2363.268 7        45.785 7  21815698.801 8  89331645.178 8      1841.584 8        50.205 8
G17  22580931.262 7 118663592.141 7      1433.600 7        44.384 7  22580945.711 8  92465206.201 8      1117.053 8        50.226 8
G21  21908825.211 7 115131650.957 7     -2663.861 7        46.915 7  21908837.816 8  89713029.876 8     -2075.682 8        49.495 8
G30  21165400.145 8 111224923.952 8      -362.787 8        48.272 8  21165415.859 8  86668839.693 8      -282.674 8        50.226 8
R09  22921777.457 7 122400987.641 7     -3914.803 7        44.100 7  22921782.184 7  95200794.083 7     -3044.820 7        42.144 7
R10  19681245.910 8 104912116.593 8     -1644.934 8        51.776 8                                                                
R11  20043270.211 9 107105163.908 9      2510.863 9        54.947 9  20043273.934 8  83304035.976 8      1953.010 8        51.289 8
R20  21457686.270 6 114743878.908 6     -3382.943 6        40.437 6  21457693.574 7  89245267.642 7     -2630.666 7        47.031 7
R21  19653941.320 9 105172205.041 9       187.137 9        54.694 9  19653944.473 8  81800627.555 8       145.523 8        51.517 8
C01  37563414.730 7 195602560.487 7        28.873 7        44.219 7  37563423.352 7 151252337.745 7        21.898 7        45.327 7  37563432.055 7 158943173.576 7        23.049 7        43.199 7
C02  37768095.133 6 196668385.322 6        22.799 6        41.342 6  37768101.145 7 152076487.946 7        17.992 7        45.222 7  37768110.238 7 159809234.711 7        18.732 7        42.798 7
C03  37023351.512 7 192790310.776 7        51.217 7        45.630 7  37023358.309 7 149077721.375 7        39.809 7        47.467 7  37023365.113 7 156657974.304 7        41.232 7        44.636 7
C04  38588941.371 6 200942749.262 6        22.838 6        39.926 6  38588948.957 7 155381705.496 7        17.328 7        43.977 7  38588957.105 7 163282504.289 7        18.400 7        42.356 7
C05  39463950.262 6 205499144.271 6        28.639 6        39.079 6  39463961.641 7 158905012.919 7        22.328 7        42.891 7  39463967.285 6 166984956.981 6        23.635 6        39.834 6
C06  39340143.734 7 204854441.037 7     -1804.604 7        42.304 7  39340154.180 7 158406484.804 7     -1395.152 7        42.171 7  39340158.457 6 166461077.166 6     -1466.014 6        41.141 6
C07  36282707.223 8 188933580.293 8       289.908 8        48.579 8  36282711.625 8 146095441.455 8       224.379 8        49.572 8  36282716.781 8 153524047.175 8       235.725 8        48.591 8
C08  38310933.012 7 199495089.232 7      1746.061 7        42.117 7  38310939.773 7 154262284.114 7      1350.629 7        44.319 7  38310944.863 7 162106148.873 7      1419.162 7        42.090 7
C09  38824474.789 6 202169227.628 6     -1799.369 6        41.309 6  38824486.344 7 156330107.731 7     -1391.188 7        44.860 7  38824490.516 7 164279111.374 7     -1461.951 7        42.062 7
C10  36701968.273 7 191116783.513 7       415.553 7        47.119 7  36701977.000 8 147783647.357 8       321.059 8        48.529 8  36701981.258 7 155298092.373 7       337.600 7        46.759 7
C11  24117183.805 7 125584501.111 7     -2464.525 7        44.384 7  24117191.641 7  97109936.559 7     -1905.699 7        46.557 7  24117197.852 7 102047753.726 7     -2002.615 7        46.833 7
C13  39027609.906 7 203227009.771 7      1624.576 7        43.488 7  39027625.859 6 157148080.029 6      1256.234 6        41.776 6  39027628.938 6 165138674.903 6      1319.670 6        41.175 6
C16  39650838.793 6 206472307.458 6     -1748.178 6        38.027 6  39650857.184 6 159657541.852 6     -1352.145 6        39.448 6  39650857.082 5 167775750.354 5     -1419.783 5        35.544 5
S37  36962875.820 7 194241221.408 7         2.721 7        42.330 7
> 2022 06 21 01 08 20.0000000  0 27       0.000000000000
G01  19920147.438 8 104681081.444 8      -312.459 8        49.997 8  19920163.707 8  81569740.293 8      -243.406 8        50.226 8
G03  23895180.785 6 125570025.131 6      2831.076 6        39.079 6  23895199.203 8  97846835.160 8      2206.574 8        49.145 8
G07  21043079.180 7 110582122.571 7     -2081.619 7        47.110 7  21043093.262 8  86167945.141 8     -1622.059 8        50.226 8
G08  23163926.832 7 121727249.835 7     -2326.756 7        43.366 7  23163943.289 7  94852439.207 7     -1812.957 7        44.441 7
G14  21811189.320 7 114618573.577 7      2361.467 7        45.702 7  21811203.945 8  89313239.922 8      1840.090 8        49.897 8
G17  22578204.949 7 118649266.655 7      1431.252 7        44.417 7  22578219.660 8  92454043.504 8      1115.012 8        50.226 8
G21  21913898.125 7 115158309.105 7     -2667.459 7        47.246 7  21913910.660 8  89733802.448 8     -2078.504 8        49.839 8
G30  21166097.598 8 111228589.797 8      -369.861 8        48.383 8  21166113.480 8  86671696.182 8      -288.152 8        50.226 8
R09  22929111.953 7 122440154.775 7     -3918.002 7        44.384 7  22929114.531 7  95231257.327 7     -3047.611 7        42.891 7
R10  19684340.457 8 104928608.450 8     -1652.957 8        51.744 8                                                                
R11  20038579.668 9 107080086.261 9      2505.164 9        55.404 9  20038580.672 8  83284531.150 8      1948.283 8        51.252 8
R20  21464014.418 6 114777714.962 6     -3384.561 6        40.273 6  21464019.863 7  89271584.592 7     -2632.248 7        46.787 7
R21  19653597.727 9 105170368.183 9       180.635 9        55.032 9  19653599.875 8  81799198.882 8       140.426 8        51.044 8
C01  37563360.734 7 195602277.418 7        27.998 7        44.082 7  37563369.105 7 151252118.845 7        22.035 7        45.456 7  37563377.469 7 158942943.561 7        22.939 7        43.387 7
C02  37768051.617 6 196668158.498 6        22.842 6        41.502 6  37768057.520 7 152076312.567 7        17.445 7        45.275 7  37768066.816 7 159809050.409 7        18.564 7        42.680 7
C03  37023252.836 7 192789799.557 7        51.162 7        45.556 7  37023260.313 7 149077326.066 7        39.594 7        47.459 7  37023267.016 7 156657558.875 7        41.670 7        44.682 7
C04  38588899.395 6 200942528.287 6        21.904 6        39.788 6  38588906.836 7 155381534.619 7        16.918 7        44.065 7  38588914.590 7 163282324.734 7        17.588 7        42.251 7
C05  39463895.801 6 205498859.837 6        28.193 6        39.134 6  39463906.891 7 158904792.972 7        21.977 7        43.070 7  39463912.898 6 166984725.851 6        22.998 6        39.880 6
C06  39343608.723 7 204872486.060 7     -1804.229 7        42.090 7  39343619.492 7 158420438.311 7     -1394.898 7        42.251 7  39343623.984 6 166475740.199 6     -1466.455 6        41.309 6
C07  36282150.688 8 188930682.963 8       289.893 8        48.603 8  36282155.195 8 146093201.074 8       223.852 8        49.674 8  36282160.340 8 153521692.864 8       235.381 8        48.836 8
C08  38307581.285 7 199477633.734 7      1745.166 7        42.006 7  38307588.367 7 154248786.457 7      1349.242 7        44.786 7  38307592.746 7 162091964.870 7      1418.135 7        42.251 7
C09  38827931.121 6 202187223.382 6     -1799.834 6        41.276 6  38827941.961 7 156344023.170 7     -1391.676 7        44.651 7  38827946.664 7 164293734.370 7     -1462.334 7        42.225 7
C10  36701170.590 7 191112629.077 7       415.381 7        47.049 7  36701179.176 8 147780434.877 8       321.488 8        48.634 8  36701183.402 7 155294716.549 7       337.627 7        46.833 7
C11  24121918.664 7 125609152.855 7     -2465.186 7        45.100 7  24121926.930 7  97128998.823 7     -1906.344 7        47.593 7  24121932.230 7 102067785.271 7     -2003.193 7        47.427 7
C13  39024490.773 7 203210769.890 7      1623.584 7        43.488 7  39024507.621 6 157135522.344 6      1255.375 6        41.950 6  39024510.141 6 165125478.646 6      1319.365 6        41.893 6
C16  39654196.215 6 206489791.067 6     -1747.354 6        38.027 6  39654214.746 6 159671061.248 6     -1351.930 6        39.498 6  39654214.754 5 167789957.204 5     -1420.576 5        35.544 5
S37  36962871.406 7 194241199.663 7         2.209 7        42.632 7
> 2022 06 21 01 08 30.0000000  0 27       0.000000000000
G01  19920748.598 8 104684240.746 8      -319.154 8        50.401 8  19920765.141 8  81572204.087 8      -248.811 8        50.226 8
G03  23889794.266 6 125541720.341 6      2830.260 6        39.024 6  23889813.355 8  97824779.504 8      2205.682 8        49.159 8
G07  21047045.719 7 110602965.220 7     -2086.615 7        47.067 7  21047059.258 8  86184186.139 8     -1625.744 8        50.226 8
G08  23168354.129 7 121750515.285 7     -2326.166 7        43.488 7  23168370.426 7  94870568.105 7     -1812.346 7        44.159 7
G14  21806697.555 7 114594968.901 7      2359.518 7        46.683 7  21806712.121 8  89294846.675 8      1838.494 8        49.800 8
G17  22575481.941 7 118634959.842 7      1430.006 7        44.590 7  22575497.469 8  92442895.337 8      1114.881 8        50.226 8
G21  21918976.918 7 115184999.063 7     -2670.268 7        47.491 7  21918989.297 8  89754599.821 8     -2080.705 8        49.728 8
G30  21166807.078 8 111232319.631 8      -376.146 8        48.357 8  21166823.219 8  86674602.546 8      -293.244 8        50.226 8
R09  22936453.914 7 122479351.410 7     -3920.875 7        45.353 7  22936457.492 7  95261743.509 7     -3049.582 7        42.775 7
R10  19687447.477 8 104945173.153 8     -1660.029 8        51.961 8                                                                
R11  20033896.449 9 107055063.775 9      2499.516 9        55.737 9  20033898.742 8  83265069.230 8      1944.184 8        51.785 8
R20  21470343.730 6 114811567.229 6     -3386.049 6        39.645 6  21470351.320 7  89297914.121 7     -2633.555 7        47.204 7
R21  19653265.176 9 105168594.300 9       174.480 9        54.828 9  19653269.902 8  81797819.203 8       135.738 8        51.282 8
C01  37563306.285 7 195601993.843 7        28.570 7        44.100 7  37563314.547 7 151251899.564 7        22.105 7        45.418 7  37563323.023 7 158942713.129 7        22.977 7        43.366 7
C02  37768007.719 6 196667931.036 6        22.848 6        41.564 6  37768014.266 7 152076136.668 7        17.945 7        45.366 7  37768023.102 7 159808865.562 7        18.582 7        42.798 7
C03  37023154.527 7 192789287.766 7        51.422 7        45.531 7  37023161.750 7 149076930.292 7        40.035 7        47.370 7  37023168.801 7 156657142.996 7        41.844 7        44.712 7
C04  38588856.785 6 200942306.922 6        21.949 6        39.597 6  38588863.938 7 155381363.443 7        17.301 7        43.720 7  38588872.160 7 163282144.856 7        17.996 7        42.034 7
C05  39463841.602 6 205498574.688 6        28.453 6        39.597 6  39463851.938 7 158904572.451 7        22.145 7        42.868 7  39463858.250 6 166984494.127 6        23.504 6        39.597 6
C06  39347073.656 7 204890527.542 7     -1804.613 7        42.062 7  39347084.066 7 158434389.092 7     -1394.906 7        42.198 7  39347088.492 6 166490400.310 6     -1465.715 6        41.107 6
C07  36281593.445 8 188927782.205 8       290.348 8        48.535 8  36281598.383 8 146090958.012 8       224.430 8        49.641 8  36281603.285 8 153519335.753 8       235.633 8        48.670 8
C08  38304230.746 6 199460186.533 6      1744.684 6        41.978 6  38304238.152 7 154235295.186 7      1348.785 7        45.100 7  38304242.137 7 162077787.594 7      1417.371 7        42.171 7
C09  38831388.184 6 202205220.983 6     -1799.301 6        41.921 6  38831398.523 7 156357940.033 7     -1391.605 7        44.860 7  38831402.492 7 164308358.858 7     -1462.063 7        42.034 7
C10  36700371.918 7 191108469.435 7       416.363 7        47.204 7  36700380.145 8 147777218.377 8       322.027 8        48.566 8  36700384.641 7 155291336.496 7       338.250 7        46.683 7
C11  24126653.215 7 125633806.890 7     -2465.434 7        45.086 7  24126662.266 8  97148062.872 8     -1906.215 8        48.422 8  24126666.988 7 102087818.674 7     -2003.098 7        47.427 7
C13  39021373.223 7 203194535.339 7      1623.688 7        43.468 7  39021389.320 6 157122968.779 6      1255.074 6        41.806 6  39021392.672 6 165112286.780 6      1319.246 6        41.835 6
C16  39657552.539 6 206507269.306 6     -1746.957 6        38.165 6  39657571.430 6 159684576.475 6     -1351.430 6        39.241 6  39657571.477 5 167804159.660 5     -1420.168 5        35.544 5
S37  36962867.289 7 194241177.466 7         2.135 7        42.583 7
> 2022 06 21 01 08 40.0000000  0 27       0.000000000000
G01  19921363.594 8 104687470.956 8      -326.873 8        50.449 8  19921379.188 8  81574718.132 8      -254.570 8        50.226 8
G03  23884408.559 6 125513422.405 6      2828.635 6        39.024 6  23884427.688 8  97802729.233 8      2203.711 8        48.927 8
G07  21051021.230 7 110623859.777 7     -2092.303 7        46.796 7  21051035.738 8  86200467.593 8     -1630.508 8        50.226 8
G08  23172780.805 7 121773780.341 7     -2327.244 7        43.407 7  23172797.691 7  94888696.721 7     -1813.301 7        43.684 7
G14  21802209.031 7 114571379.979 7      2357.814 7        46.693 7  21802223.113 8  89276465.703 8      1837.344 8        49.776 8
G17  22572763.039 7 118620671.932 7      1427.365 7        44.368 7  22572778.750 8  92431761.958 8      1111.934 8        50.226 8
G21  21924061.961 7 115211721.099 7     -2674.236 7        47.296 7  21924074.168 8  89775422.189 8     -2083.809 8        49.653 8
G30  21167529.105 8 111236113.677 8      -382.889 8        48.285 8  21167545.215 8  86677558.941 8      -298.223 8        50.226 8
R09  22943797.543 7 122518577.623 7     -3924.213 7        46.199 7  22943801.125 7  95292252.708 7     -3052.336 7        42.680 7
R10  19690568.344 8 104961811.038 8     -1667.639 8        51.904 8                                                                
R11  20029223.207 9 107030097.143 9      2493.619 9        55.357 9  20029225.785 8  83245650.742 8      1939.418 8        51.896 8
R20  21476677.859 6 114845435.934 6     -3388.783 6        40.231 6  21476682.875 7  89324256.414 7     -2634.943 7        47.136 7
R21  19652946.328 9 105166883.576 9       167.643 9        54.803 9  19652950.770 8  81796488.637 8       130.326 8        51.030 8
C01  37563251.570 7 195601710.011 7        27.939 7        44.319 7  37563259.836 7 151251680.103 7        21.723 7        45.366 7  37563268.520 7 158942482.484 7        22.869 7        43.325 7
C02  37767963.992 6 196667703.095 6        22.705 6        41.595 6  37767970.145 7 152075960.418 7        17.387 7        45.481 7  37767979.668 7 159808680.356 7        18.084 7        42.533 7
C03  37023056.277 7 192788775.622 7        50.889 7        45.605 7  37023063.398 7 149076534.288 7        39.359 7        47.136 7  37023070.328 7 156656726.830 7        41.600 7        44.651 7
C04  38588813.664 6 200942085.461 6        21.631 6        39.834 6  38588821.820 7 155381192.188 7        16.898 7        43.941 7  38588829.633 7 163281964.896 7        17.771 7        42.034 7
C05  39463786.461 6 205498289.129 6        28.291 6        39.241 6  39463797.082 7 158904351.625 7        21.977 7        42.458 7  39463803.445 6 166984262.087 6        22.967 6        39.926 6
C06  39350537.324 7 204908565.614 7     -1803.760 7        42.006 7  39350548.234 7 158448337.254 7     -1394.566 7        42.558 7  39350552.406 6 166505057.731 6     -1465.998 6        40.931 6
C07  36281036.055 8 188924878.242 8       290.166 8        48.510 8  36281040.418 8 146088712.465 8       224.555 8        49.641 8  36281045.539 8 153516976.033 8       235.701 8        48.730 8
C08  38300881.234 6 199442747.777 6      1742.998 6        41.950 6  38300889.000 7 154221810.456 7      1347.719 7        44.974 7  38300893.207 7 162063617.201 7      1416.385 7        42.407 7
C09  38834845.270 7 202223220.637 7     -1800.205 7        42.062 7  38834855.105 7 156371858.480 7     -1392.262 7        44.757 7  38834859.012 7 164322985.060 7     -1463.303 7        42.062 7
C10  36699572.055 7 191104304.913 7       416.787 7        47.075 7  36699580.391 8 147773998.109 8       321.996 8        48.473 8  36699584.848 7 155287952.494 7       338.494 7        46.833 7
C11  24131388.219 7 125658463.399 7     -2466.455 7        45.288 7  24131397.129 8  97167128.797 8     -1906.773 8        48.055 8  24131402.180 7 102107854.087 7     -2003.869 7        47.585 7
C13  39018256.633 7 203178306.426 7      1622.314 7        43.427 7  39018272.621 6 157110419.563 6      1254.477 6        41.717 6  39018276.258 6 165099099.495 6      1317.049 6        41.864 6
C16  39660908.676 6 206524742.422 6     -1748.701 6        38.795 6  39660926.848 6 159698087.682 6     -1350.348 6        38.616 6  39660927.035 5 167818357.896 5     -1418.986 5        35.666 5
S37  36962863.410 7 194241155.009 7         1.896 7        42.728 7
> 2022 06 21 01 08 50.0000000  0 27       0.000000000000
G01  19921991.992 8 104690772.575 8      -334.359 8        50.733 8  19922008.090 8  81577292.821 8      -260.408 8        50.226 8
G03  23879025.379 6 125485131.892 6      2828.570 6        39.448 6  23879044.066 8  97780684.663 8      2204.162 8        48.592 8
G07  21055007.852 7 110644806.605 7     -2097.719 7        47.722 7  21055021.703 8  86216789.772 8     -1634.471 8        50.226 8
G08  23177208.441 7 121797045.063 7     -2326.625 7        43.758 7  23177224.754 7  94906825.082 7     -1813.357 7        43.543 7
G14  21797723.184 7 114547807.399 7      2355.875 7        46.528 7  21797737.277 8  89258097.479 8      1835.764 8        49.431 8
G17  22570048.094 7 118606403.438 7      1425.133 7        44.559 7  22570063.191 8  92420643.658 8      1110.939 8        50.226 8
G21  21929152.828 7 115238475.587 7     -2677.465 7        47.395 7  21929165.605 8  89796269.831 8     -2086.287 8        49.513 8
G30  21168262.961 8 111239972.447 8      -389.613 8        48.466 8  21168279.617 8  86680565.775 8      -303.611 8        50.226 8
R09  22951150.148 7 122557833.842 7     -3927.363 7        46.387 7  22951152.727 7  95322785.255 7     -3054.693 7        42.959 7
R10  19693703.629 8 104978522.447 8     -1675.201 8        51.738 8                                                                
R11  20024562.090 9 107005186.851 9      2487.771 9        55.022 9  20024564.953 8  83226276.082 8      1934.949 8        52.079 8
R20  21483014.523 6 114879321.423 6     -3389.201 6        39.645 6  21483020.395 7  89350611.816 7     -2636.268 7        46.805 7
R21  19652637.172 9 105165236.539 9       160.895 9        54.886 9  19652642.184 8  81795207.601 8       125.252 8        51.016 8
C01  37563197.316 7 195601426.434 7        28.084 7        44.202 7  37563205.688 7 151251460.829 7        21.547 7        45.058 7  37563214.051 7 158942252.049 7        22.932 7        43.682 7
C02  37767920.254 6 196667475.223 6        21.971 6        41.564 6  37767926.262 7 152075784.196 7        17.113 7        45.168 7  37767935.664 7 159808495.172 7        18.088 7        42.775 7
C03  37022958.164 7 192788263.685 7        50.525 7        45.785 7  37022965.141 7 149076138.396 7        39.613 7        47.075 7  37022972.137 7 156656310.841 7        40.998 7        44.605 7
C04  38588771.211 6 200941864.313 6        22.244 6        39.971 6  38588779.367 7 155381021.212 7        16.957 7        43.682 7  38588787.426 7 163281785.221 7        17.873 7        42.433 7
C05  39463730.914 6 205498003.599 6        28.318 6        39.294 6  39463742.363 7 158904130.850 7        21.547 7        43.092 7  39463748.629 6 166984030.085 6        22.697 6        40.315 6
C06  39354000.840 7 204926600.830 7     -1804.025 7        42.225 7  39354011.785 7 158462283.190 7     -1395.484 7        42.198 7  39354015.973 6 166519712.776 6     -1466.072 6        40.672 6
C07  36280477.758 8 188921971.567 8       290.428 8        48.622 8  36280482.551 8 146086464.833 8       224.809 8        49.631 8  36280487.430 8 153514614.120 8       235.666 8        48.778 8
C08  38297534.543 7 199425318.194 7      1741.502 7        42.034 7  38297542.020 7 154208332.771 7      1347.191 7        45.182 7  38297546.297 7 162049454.217 7      1415.510 7        42.356 7
C09  38838301.883 6 202241222.883 6     -1800.881 6        41.626 6  38838312.184 7 156385778.915 7     -1392.281 7        45.045 7  38838316.090 6 164337613.314 6     -1463.201 6        41.893 6
C10  36698771.109 7 191100136.014 7       416.971 7        46.969 7  36698779.410 8 147770774.443 8       322.328 8        48.383 8  36698784.223 7 155284564.908 7       338.771 7        46.915 7
C11  24136124.074 7 125683122.811 7     -2466.408 7        45.690 7  24136132.051 8  97186197.000 8     -1907.008 8        48.312 8  24136137.668 7 102127891.855 7     -2004.041 7        47.538 7
C13  39015141.352 7 203162083.659 7      1620.994 7        43.625 7  39015157.023 6 157097875.085 6      1253.734 6        41.776 6  39015160.984 7 165085917.150 7      1317.639 7        42.356 7
C16  39664263.797 6 206542210.778 6     -1747.111 6        39.024 6  39664281.363 6 159711595.307 6     -1350.836 6        38.298 6  39664281.719 5 167832552.335 5     -1418.670 5        35.666 5
S37  36962859.199 7 194241132.828 7         1.871 7        43.135 7
> 2022 06 21 01 09  0.0000000  0 27       0.000000000000
G01  19922633.809 8 104694145.580 8      -341.250 8        50.699 8  19922649.895 8  81579921.123 8      -265.637 8        50.226 8
G03  23873644.027 6 125456849.013 6      2827.227 6        39.971 6  23873661.672 8  97758646.076 8      2203.133 8        49.046 8
G07  21059003.887 7 110665805.621 7     -2103.008 7        47.826 7  21059017.238 8  86233152.634 8     -1638.859 8        50.226 8
G08  23181634.465 7 121820309.813 7     -2326.855 7        42.171 7  23181652.883 7  94924953.458 7     -1813.508 7        43.204 7
G14  21793240.449 7 114524251.194 7      2354.219 7        46.428 7  21793254.617 8  89239741.994 8      1834.461 8        49.645 8
G17  22567336.555 7 118592154.356 7      1423.535 7        44.335 7  22567350.832 8  92409540.493 8      1109.012 8        50.226 8
G21  21934250.527 7 115265262.412 7     -2680.723 7        47.370 7  21934262.719 8  89817142.650 8     -2088.898 8        49.244 8
G30  21169009.809 8 111243895.938 8      -396.172 8        48.331 8  21169026.121 8  86683623.018 8      -308.332 8        50.226 8
R09  22958506.305 7 122597119.944 7     -3930.656 7        46.468 7  22958510.602 7  95353341.059 7     -3057.238 7        43.527 7
R10  19696854.496 8 104995307.170 8     -1682.633 8        51.995 8                                                                
R11  20019911.113 9 106980332.978 9      2482.311 9        55.093 9  20019914.980 8  83206945.291 8      1930.451 8        51.438 8
R20  21489350.582 6 114913223.573 6     -3391.383 6        39.188 6  21489360.750 7  89376980.129 7     -2637.953 7        46.397 7
R21  19652342.020 9 105163653.002 9       154.943 9        54.925 9  19652347.035 8  81793975.986 8       120.439 8        50.829 8
C01  37563143.133 7 195601143.152 7        27.900 7        44.048 7  37563150.969 7 151251241.768 7        21.504 7        45.182 7  37563159.863 7 158942021.864 7        22.699 7        43.625 7
C02  37767876.625 6 196667247.455 6        22.119 6        41.470 6  37767882.418 7 152075608.057 7        17.520 7        45.086 7  37767891.793 7 159808310.087 7        18.324 7        42.751 7
C03  37022859.625 7 192787751.924 7        50.889 7        45.654 7  37022866.922 7 149075742.684 7        39.336 7        47.110 7  37022873.797 7 156655894.998 7        41.176 7        44.917 7
C04  38588729.410 6 200941643.684 6        21.572 6        40.015 6  38588736.707 7 155380850.601 7        16.602 7        43.758 7  38588744.949 7 163281605.924 7        17.523 7        42.533 7
C05  39463676.020 6 205497718.187 6        28.037 6        39.188 6  39463687.609 7 158903910.123 7        21.387 7        42.775 7  39463694.027 6 166983798.140 6        22.738 6        39.880 6
C06  39357463.895 6 204944633.167 6     -1802.471 6        41.978 6  39357474.230 7 158476226.904 7     -1394.512 7        42.034 7  39357478.688 6 166534365.496 6     -1464.586 6        40.477 6
C07  36279919.246 8 188919062.265 8       290.693 8        48.789 8  36279923.719 8 146084215.175 8       224.648 8        49.553 8  36279928.629 8 153512250.067 8       236.391 8        48.754 8
C08  38294189.711 7 199407897.636 7      1741.279 7        42.198 7  38294196.258 7 154194862.117 7      1346.563 7        44.889 7  38294200.785 7 162035298.595 7      1414.691 7        42.483 7
C09  38841758.746 6 202259227.601 6     -1799.854 6        41.533 6  38841770.195 7 156399701.291 7     -1392.598 7        45.058 7  38841773.793 6 164352243.611 6     -1463.629 6        41.864 6
C10  36697969.918 7 191095962.741 7       416.982 7        47.170 7  36697977.715 8 147767547.410 8       322.520 8        48.232 8  36697982.816 7 155281173.795 7       338.598 7        47.153 7
C11  24140860.395 7 125707785.169 7     -2467.100 7        45.969 7  24140868.086 8  97205267.494 8     -1907.324 8        48.138 8  24140873.738 7 102147932.027 7     -2004.391 7        47.238 7
C13  39012027.402 7 203145867.171 7      1620.889 7        43.795 7  39012042.820 7 157085335.491 7      1253.281 7        42.006 7  39012046.813 7 165072739.941 7      1316.625 7        42.632 7
C16  39667617.457 6 206559674.503 6     -1746.338 6        39.448 6  39667634.594 6 159725099.309 6     -1349.785 6        37.507 6  39667635.609 5 167846743.021 5     -1419.273 5        35.785 5
S37  36962854.672 7 194241111.023 7         1.719 7        42.607 7
> 2022 06 21 01 09 10.0000000  0 27       0.000000000000
G01  19923288.594 8 104697589.330 8      -347.291 8        50.146 8  19923299.211 7  81582580.572 7      -270.549 7        43.428 7
G03  23868263.051 6 125428573.243 6      2827.592 6        40.397 6  23868280.852 8  97736613.042 8      2203.436 8        49.411 8
G07  21063009.027 7 110686856.163 7     -2107.096 7        46.924 7  21063022.848 8  86249555.636 8     -1641.877 8        50.226 8
G08  23186062.012 7 121843573.887 7     -2325.221 7        42.558 7  23186080.086 7  94943081.275 7     -1812.346 7        42.974 7
G14  21788760.809 7 114500710.854 7      2353.705 7        46.712 7  21788775.188 8  89221398.867 8      1834.158 8        49.686 8
G17  22564628.531 7 118577924.052 7      1423.256 7        44.065 7  22564642.758 8  92398451.968 8      1108.533 8        50.226 8
G21  21939353.754 7 115292080.872 7     -2682.818 7        47.767 7  21939365.785 8  89838040.148 8     -2090.490 8        49.330 8
G30  21169769.195 8 111247883.513 8      -401.256 8        48.854 8  21169784.977 8  86686730.216 8      -312.814 8        50.226 8
R09  22965869.137 7 122636435.198 7     -3932.344 7        47.040 7  22965873.434 7  95383919.533 7     -3058.518 7        45.100 7
R10  19700015.188 8 105012165.007 8     -1688.559 8        51.647 8                                                                
R11  20015269.965 9 106955535.156 9      2477.732 9        54.870 9  20015272.828 8  83187658.077 8      1927.199 8        50.785 8
R20  21495696.754 6 114947141.531 6     -3392.035 6        39.926 6  21495701.336 7  89403360.771 7     -2638.217 7        46.796 7
R21  19652057.699 9 105162132.486 9       149.662 9        55.033 9  19652062.855 8  81792793.351 8       116.465 8        50.706 8
C01  37563088.359 7 195600859.551 7        29.225 7        43.941 7  37563096.766 7 151251022.470 7        22.572 7        45.275 7  37563105.305 7 158941791.415 7        23.859 7        43.758 7
C02  37767832.762 6 196667019.172 6        23.443 6        41.687 6  37767839.059 7 152075431.548 7        18.256 7        45.154 7  37767848.094 7 159808124.600 7        19.035 7        42.704 7
C03  37022761.711 7 192787239.785 7        52.154 7        45.738 7  37022768.578 7 149075346.663 7        40.248 7        47.187 7  37022775.375 7 156655478.847 7        42.199 7        44.816 7
C04  38588686.906 6 200941422.818 6        23.053 6        39.880 6  38588694.309 7 155380679.810 7        17.533 7        43.682 7  38588702.402 7 163281426.474 7        18.449 7        42.458 7
C05  39463621.637 6 205497432.227 6        29.654 6        39.645 6  39463632.441 7 158903689.012 7        22.572 7        43.003 7  39463638.926 6 166983565.762 6        24.035 6        39.834 6
C06  39360926.281 6 204962662.050 6     -1801.107 6        41.806 6  39360936.227 6 158490167.965 6     -1393.658 6        41.626 6  39360940.941 6 166549015.423 6     -1463.875 6        40.231 6
C07  36279359.895 8 188916149.740 8       292.076 8        48.712 8  36279363.973 8 146081963.019 8       225.795 8        49.478 8  36279369.406 8 153509883.406 8       237.414 8        48.688 8
C08  38290845.254 7 199390485.579 7      1741.471 7        42.251 7  38290852.551 7 154181398.029 7      1346.752 7        45.045 7  38290856.996 7 162021149.897 7      1415.012 7        42.144 7
C09  38845216.523 6 202277234.291 6     -1799.564 6        41.502 6  38845227.934 7 156413625.164 7     -1391.822 7        45.086 7  38845231.797 6 164366875.479 6     -1462.410 6        41.806 6
C10  36697167.633 7 191091784.529 7       418.854 7        47.288 7  36697175.359 8 147764316.539 8       323.588 8        48.219 8  36697180.461 7 155277778.640 7       340.285 7        46.987 7
C11  24145597.055 7 125732449.793 7     -2466.088 7        45.855 7  24145605.211 8  97224339.728 8     -1906.666 8        48.151 8  24145610.168 7 102167974.051 7     -2003.797 7        47.263 7
C13  39008913.715 7 203129656.255 7      1621.393 7        43.586 7  39008929.422 6 157072800.183 6      1254.213 6        41.776 6  39008933.641 7 165059567.279 7      1317.199 7        42.407 7
C16  39670970.168 6 206577132.909 6     -1744.799 6        39.548 6  39670986.551 6 159738599.194 6     -1349.107 6        37.093 6  39670988.492 5 167860929.319 5     -1417.137 5        35.901 5
S37  36962850.660 7 194241088.896 7         2.885 7        42.583 7
> 2022 06 21 01 09 20.0000000  0 27       0.000000000000
G01  19923957.887 8 104701103.872 8      -354.977 8        50.556 8  19923974.184 8  81585343.175 8      -276.682 8        50.226 8
G03  23862883.563 6 125400304.811 6      2826.508 6        39.788 6  23862901.508 8  97714585.705 8      2202.596 8        49.648 8
G07  21067024.953 7 110707958.217 7     -2112.828 7        47.362 7  21067038.461 8  86265998.789 8     -1646.545 8        50.226 8
G08  23190488.898 7 121866837.480 7     -2326.109 7        42.382 7  23190506.598 7  94961208.730 7     -1812.814 7        43.289 7
G14  21784284.086 7 114477186.551 7      2351.352 7        45.935 7  21784298.684 8  89203068.262 8      1832.205 8        49.659 8
G17  22561923.434 7 118563712.572 7      1419.984 7        43.720 7  22561939.387 8  92387378.105 8      1106.639 8        50.226 8
G21  21944463.332 7 115318930.985 7     -2686.754 7        47.370 7  21944475.363 8  89858962.299 8     -2093.615 8        49.082 8
G30  21170539.508 8 111251935.244 8      -408.316 8        48.172 8  21170556.066 8  86689887.391 8      -317.971 8        50.226 8
R09  22973235.609 7 122675779.733 7     -3936.094 7        45.889 7  22973244.348 7  95414520.774 7     -3061.195 7        45.581 7
R10  19703189.406 8 105029095.729 8     -1696.738 8        51.620 8                                                                
R11  20010640.188 9 106930793.583 9      2471.521 9        55.190 9  20010643.195 8  83168414.654 8      1922.373 8        51.282 8
R20  21502045.703 6 114981075.483 6     -3393.854 6        39.834 6  21502049.000 7  89429753.821 7     -2640.271 7        45.958 7
R21  19651786.328 9 105160674.792 9       142.646 9        55.010 9  19651790.195 8  81791659.581 8       111.246 8        50.626 8
C01  37563033.789 7 195600575.736 7        28.158 7        44.151 7  37563041.945 7 151250803.028 7        21.951 7        45.418 7  37563050.723 7 158941560.793 7        23.244 7        43.468 7
C02  37767788.883 6 196666790.503 6        22.729 6        41.806 6  37767795.109 7 152075254.723 7        17.850 7        45.222 7  37767804.137 7 159807938.806 7        18.420 7        42.508 7
C03  37022663.098 7 192786727.357 7        51.225 7        45.678 7  37022669.969 7 149074950.419 7        39.822 7        47.263 7  37022677.051 7 156655062.441 7        41.799 7        44.845 7
C04  38588644.281 6 200941201.886 6        22.318 6        39.971 6  38588652.184 7 155380508.983 7        16.600 7        43.795 7  38588659.969 7 163281246.937 7        17.854 7        42.144 7
C05  39463566.563 6 205497145.925 6        28.627 6        39.134 6  39463577.832 7 158903467.580 7        21.912 7        42.981 7  39463583.852 6 166983333.081 6        23.127 6        40.059 6
C06  39364387.941 6 204980687.561 6     -1801.822 6        41.921 6  39364397.781 6 158504106.394 6     -1394.066 6        41.921 6  39364402.832 6 166563662.590 6     -1464.510 6        40.146 6
C07  36278800.316 8 188913234.016 8       291.674 8        48.688 8  36278803.855 8 146079708.396 8       225.525 8        49.304 8  36278809.367 8 153507514.141 8       236.857 8        48.652 8
C08  38287503.000 7 199373082.294 7      1739.252 7        42.034 7  38287510.586 7 154167940.690 7      1346.170 7        44.974 7  38287514.641 7 162007008.289 7      1413.615 7        42.483 7
C09  38848675.535 6 202295243.074 6     -1801.236 6        41.533 6  38848686.766 7 156427550.652 7     -1392.504 7        45.003 7  38848690.109 6 164381509.062 6     -1463.885 6        41.776 6
C10  36696364.113 7 191087601.423 7       418.197 7        47.255 7  36696372.305 8 147761081.890 8       323.807 8        48.144 8  36696377.035 7 155274379.525 7       340.080 7        47.023 7
C11  24150333.805 7 125757116.793 7     -2467.193 7        45.820 7  24150342.715 8  97243413.793 8     -1907.680 8        48.548 8  24150347.086 7 102188018.000 7     -2004.627 7        46.787 7
C13  39005802.199 7 203113451.019 7      1620.307 7        43.701 7  39005817.973 7 157060269.268 7      1253.436 7        42.508 7  39005821.328 7 165046399.179 7      1317.014 7        42.458 7
C16  39674322.328 6 206594586.074 6     -1745.279 6        39.834 6  39674337.711 6 159752095.078 6     -1349.984 6        37.093 6  39674340.535 6 167875111.425 6     -1417.303 6        36.014 6
S37  36962846.418 7 194241066.564 7         2.152 7        42.680 7
> 2022 06 21 01 09 30.0000000  0 27       0.000000000000
G01  19924640.285 8 104704689.332 8      -362.115 8        50.116 8  19924656.395 8  81588138.029 8      -282.234 8        50.226 8
G03  23857505.301 6 125372043.979 6      2825.189 6        39.448 6  23857523.816 8  97692564.302 8      2201.848 8        49.880 8
G07  21071050.262 7 110729111.923 7     -2118.072 7        46.377 7  21071064.273 8  86282482.178 8     -1650.633 8        50.226 8
G08  23194915.438 6 121890100.449 6     -2326.471 6        41.470 6  23194933.410 7  94979335.702 7     -1812.977 7        43.626 7
G14  21779810.883 7 114453678.509 7      2349.564 7        45.519 7  21779825.164 8  89184750.313 8      1830.871 8        49.312 8
G17  22559223.281 7 118549520.041 7      1417.904 7        43.488 7  22559238.633 8  92376319.023 8      1105.402 8        50.226 8
G21  21949578.570 7 115345812.784 7     -2689.986 7        47.014 7  21949590.535 8  89879909.144 8     -2096.043 8        49.004 8
G30  21171323.074 7 111256051.263 7      -415.025 7        47.562 7  21171339.129 8  86693094.672 8      -323.621 8        50.226 8
R09  22980609.465 7 122715153.580 7     -3938.936 7        45.901 7  22980613.906 7  95445144.810 7     -3063.402 7        46.002 7
R10  19706382.609 8 105046099.576 8     -1704.111 8        51.841 8                                                                
R11  20006021.379 9 106906108.532 9      2465.631 9        55.164 9  20006023.383 8  83149215.174 8      1917.354 8        51.299 8
R20  21508392.875 6 115015025.555 6     -3395.779 6        39.498 6  21508398.316 7  89456159.425 7     -2641.209 7        46.356 7
R21  19651525.781 9 105159280.085 9       136.287 9        55.467 9  19651529.793 8  81790574.822 8       105.795 8        51.062 8
C01  37562979.332 7 195600291.871 7        27.887 7        44.151 7  37562987.563 7 151250583.500 7        22.313 7        45.418 7  37562996.398 7 158941330.153 7        22.875 7        43.427 7
C02  37767745.340 6 196666561.576 6        22.789 6        41.656 6  37767750.848 7 152075077.702 7        17.234 7        45.100 7  37767760.145 7 159807752.759 7        18.402 7        42.607 7
C03  37022564.750 7 192786214.763 7        51.285 7        45.797 7  37022571.906 7 149074554.047 7        39.656 7        47.280 7  37022578.781 7 156654645.931 7        41.605 7        44.874 7
C04  38588602.273 6 200940980.979 6        22.164 6        40.273 6  38588609.680 7 155380338.152 7        16.941 7        43.850 7  38588617.477 7 163281067.438 7        17.504 7        42.117 7
C05  39463511.000 6 205496859.298 6        28.492 6        39.346 6  39463522.590 7 158903245.927 7        22.352 7        42.607 7  39463528.695 6 166983100.167 6        23.344 6        39.597 6
C06  39367849.293 6 204998709.747 6     -1802.035 6        41.950 6  39367858.379 6 158518042.222 6     -1393.117 6        41.656 6  39367864.031 6 166578307.082 6     -1464.801 6        40.189 6
C07  36278239.707 8 188910315.439 8       291.754 8        48.658 8  36278243.145 8 146077451.574 8       225.652 8        49.273 8  36278248.910 8 153505142.557 8       237.133 8        48.634 8
C08  38284162.621 7 199355687.798 7      1738.238 7        42.117 7  38284169.953 7 154154490.183 7      1344.910 7        44.960 7  38284174.254 7 161992873.858 7      1412.426 7        42.483 7
C09  38852134.809 6 202313253.892 6     -1801.742 6        41.776 6  38852145.289 7 156441477.724 7     -1392.980 7        45.072 7  38852148.941 6 164396144.308 6     -1464.234 6        41.656 6
C10  36695560.324 7 191083413.649 7       418.844 7        47.395 7  36695567.941 8 147757843.634 8       324.246 8        48.185 8  36695572.902 7 155270976.604 7       340.453 7        47.023 7
C11  24155071.070 7 125781786.197 7     -2466.977 7        45.593 7  24155080.621 8  97262489.728 8     -1907.883 8        48.917 8  24155084.395 7 102208063.893 7     -2004.645 7        46.712 7
C13  39002691.230 7 203097251.773 7      1619.781 7        43.720 7  39002707.039 7 157047743.022 7      1252.332 7        42.558 7  39002710.352 7 165033235.994 7      1315.922 7        42.225 7
C16  39677672.816 6 206612034.157 6     -1744.965 6        40.015 6  39677688.664 6 159765586.956 6     -1348.938 6        36.438 6  39677691.020 5 167889289.385 5     -1417.477 5        35.901 5
S37  36962842.117 7 194241044.201 7         2.396 7        42.251 7
> 2022 06 21 01 09 40.0000000  0 27       0.000000000000
G01  19925336.066 8 104708345.883 8      -368.908 8        50.331 8  19925352.121 8  81590985.299 8      -287.586 8        50.226 8
G03  23852128.691 6 125343791.055 6      2825.506 6        39.741 6  23852147.723 8  97670549.093 8      2201.418 8        50.226 8
G07  21075085.527 7 110750317.545 7     -2123.107 7        46.407 7  21075099.777 8  86299006.021 8     -1654.480 8        50.226 8
G08  23199342.344 7 121913362.965 7     -2326.018 7        42.171 7  23199359.730 7  94997462.295 7     -1812.449 7        43.778 7
G14  21775340.617 7 114430186.987 7      2348.494 7        45.469 7  21775354.609 8  89166445.246 8      1830.051 8        49.072 8
G17  22556526.066 7 118535346.634 7      1416.170 7        43.427 7  22556540.961 8  92365274.826 8      1103.781 8        50.226 8
G21  21954700.332 7 115372726.368 7     -2692.756 7        47.075 7  21954712.121 8  89900880.766 8     -2098.191 8        48.742 8
G30  21172118.305 7 111260231.748 7      -420.939 7        47.834 7  21172134.516 8  86696352.186 8      -328.055 8        50.226 8
R09  22987989.563 7 122754556.709 7     -3941.656 7        45.980 7  22987994.004 7  95475791.630 7     -3065.889 7        45.556 7
R10  19709586.063 8 105063176.349 8     -1711.303 8        51.675 8                                                                
R11  20001411.961 9 106881480.360 9      2460.098 9        55.455 9  20001414.824 8  83130059.929 8      1913.322 8        51.212 8
R20  21514743.852 6 115048991.568 6     -3397.682 6        40.517 6  21514750.152 7  89482577.406 7     -2642.271 7        46.879 7
R21  19651275.914 9 105157948.512 9       129.951 9        55.679 9  19651279.496 8  81789539.157 8       101.021 8        51.051 8
C01  37562924.777 7 195600008.128 7        28.463 7        43.959 7  37562932.863 7 151250364.093 7        22.105 7        45.443 7  37562941.699 7 158941099.562 7        23.289 7        43.701 7
C02  37767700.836 6 196666332.581 6        23.248 6        41.626 6  37767707.063 7 152074900.626 7        17.730 7        45.086 7  37767716.254 7 159807566.672 7        18.719 7        42.607 7
C03  37022466.230 7 192785702.255 7        51.236 7        45.630 7  37022473.563 7 149074157.736 7        39.664 7        47.370 7  37022480.305 7 156654229.457 7        42.020 7        44.889 7
C04  38588559.738 6 200940760.383 6        22.486 6        40.103 6  38588567.359 7 155380167.557 7        17.457 7        44.012 7  38588575.148 7 163280888.171 7        18.328 7        42.006 7
C05  39463456.051 6 205496572.630 6        29.088 6        39.294 6  39463466.961 7 158903024.262 7        22.184 7        42.433 7  39463473.625 6 166982867.235 6        23.367 6        39.548 6
C06  39371309.434 6 205016728.846 6     -1801.557 6        41.864 6  39371319.555 6 158531975.717 6     -1393.441 6        41.893 6  39371324.594 6 166592949.035 6     -1463.957 6        40.315 6
C07  36277678.500 8 188907394.003 8       292.604 8        48.517 8  36277682.113 8 146075192.544 8       226.031 8        49.418 8  36277687.695 8 153502768.654 8       237.625 8        48.504 8
C08  38280823.602 7 199338302.295 7      1738.482 7        42.006 7  38280831.508 7 154141046.633 7      1344.352 7        45.456 7  38280835.574 7 161978746.711 7      1412.820 7        42.433 7
C09  38855594.125 6 202331267.006 6     -1801.205 6        41.893 6  38855604.285 7 156455406.594 7     -1393.070 7        45.208 7  38855608.328 6 164410781.401 6     -1463.898 6        41.626 6
C10  36694755.285 7 191079221.370 7       419.518 7        47.403 7  36694763.086 8 147754601.900 8       324.469 8        48.390 8  36694767.793 7 155267570.051 7       340.965 7        47.084 7
C11  24159809.309 7 125806458.214 7     -2466.967 7        45.182 7  24159818.430 8  97281567.681 8     -1907.641 8        48.298 8  24159822.051 7 102228111.922 7     -2005.012 7        46.335 7
C13  38999581.730 7 203081058.646 7      1619.654 7        43.567 7  38999597.188 7 157035221.485 7      1251.734 7        42.798 7  38999600.563 7 165020077.753 7      1316.160 7        42.144 7
C16  39681022.598 6 206629477.290 6     -1743.471 6        39.880 6  39681037.691 6 159779075.103 6     -1348.285 6        36.231 6  39681041.000 5 167903463.314 5     -1416.828 5        35.901 5
S37  36962838.324 7 194241021.998 7         2.674 7        42.356 7
> 2022 06 21 01 09 50.0000000  0 27       0.000000000000
G01  19926045.164 8 104712073.154 8      -376.789 8        50.046 8  19926061.246 8  81593886.657 8      -293.504 8        50.226 8
G03  23846754.094 6 125315545.920 6      2823.152 6        40.059 6  23846772.895 8  97648539.909 8      2199.504 8        50.226 8
G07  21079130.953 7 110771574.398 7     -2128.801 7        47.296 7  21079144.676 8  86315569.777 8     -1658.484 8        50.226 8
G08  23203769.828 7 121936624.991 7     -2326.535 7        42.775 7  23203786.109 7  95015588.564 7     -1813.094 7        43.989 7
G14  21770873.223 7 114406711.785 7      2346.004 7        45.991 7  21770887.645 8  89148152.892 8      1828.137 8        49.019 8
G17  22553832.867 7 118521192.070 7      1413.855 7        44.417 7  22553847.734 8  92354245.333 8      1101.184 8        50.226 8
G21  21959827.820 7 115399671.365 7     -2696.438 7        47.119 7  21959839.969 8  89921876.850 8     -2101.063 8        48.959 8
G30  21172926.137 8 111264476.369 8      -428.371 8        48.199 8  21172942.262 8  86699659.656 8      -333.230 8        50.226 8
R09  22995370.523 7 122793988.755 7     -3945.037 7        45.702 7  22995379.117 7  95506460.923 7     -3068.357 7        45.248 7
R10  19712803.414 8 105080326.290 8     -1719.039 8        51.620 8                                                                
R11  19996814.434 9 106856909.114 9      2454.000 9        55.131 9  19996816.723 8  83110948.973 8      1908.410 8        51.626 8
R20  21521098.695 6 115082973.052 6     -3399.209 6        40.595 6  21521105.570 7  89509007.464 7     -2644.195 7        46.616 7
R21  19651039.223 9 105156679.737 9       123.443 9        55.546 9  19651043.094 8  81788552.336 8        96.168 8        51.013 8
C01  37562870.406 7 195599724.206 7        27.932 7        44.100 7  37562878.777 7 151250144.560 7        21.607 7        45.443 7  37562887.227 7 158940868.867 7        22.527 7        43.366 7
C02  37767656.625 6 196666103.204 6        22.561 6        41.470 6  37767662.852 7 152074723.233 7        17.623 7        45.456 7  37767672.039 7 159807380.278 7        18.152 7        42.728 7
C03  37022367.680 7 192785189.464 7        50.529 7        45.690 7  37022374.906 7 149073761.224 7        39.479 7        47.162 7  37022381.691 7 156653812.771 7        41.336 7        44.697 7
C04  38588517.496 6 200940539.730 6        21.232 6        40.273 6  38588525.152 7 155379996.935 7        16.607 7        44.352 7  38588532.898 7 163280708.873 7        17.703 7        42.607 7
C05  39463401.469 6 205496285.625 6        28.107 6        39.294 6  39463411.914 7 158902802.264 7        21.627 7        42.913 7  39463418.695 6 166982633.979 6        22.938 6        40.015 6
C06  39374769.078 6 205034744.511 6     -1801.443 6        41.502 6  39374778.988 7 158545906.513 7     -1393.314 7        42.171 7  39374784.305 6 166607588.201 6     -1464.328 6        40.189 6
C07  36277116.691 8 188904469.495 8       292.092 8        48.640 8  36277120.375 8 146072931.133 8       225.826 8        49.397 8  36277126.164 8 153500392.251 8       237.332 8        48.298 8
C08  38277486.563 7 199320925.561 7      1736.291 7        42.062 7  38277495.039 7 154127609.839 7      1342.975 7        45.519 7  38277498.539 7 161964626.683 7      1411.336 7        42.632 7
C09  38859053.379 6 202349282.076 6     -1802.010 6        41.978 6  38859064.184 7 156469336.963 7     -1393.471 7        45.366 7  38859067.852 6 164425420.115 6     -1464.563 6        41.595 6
C10  36693949.078 7 191075024.298 7       419.592 7        47.354 7  36693956.875 8 147751356.477 8       324.400 8        48.325 8  36693961.719 7 155264159.599 7       340.418 7        46.674 7
C11  24164546.945 7 125831132.411 7     -2467.771 7        44.989 7  24164556.566 8  97300647.319 8     -1908.568 8        48.795 8  24164560.430 7 102248161.700 7     -2005.324 7        46.508 7
C13  38996473.531 7 203064871.379 7      1618.107 7        43.682 7  38996488.199 7 157022704.496 7      1250.826 7        42.433 7  38996491.961 6 165006924.288 6      1314.324 6        41.978 6
C16  39684371.238 6 206646915.198 6     -1744.275 6        39.880 6  39684386.191 5 159792559.138 5     -1349.721 5        35.901 5  39684389.676 5 167917633.023 5     -1417.043 5        35.666 5
S37  36962834.109 7 194240999.655 7         1.902 7        42.278 7
> 2022 06 21 01 10  0.0000000  0 27       0.000000000000
G01  19926767.699 8 104715871.280 8      -383.369 8        49.830 8  19926784.039 8  81596849.242 8      -298.766 8        50.226 8
G03  23841381.199 6 125287308.731 6      2823.389 6        39.788 6  23841399.355 8  97626536.923 8      2199.807 8        49.897 8
G07  21083185.527 7 110792882.569 7     -2133.467 7        46.861 7  21083199.320 8  86332173.545 8     -1662.828 8        50.226 8
G08  23208196.582 7 121959886.438 7     -2326.629 7        42.981 7  23208212.625 7  95033714.308 7     -1812.594 7        44.485 7
G14  21766409.391 7 114383253.054 7      2344.873 7        46.047 7  21766423.441 8  89129873.387 8      1827.092 8        49.238 8
G17  22551143.230 7 118507056.483 7      1412.725 7        44.433 7  22551157.840 8  92343230.593 8      1100.648 8        50.226 8
G21  21964961.164 7 115426647.723 7     -2699.422 7        46.654 7  21964973.699 8  89942897.375 8     -2103.453 8        49.202 8
G30  21173746.688 8 111268785.242 8      -434.424 8        48.212 8  21173762.355 8  86703017.214 8      -338.277 8        50.226 8
R09  23002764.074 7 122833449.796 7     -3947.803 7        45.072 7  23002770.949 7  95537152.793 7     -3070.096 7        44.065 7
R10  19716035.359 8 105097549.211 8     -1726.111 8        51.773 8                                                                
R11  19992226.348 9 106832394.982 9      2448.516 9        55.283 9  19992229.641 8  83091882.419 8      1904.344 8        51.570 8
R20  21527457.113 6 115116970.424 6     -3400.848 6        40.634 6  21527462.270 7  89535449.809 7     -2644.904 7        47.179 7
R21  19650813.270 9 105155473.899 9       117.248 9        55.521 9  19650817.422 8  81787614.455 8        91.275 8        50.517 8
C01  37562815.668 7 195599440.232 7        28.389 7        43.850 7  37562823.930 7 151249924.989 7        21.523 7        45.469 7  37562832.809 7 158940638.126 7        22.982 7        43.905 7
C02  37767612.223 6 196665873.658 6        22.900 6        41.406 6  37767618.664 7 152074545.749 7        17.168 7        45.353 7  37767628.078 7 159807193.762 7        18.256 7        42.868 7
C03  37022269.332 7 192784676.560 7        51.240 7        45.702 7  37022276.309 7 149073364.600 7        39.746 7        47.427 7  37022283.242 7 156653396.006 7        41.361 7        44.889 7
C04  38588475.133 6 200940319.170 6        21.670 6        39.741 6  38588482.859 7 155379826.383 7        17.109 7        44.012 7  38588490.438 7 163280529.636 7        17.846 7        42.382 7
C05  39463346.367 6 205495998.370 6        28.311 6        39.024 6  39463356.816 7 158902580.156 7        22.344 7        42.632 7  39463363.570 6 166982400.564 6        23.041 6        39.926 6
C06  39378228.531 6 205052756.855 6     -1801.514 6        41.717 6  39378237.871 7 158559834.755 7     -1392.969 7        42.034 7  39378243.602 6 166622224.647 6     -1463.502 6        40.189 6
C07  36276554.691 8 188901542.128 8       292.900 8        48.634 8  36276558.016 8 146070667.518 8       226.426 8        49.225 8  36276563.941 8 153498013.546 8       237.846 8        48.498 8
C08  38274150.902 7 199303557.698 7      1736.514 7        42.062 7  38274159.883 7 154114179.931 7      1342.832 7        45.820 7  38274163.430 7 161950513.901 7      1410.873 7        42.656 7
C09  38862512.797 6 202367299.326 6     -1802.021 6        41.502 6  38862524.207 7 156483269.021 7     -1393.691 7        45.506 7  38862527.863 6 164440060.577 6     -1464.752 6        41.502 6
C10  36693142.246 7 191070822.610 7       419.932 7        47.435 7  36693150.258 8 147748107.450 8       324.980 8        48.357 8  36693154.758 7 155260745.358 7       341.381 7        46.759 7
C11  24169286.066 7 125855808.923 7     -2467.686 7        45.235 7  24169295.691 8  97319728.747 8     -1908.379 8        48.312 8  24169299.090 7 102268213.380 7     -2005.395 7        46.188 7
C13  38993365.637 7 203048690.167 7      1617.471 7        43.242 7  38993380.090 7 157010192.150 7      1250.840 7        42.171 7  38993384.402 7 164993775.746 7      1314.135 7        42.090 7
C16  39687718.797 6 206664347.945 6     -1743.506 6        40.189 6  39687733.965 5 159806039.192 5     -1347.988 5        35.418 5  39687737.469 5 167931798.490 5     -1416.041 5        35.154 5
S37  36962829.305 7 194240977.302 7         1.689 7        42.198 7
> 2022 06 21 01 10 10.0000000  0 27       0.000000000000
G01  19927504.484 8 104719740.300 8      -390.258 8        49.975 8  19927520.266 8  81599865.056 8      -304.209 8        50.226 8
G03  23836009.105 6 125259079.786 6      2822.438 6        39.548 6  23836027.461 8  97604540.329 8      2199.697 8        50.226 8
G07  21087250.773 7 110814242.110 7     -2138.676 7        47.075 7  21087263.867 8  86348817.312 8     -1666.494 8        50.226 8
G08  23212622.563 7 121983147.405 7     -2326.215 7        43.242 7  23212639.063 7  95051839.721 7     -1812.354 7        44.676 7
G14  21761948.359 7 114359811.028 7      2343.551 7        45.991 7  21761963.039 8  89111606.866 8      1826.162 8        49.499 8
G17  22548456.688 7 118492939.813 7      1411.109 7        44.384 7  22548471.211 8  92332230.621 8      1099.209 8        50.226 8
G21  21970100.316 7 115453655.400 7     -2702.328 7        46.231 7  21970113.438 8  89963942.318 8     -2105.811 8        49.119 8
G30  21174578.199 7 111273158.429 7      -440.766 7        47.616 7  21174594.785 8  86706424.889 8      -343.291 8        50.226 8
R09  23010157.285 7 122872939.937 7     -3950.494 7        45.991 7  23010163.586 7  95567867.286 7     -3072.434 7        45.031 7
R10  19719277.855 8 105114845.074 8     -1733.186 8        52.073 8                                                                
R11  19987650.094 9 106807937.955 9      2442.840 9        55.592 9  19987651.242 8  83072860.314 8      1899.824 8        51.586 8
R20  21533818.621 6 115150983.244 6     -3401.658 6        40.315 6  21533823.348 7  89561904.229 7     -2645.967 7        46.815 7
R21  19650600.863 9 105154330.980 9       110.953 9        55.022 9  19650603.297 8  81786725.528 8        86.389 8        50.533 8
C01  37562761.367 7 195599156.362 7        28.357 7        43.977 7  37562769.309 7 151249705.476 7        21.715 7        45.666 7  37562778.273 7 158940407.491 7        22.773 7        43.547 7
C02  37767568.586 6 196665643.955 6        22.889 6        41.687 6  37767574.953 7 152074368.110 7        17.672 7        45.544 7  37767583.945 7 159807007.088 7        18.633 7        42.821 7
C03  37022170.961 7 192784163.664 7        51.092 7        45.678 7  37022177.867 7 149072968.000 7        39.762 7        47.288 7  37022184.770 7 156652979.231 7        41.543 7        44.946 7
C04  38588432.891 6 200940098.817 6        22.049 6        40.103 6  38588440.473 7 155379655.980 7        17.027 7        44.621 7  38588448.113 7 163280350.574 7        17.969 7        42.680 7
C05  39463290.391 6 205495711.013 6        28.572 6        38.968 6  39463301.980 7 158902357.932 7        22.242 7        43.003 7  39463308.289 6 166982167.035 6        23.438 6        39.834 6
C06  39381687.211 6 205070765.889 6     -1800.314 6        41.717 6  39381696.191 7 158573760.443 7     -1392.328 7        42.144 7  39381702.266 6 166636858.462 6     -1463.516 6        39.834 6
C07  36275991.914 8 188898611.954 8       293.123 8        48.670 8  36275995.527 8 146068401.722 8       226.598 8        49.294 8  36276001.344 8 153495632.532 8       238.066 8        48.535 8
C08  38270817.723 6 199286198.938 6      1734.900 6        41.687 6  38270826.273 7 154100757.046 7      1341.773 7        45.785 7  38270829.945 7 161936408.475 7      1410.332 7        42.981 7
C09  38865973.480 6 202385318.705 6     -1802.580 6        41.470 6  38865984.820 7 156497202.701 7     -1393.383 7        45.353 7  38865988.141 6 164454702.758 6     -1464.023 6        41.374 6
C10  36692334.602 7 191066616.346 7       420.564 7        47.271 7  36692342.758 8 147744854.894 8       325.543 8        48.535 8  36692346.973 7 155257327.433 7       341.758 7        46.740 7
C11  24174025.852 7 125880487.824 7     -2468.029 7        45.481 7  24174034.434 8  97338812.009 8     -1908.266 8        48.312 8  24174038.691 7 102288267.004 7     -2005.664 7        46.616 7
C13  38990259.117 7 203032515.017 7      1617.693 7        43.113 7  38990274.285 7 156997684.536 7      1250.523 7        42.407 7  38990278.391 7 164980632.143 7      1314.121 7        42.278 7
C16  39691064.898 6 206681775.629 6     -1742.385 6        39.880 6  39691079.492 5 159819515.329 5     -1347.113 5        35.017 5  39691084.352 5 167945959.900 5     -1416.348 5        35.544 5
S37  36962825.160 7 194240955.010 7         2.105 7        42.382 7
> 2022 06 21 01 10 20.0000000  0 27       0.000000000000
G01  19928253.973 8 104723679.946 8      -397.742 8        50.133 8  19928269.957 8  81602928.907 8      -310.109 8        50.226 8
G03  23830638.980 6 125230858.896 6      2820.480 6        39.294 6  23830657.137 8  97582550.034 8      2198.504 8        50.226 8
G07  21091324.719 7 110835652.693 7     -2143.816 7        47.170 7  21091338.281 8  86365500.882 8     -1670.656 8        50.226 8
G08  23217049.227 7 122006407.636 7     -2326.180 7        43.026 7  23217065.684 7  95069964.558 7     -1812.844 7        44.302 7
G14  21757490.875 7 114336385.511 7      2341.438 7        46.731 7  21757505.145 8  89093353.227 8      1824.441 8        50.136 8
G17  22545773.828 7 118478841.980 7      1408.586 7        44.185 7  22545788.309 8  92321245.295 8      1097.195 8        50.226 8
G21  21975246.016 7 115480694.126 7     -2705.750 7        47.023 7  21975258.711 8  89985011.436 8     -2108.352 8        49.337 8
G30  21175422.703 7 111277595.672 7      -447.098 7        47.752 7  21175439.270 8  86709882.467 8      -348.527 8        50.226 8
R09  23017558.766 7 122912458.615 7     -3953.391 7        46.664 7  23017565.926 7  95598603.968 7     -3074.928 7        45.168 7
R10  19722536.637 8 105132213.755 8     -1740.863 8        51.711 8                                                                
R11  19983084.117 9 106783538.158 9      2436.662 9        55.206 9  19983086.410 8  83053882.708 8      1895.355 8        51.489 8
R20  21540179.238 6 115185011.250 6     -3404.283 6        40.103 6  21540185.824 7  89588370.420 7     -2647.643 7        47.280 7
R21  19650399.020 9 105153250.638 9       104.461 9        54.909 9  19650400.738 8  81785885.269 8        81.313 8        50.942 8
C01  37562706.895 7 195598872.332 7        28.148 7        43.941 7  37562714.730 7 151249485.818 7        22.043 7        45.785 7  37562723.543 7 158940176.671 7        22.740 7        43.663 7
C02  37767524.449 6 196665413.904 6        22.836 6        41.533 6  37767530.426 7 152074190.236 7        17.199 7        45.222 7  37767539.828 7 159806820.152 7        18.229 7        42.845 7
C03  37022072.309 7 192783650.511 7        50.883 7        45.581 7  37022079.105 7 149072571.196 7        39.328 7        47.145 7  37022086.145 7 156652562.256 7        41.314 7        44.816 7
C04  38588390.613 6 200939878.436 6        21.801 6        40.556 6  38588398.164 7 155379485.557 7        16.496 7        43.941 7  38588405.891 7 163280171.488 7        17.584 7        42.632 7
C05  39463235.738 6 205495423.299 6        28.773 6        38.968 6  39463246.719 7 158902135.418 7        21.945 7        43.178 7  39463252.871 6 166981933.232 6        23.775 6        39.788 6
C06  39385144.250 6 205088771.509 6     -1800.426 6        41.747 6  39385155.020 7 158587683.477 7     -1392.469 7        42.304 7  39385160.148 6 166651489.475 6     -1463.588 6        39.597 6
C07  36275428.320 8 188895678.687 8       292.777 8        48.573 8  36275432.684 8 146066133.523 8       226.691 8        49.453 8  36275437.965 8 153493249.006 8       238.131 8        48.396 8
C08  38267485.445 6 199268848.959 6      1734.105 6        41.656 6  38267493.492 7 154087340.968 7      1341.301 7        45.031 7  38267498.395 7 161922310.233 7      1408.795 7        43.135 7
C09  38869434.563 6 202403339.962 6     -1802.301 6        41.533 6  38869446.008 7 156511137.858 7     -1393.621 7        45.878 7  38869448.754 6 164469346.481 6     -1464.369 6        41.072 6
C10  36691525.391 7 191062405.379 7       421.176 7        47.179 7  36691533.867 8 147741598.727 8       325.402 8        48.285 8  36691538.328 7 155253905.675 7       342.232 7        46.587 7
C11  24178765.777 7 125905168.733 7     -2468.121 7        45.456 7  24178773.934 7  97357896.875 7     -1908.738 7        47.669 7  24178778.973 7 102308322.266 7     -2006.010 7        46.263 7
C13  38987153.531 7 203016345.803 7      1616.020 7        42.936 7  38987168.734 7 156985181.471 7      1249.680 7        42.798 7  38987173.305 7 164967493.337 7      1313.326 7        42.458 7
C16  39694410.824 6 206699197.995 6     -1741.852 6        39.548 6  39694425.313 5 159832987.415 5     -1347.371 5        35.418 5  39694429.922 5 167960116.949 5     -1415.600 5        34.727 5
S37  36962820.699 7 194240932.583 7         2.180 7        42.117 7
> 2022 06 21 01 10 30.0000000  0 27       0.000000000000
G01  19929017.066 8 104727690.367 8      -404.980 8        50.059 8  19929033.164 8  81606059.922 8      -315.697 8        50.226 8
G03  23825270.445 6 125202646.398 6      2820.449 6        39.548 6  23825288.645 8  97560566.302 8      2197.406 8        50.226 8
G07  21095408.262 7 110857114.408 7     -2149.316 7        46.778 7  21095422.641 8  86382224.285 8     -1674.955 8        50.226 8
G08  23221475.621 7 122029667.538 7     -2326.582 7        43.003 7  23221492.117 7  95088089.130 7     -1812.826 7        44.146 7
G14  21753036.270 7 114312976.774 7      2339.375 7        47.378 7  21753050.691 8  89075112.653 8      1822.973 8        50.226 8
G17  22543094.277 7 118464763.001 7      1406.328 7        43.468 7  22543109.484 8  92310274.708 8      1095.609 8        50.226 8
G21  21980397.168 7 115507764.064 7     -2709.141 7        46.833 7  21980410.148 8  90006104.877 8     -2110.971 8        49.270 8
G30  21176279.523 8 111282097.157 8      -454.023 8        48.259 8  21176295.734 8  86713390.110 8      -353.861 8        50.226 8
R09  23024963.270 7 122952006.044 7     -3956.873 7        46.508 7  23024973.297 7  95629363.016 7     -3077.602 7        46.366 7
R10  19725809.473 8 105149655.454 8     -1748.520 8        51.489 8                                                                
R11  19978529.184 9 106759195.891 9      2430.652 9        55.222 9  19978531.332 8  83034949.836 8      1890.666 8        51.473 8
R20  21546547.602 6 115219054.747 6     -3406.055 6        39.448 6  21546551.609 7  89614848.674 7     -2648.799 7        46.674 7
R21  19650208.363 9 105152232.994 9        97.977 9        55.129 9  19650211.086 8  81785093.777 8        76.346 8        51.470 8
C01  37562652.723 7 195598588.330 7        27.756 7        44.319 7  37562660.270 7 151249266.233 7        21.576 7        45.379 7  37562669.285 7 158939945.872 7        22.338 7        43.795 7
C02  37767479.898 6 196665183.745 6        22.580 6        41.776 6  37767486.305 7 152074012.251 7        17.064 7        45.301 7  37767495.617 7 159806633.139 7        18.139 7        42.533 7
C03  37021973.848 7 192783137.329 7        51.018 7        45.785 7  37021980.609 7 149072174.378 7        39.271 7        47.127 7  37021987.535 7 156652145.255 7        41.205 7        44.946 7
C04  38588347.996 6 200939658.212 6        21.408 6        40.356 6  38588355.758 7 155379315.252 7        16.342 7        43.644 7  38588363.508 7 163279992.518 7        17.455 7        42.090 7
C05  39463180.238 6 205495135.418 6        28.459 6        38.736 6  39463191.758 7 158901912.823 7        21.635 7        43.221 7  39463197.996 6 166981699.312 6        22.807 6        40.059 6
C06  39388601.910 6 205106773.774 6     -1800.662 6        41.656 6  39388611.996 7 158601603.920 7     -1392.076 7        42.251 7  39388617.215 6 166666117.717 6     -1462.994 6        39.241 6
C07  36274864.629 8 188892742.608 8       293.107 8        48.871 8  36274868.496 8 146063863.195 8       226.693 8        49.488 8  36274874.102 8 153490863.225 8       238.002 8        48.682 8
C08  38264154.930 6 199251508.073 6      1733.164 6        41.438 6  38264162.621 7 154073931.903 7      1340.424 7        45.154 7  38264168.207 7 161908219.342 7      1408.119 7        43.366 7
C09  38872895.047 6 202421363.363 6     -1802.732 6        41.595 6  38872907.316 7 156525074.676 7     -1394.322 7        46.134 7  38872909.914 6 164483991.942 6     -1464.342 6        41.342 6
C10  36690715.586 7 191058189.866 7       421.350 7        47.005 7  36690724.348 8 147738339.018 8       325.482 8        48.377 8  36690728.770 7 155250480.222 7       342.318 7        46.417 7
C11  24183505.684 7 125929851.982 7     -2468.787 7        45.605 7  24183514.414 7  97376983.498 7     -1909.010 7        47.775 7  24183519.027 7 102328379.388 7     -2006.061 7        46.145 7
C13  38984049.387 7 203000182.803 7      1615.176 7        42.728 7  38984064.949 7 156972683.232 7      1248.998 7        42.775 7  38984069.727 7 164954359.597 7      1312.670 7        42.330 7
C16  39697754.656 6 206716615.230 6     -1741.561 6        39.397 6  39697770.289 5 159846455.443 5     -1346.998 5        34.575 5  39697774.895 5 167974269.848 5     -1415.025 5        35.666 5
S37  36962816.391 7 194240910.216 7         1.797 7        42.508 7
