     3.02           OBSERVATION DATA    M (MIXED)           RINEX VERSION / TYPE
Assistant 1.0       StaticToRinex       20220622 163522 LCL PGM / RUN BY / DATE 
       G = GPS       R = GLONASS       C = COMPASS          COMMENT             
       S = SBAS      J = QZSS          E = GALILEO          COMMENT             
WG021                                                     MARKER NAME         
1                                                           MARKER NUMBER       
                                                            MARKER TYPE         
                                                            OBSERVER / AGENCY
G10A3416000150      UniStrong G10A      0.33.171013         REC # / TYPE / VERS 
0                   UNIG10E2250                             ANT # / TYPE        
 -2267436.6493  5009272.1263  3221299.2457                  APPROX POSITION XYZ 
        1.5633        0.0000        0.0000                  ANTENNA: DELTA H/E/N
G    8 C1C L1C D1C S1C C2P L2P D2P S2P                      SYS / # / OBS TYPES 
R    8 C1C L1C D1C S1C C2P L2P D2P S2P                      SYS / # / OBS TYPES 
C   12 C1I L1I D1I S1I C7I L7I D7I S7I C6I L6I D6I S6I      SYS / # / OBS TYPES 
S    4 C1C L1C D1C S1C                                      SYS / # / OBS TYPES 
DBHZ                                                        SIGNAL STRENGTH UNIT
    10.000                                                  INTERVAL            
  2022    06    21    05    03    0.0000000     GPS         TIME OF FIRST OBS   
  2022    06    21    06    07   10.0000000     GPS         TIME OF LAST OBS    
     0                                                      RCV CLOCK OFFS APPL 
G L1C  0.00000                                              SYS / PHASE SHIFT   
G L2P  0.00000                                              SYS / PHASE SHIFT   
R L1C  0.00000                                              SYS / PHASE SHIFT   
R L2P  0.25000                                              SYS / PHASE SHIFT   
C L1I  0.00000                                              SYS / PHASE SHIFT   
C L7I  0.00000                                              SYS / PHASE SHIFT   
C L6I  0.00000                                              SYS / PHASE SHIFT   
S L1C  0.00000                                              SYS / PHASE SHIFT   
  9 R01  1 R06 -4 R07  5 R08  6 R12 -1 R13 -2 R14 -7 R16 -1 GLONASS SLOT / FRQ #
    R23  3                                                  GLONASS SLOT / FRQ #
 C1C        0 C1P        0 C2C        0 C2P        0        GLONASS COD/PHS/BIS 
    18                                                      LEAP SECONDS        
*** Above antenna height is from mark to PHASE CENTER.      COMMENT             
    31     1        1.5380        ANT MEASURE TYPE/HEIGT    COMMENT             
    0.0730    0.1050    0.1320    0.1390    0.0000          COMMENT             
                    BASE STATION                            COMMENT             
                                                            END OF HEADER       
> 2022 06 21 05 03  0.0000000  0 24       0.000000000000
G02  23112312.320 7 121456021.376 7      1297.822 7        46.134 7  23112324.926 7  94641109.913 7      1011.246 7        47.152 7
G04  24349446.441 6 127957198.613 6       365.830 6        37.812 6  24349463.500 5  99706915.987 5       285.035 5        33.548 5
G06  20828458.215 8 109454287.166 8      -164.463 8        48.529 8  20828474.926 8  85289122.579 8      -127.953 8        50.226 8
G09  23510750.773 5 123549837.571 5      1645.010 5        34.417 5  23510763.352 3  96272626.389 3      1281.891 3        23.134 3
G11  22292976.848 7 117150385.775 7      1610.361 7        44.319 7  22292991.758 7  91286081.341 7      1254.879 7        47.377 7
G12  23344398.832 5 122675656.499 5      2596.436 5        35.901 5  23344414.602 6  95591441.826 6      2023.199 6        36.006 6
G17  21063470.527 8 110689281.997 8      -674.854 8        48.225 8  21063483.418 8  86251425.693 8      -525.863 8        50.226 8
G19  20275130.195 8 106546525.525 8       294.365 8        49.503 8  20275140.996 8  83023314.358 8       229.547 8        50.226 8
G20  22806588.414 6 119849431.825 6      3046.729 6        40.059 6  22806605.586 6  93389174.146 6      2374.000 6        37.325 6
R07  20784519.438 8 111261169.401 8      -459.422 8        50.725 8  20784525.309 8  86536471.406 8      -357.332 8        48.676 8
R08  20844325.215 8 111620412.144 8      3015.533 8        52.563 8  20844331.945 7  86815908.267 7      2345.504 7        47.819 7
R12  22223578.695 8 118714365.892 8     -3590.895 8        48.573 8  22223587.719 7  92333433.818 7     -2792.789 7        44.269 7
R13  21488089.734 6 114745216.714 6     -1082.197 6        38.968 6  21488096.035 6  89246311.096 6      -841.074 6        36.014 6
R23  21361717.773 8 114270795.764 8      1374.572 8        48.312 8                                                                
C01  37494115.758 7 195241695.392 7        18.053 7        45.301 7  37494124.914 7 150973301.343 7        13.918 7        45.958 7  37494133.121 7 158649947.828 7        14.463 7        42.632 7
C02  37679679.793 6 196207982.104 6        35.787 6        41.626 6  37679686.879 7 151720483.307 7        28.156 7        42.891 7  37679698.074 7 159435133.276 7        29.365 7        43.284 7
C03  36888750.215 7 192089399.524 7        39.518 7        47.435 7  36888756.473 8 148535735.015 8        30.090 8        48.466 8  36888764.918 7 156088437.394 7        32.393 7        46.167 7
C04  38556300.438 6 200772772.83216         0.045 6        38.968 6  38556309.094 7 155250278.055 7        -0.262 7        42.868 7  38556316.906 6 163144394.03116        -0.713 6        41.072 6
C05  39361578.023 6 204966069.94316        40.494 6        38.676 6  39361591.547 6 158492821.882 6        31.047 6        40.858 6  39361597.891 6 166551803.57616        31.279 6        37.346 6
C07  36079379.199 8 187874802.896 8      -580.875 8        48.560 8  36079385.637 8 145276732.688 8      -448.992 8        50.099 8  36079391.496 7 152663713.102 7      -471.906 7        47.992 7
C08  36266218.004 8 188847709.925 8      -200.543 8        48.877 8  36266223.047 8 146029055.173 8      -155.125 8        49.528 8  36266229.824 7 153454287.341 7      -163.174 7        47.577 7
C10  35789441.695 8 186365012.482 8      -229.938 8        49.063 8  35789449.707 8 144109282.986 8      -177.801 8        49.493 8  35789455.609 8 151436898.927 8      -186.846 8        48.110 8
C13  36845415.648 8 191863743.407 8       -57.279 8        49.423 8  36845428.242 7 148361273.002 7       -44.461 7        47.562 7  36845433.965 7 155905089.430 7       -46.611 7        47.101 7
S37  36956389.230 7 194207132.863 7         1.826 7        42.959 7
> 2022 06 21 05 03 10.0000000  0 24       0.000000000000
G02  23109843.164 7 121443045.966 7      1297.123 7        46.102 7  23109855.957 8  94630999.244 8      1010.791 8        48.362 8
G04  24348754.918 5 127953568.952 5       361.889 5        35.017 5  24348772.789 5  99704087.706 5       282.002 5        34.785 5
G06  20828772.480 8 109455938.088 8      -166.080 8        49.231 8  20828788.621 8  85290409.010 8      -129.482 8        50.226 8
G09  23507626.688 5 123533408.728 5      1641.146 5        34.575 5  23507640.281 3  96259848.650 3      1278.174 3        23.134 3
G11  22289914.863 7 117134290.112 7      1608.607 7        45.991 7  22289929.430 7  91273539.287 7      1253.330 7        47.659 7
G12  23339464.203 6 122649726.111 6      2590.189 6        36.438 6  23339480.500 6  95571236.266 6      2018.350 6        36.680 6
G17  21064758.105 8 110696048.563 8      -678.268 8        48.877 8  21064770.926 8  86256698.311 8      -528.779 8        50.226 8
G19  20274573.461 8 106543600.335 8       290.404 8        49.543 8  20274584.438 8  83021034.989 8       226.357 8        50.226 8
G20  22800793.230 6 119818976.388 6      3043.334 6        41.502 6  22800809.559 6  93365442.651 6      2371.416 6        37.758 6
R07  20785386.887 8 111265805.606 8      -468.230 8        52.473 8  20785389.895 7  86540077.344 7      -364.088 7        46.815 7
R08  20838700.676 8 111590284.540 8      3009.908 8        52.163 8  20838703.828 8  86792475.685 8      2341.111 8        48.865 8
R12  22230300.176 8 118750287.870 8     -3593.408 8        48.491 8  22230312.496 7  92361373.052 7     -2795.127 7        44.528 7
R13  21490123.379 6 114756068.352 6     -1089.613 6        38.911 6  21490134.551 6  89254751.210 6      -846.674 6        36.538 6
R23  21359149.809 8 114257049.292 8      1374.438 8        50.125 8                                                                
C01  37494080.168 7 195241513.898 7        18.100 7        45.531 7  37494090.254 7 150973161.021 7        13.787 7        45.808 7  37494098.711 7 158649800.347 7        14.549 7        43.304 7
C02  37679610.219 6 196207620.264 6        35.990 6        41.175 6  37679616.871 7 151720203.521 7        28.084 7        43.567 7  37679628.727 7 159434839.233 7        29.217 7        43.527 7
C03  36888674.699 7 192089006.744 7        39.115 7        47.145 7  36888681.066 8 148535431.302 8        30.076 8        48.285 8  36888689.402 7 156088118.247 7        31.990 7        45.889 7
C04  38556301.086 6 200772774.896 6        -0.689 6        39.834 6  38556309.527 7 155250279.629 7        -0.217 7        43.135 7  38556317.176 6 163144395.680 6        -0.451 6        40.967 6
C05  39361501.402 6 204965669.605 6        39.760 6        38.554 6  39361514.852 6 158492512.287 6        30.760 6        39.834 6  39361521.871 6 166551478.209 6        32.791 6        39.134 6
C07  36080496.426 8 187880619.217 8      -582.174 8        49.107 8  36080502.008 8 145281230.247 8      -450.197 8        50.397 8  36080508.469 8 152668439.332 8      -473.107 8        48.700 8
C08  36266603.820 8 188849720.116 8      -201.627 8        48.664 8  36266609.613 8 146030609.579 8      -155.939 8        49.755 8  36266615.719 7 153455920.784 7      -163.693 7        47.329 7
C10  35789883.887 8 186367316.146 8      -231.178 8        48.466 8  35789892.078 8 144111064.329 8      -178.771 8        49.493 8  35789898.102 7 151438770.835 7      -187.678 7        47.722 7
C13  36845525.867 8 191864319.408 8       -57.936 8        49.315 8  36845539.531 8 148361718.397 8       -44.924 8        48.573 8  36845544.785 7 155905557.455 7       -46.760 7        46.824 7
S37  36956385.262 7 194207112.210 7         2.064 7        43.346 7
> 2022 06 21 05 03 20.0000000  0 24       0.000000000000
G02  23107376.688 7 121430086.159 7      1294.568 7        45.494 7  23107389.598 8  94620900.768 8      1008.629 8        48.105 8
G04  24348073.941 5 127949991.634 5       354.041 5        32.656 5  24348091.473 4  99701300.146 4       275.953 4        28.575 4
G06  20829091.004 8 109457610.675 8      -168.947 8        49.418 8  20829107.258 8  85291711.321 8      -131.391 8        50.226 8
G09  23504507.570 5 123517018.789 5      1636.014 5        34.253 5  23504522.797 3  96247077.170 3      1273.258 3        23.134 3
G11  22286857.559 7 117118217.683 7      1605.916 7        47.049 7  22286871.383 8  91261015.323 8      1251.344 8        48.501 8
G12  23334541.125 6 122623843.659 6      2585.623 6        37.585 6  23334554.848 6  95551068.264 6      2014.840 6        36.483 6
G17  21066052.656 8 110702850.727 8      -682.365 8        48.706 8  21066065.148 8  86261998.690 8      -532.094 8        50.226 8
G19  20274024.273 8 106540715.250 8       286.072 8        48.789 8  20274035.406 8  83018786.859 8       222.984 8        50.226 8
G20  22795003.016 6 119788550.587 6      3040.818 6        41.374 6  22795019.645 6  93341734.315 6      2369.547 6        39.855 6
R07  20786269.051 8 111270531.368 8      -477.525 8        52.622 8  20786272.488 7  86543752.975 7      -371.588 7        47.475 7
R08  20833083.836 8 111560215.618 8      3003.445 8        52.854 8  20833088.277 8  86769088.759 8      2336.131 8        48.383 8
R12  22237030.074 8 118786235.585 8     -3596.494 8        48.979 8  22237042.965 7  92389332.304 7     -2797.004 7        44.786 7
R13  21492173.313 6 114766998.604 6     -1097.973 6        38.554 6  21492178.184 6  89263252.465 6      -853.512 6        36.731 6
R23  21356580.801 7 114243307.871 7      1373.482 7        47.963 7                                                                
C01  37494047.184 7 195241334.338 7        17.666 7        45.912 7  37494055.805 7 150973022.183 7        13.703 7        45.154 7  37494063.996 7 158649654.416 7        14.482 7        42.533 7
C02  37679541.391 6 196207260.090 6        35.498 6        40.822 6  37679548.188 7 151719925.052 7        27.180 7        42.751 7  37679558.863 7 159434546.563 7        28.779 7        42.171 7
C03  36888600.078 7 192088615.951 7        38.682 7        47.313 7  36888605.836 7 148535129.112 7        29.641 7        47.730 7  36888614.316 7 156087800.696 7        31.318 7        45.481 7
C04  38556301.621 6 200772778.813 6        -0.596 6        39.079 6  38556310.422 7 155250282.663 7        -0.672 7        44.874 7  38556318.012 6 163144398.899 6        -0.771 6        40.710 6
C05  39361425.348 6 204965271.00816        39.678 6        37.956 6  39361439.156 6 158492204.097 6        30.383 6        41.533 6  39361444.191 5 166551154.41115        32.236 5        33.720 5
C07  36081616.301 8 187886451.213 8      -584.365 8        49.063 8  36081622.273 8 145285739.900 8      -451.727 8        50.348 8  36081628.512 8 152673178.304 8      -474.873 8        48.900 8
C08  36266990.598 7 188851739.781 7      -202.744 7        47.546 7  36266997.320 8 146032171.331 8      -156.980 8        49.134 8  36267003.559 7 153457561.935 7      -164.951 7        47.246 7
C10  35790329.582 8 186369635.905 8      -233.291 8        48.784 8  35790337.953 8 144112858.088 8      -180.340 8        49.418 8  35790343.598 7 151440655.813 7      -189.600 7        47.928 7
C13  36845638.730 8 191864904.905 8       -59.561 8        49.463 8  36845651.824 8 148362171.106 8       -45.887 8        48.325 8  36845657.227 8 155906033.229 8       -48.584 8        48.103 8
S37  36956381.539 7 194207093.318 7         1.463 7        43.242 7
> 2022 06 21 05 03 30.0000000  0 24       0.000000000000
G02  23104913.508 7 121417140.358 7      1293.322 7        44.889 7  23104926.629 8  94610813.142 8      1007.764 8        48.942 8
G04  24347403.992 6 127946464.924 6       351.389 6        38.027 6  24347420.348 5  99698552.081 5       273.779 5        31.585 5
G06  20829412.395 8 109459303.258 8      -170.232 8        48.138 8  20829423.281 7  85293007.239 7      -132.646 7        43.468 7
G09  23501395.324 5 123500666.247 5      1632.873 5        32.407 5                                                                
G11  22283802.406 7 117102166.861 7      1603.869 7        45.127 7  22283816.445 7  91248508.212 7      1249.775 7        47.078 7
G12  23329621.055 5 122598008.052 5      2581.215 5        34.727 5  23329637.613 6  95530936.601 6      2011.299 6        37.221 6
G17  21067353.082 7 110709686.946 7      -685.564 7        47.538 7  21067366.203 8  86267325.590 8      -533.994 8        50.226 8
G19  20273482.676 8 106537868.813 8       282.639 8        48.877 8  20273493.836 8  83016568.862 8       220.361 8        50.226 8
G20  22789218.961 7 119758152.966 7      3038.285 7        43.263 7  22789235.328 6  93318047.919 6      2367.490 6        40.199 6
R07  20787168.699 8 111275344.829 8      -485.900 8        52.872 8  20787174.285 8  86547496.741 8      -378.238 8        50.094 8
R08  20827479.176 8 111530204.066 8      2998.197 8        52.246 8  20827484.332 8  86745746.480 8      2331.885 8        48.616 8
R12  22243765.273 8 118822207.266 8     -3598.434 8        50.695 8  22243776.875 7  92417310.217 7     -2798.818 7        46.428 7
R13  21494231.707 6 114778006.062 6     -1103.898 6        37.093 6  21494239.012 6  89271813.810 6      -860.111 6        37.737 6
R23  21354011.367 8 114229569.931 8      1373.660 8        49.193 8                                                                
C01  37494011.699 7 195241155.141 7        17.453 7        44.651 7  37494020.500 7 150972883.599 7        13.504 7        45.031 7  37494029.809 7 158649508.823 7        14.510 7        43.448 7
C02  37679472.391 6 196206900.138 6        35.598 6        41.037 6  37679478.293 6 151719646.654 6        27.723 6        41.072 6  37679490.246 7 159434254.080 7        29.002 7        43.221 7
C03  36888524.707 7 192088225.612 7        38.820 7        46.759 7  36888530.754 8 148534827.264 8        30.066 8        48.312 8  36888539.531 7 156087483.507 7        31.756 7        46.102 7
C04  38556301.301 6 200772783.14216        -0.770 6        37.427 6  38556310.781 7 155250286.072 7        -0.813 7        42.251 7  38556318.969 6 163144402.462 6        -1.096 6        40.189 6
C05  39361348.367 5 204964872.75015        39.035 5        35.901 5  39361362.785 6 158491896.163 6        30.164 6        41.342 6  39361397.660 5                        32.479 5        32.656 5
C07  36082739.684 8 187892297.369 8      -585.359 8        49.193 8  36082745.297 8 145290260.534 8      -452.707 8        50.319 8  36082751.281 8 152677928.791 8      -475.686 8        48.712 8
C08  36267379.488 7 188853767.353 7      -203.543 7        47.362 7  36267386.820 8 146033739.154 8      -157.277 8        49.090 8  36267393.418 7 153459209.472 7      -165.080 7        47.569 7
C10  35790778.145 8 186371970.204 8      -234.266 8        48.871 8  35790786.371 8 144114663.113 8      -181.164 8        49.665 8  35790792.168 7 151442552.628 7      -190.510 7        47.885 7
C13  36845752.887 8 191865498.410 8       -59.988 8        49.778 8  36845765.695 7 148362630.028 7       -46.379 7        47.978 7  36845771.305 7 155906515.460 7       -48.361 7        47.855 7
S37  36956378.254 7 194207074.663 7         1.662 7        42.913 7
> 2022 06 21 05 03 40.0000000  0 24       0.000000000000
G02  23102452.438 7 121404206.320 7      1292.518 7        46.528 7  23102465.070 8  94600734.705 8      1007.137 8        50.117 8
G04  24346741.441 6 127942986.823 6       345.174 6        36.635 6  24346758.324 5  99695841.915 5       268.914 5        32.165 5
G06  20829738.465 8 109461013.573 8      -172.307 8        48.836 8  20829754.863 8  85294358.941 8      -134.348 8        50.226 8
G09  23498289.625 5 123484348.863 5      1632.732 5        32.656 5  23498309.285 3  96221649.206 3      1270.379 3        20.124 3
G11  22280750.652 7 117086135.420 7      1601.775 7        45.072 7  22280765.918 8  91236016.237 8      1248.172 8        48.337 8
G12  23324716.262 6 122572216.914 6      2576.072 6        37.812 6  23324729.238 6  95510839.595 6      2007.213 6        38.303 6
G17  21068659.906 8 110716554.887 8      -688.771 8        48.396 8  21068673.512 8  86272677.229 8      -536.691 8        50.226 8
G19  20272948.051 8 106535058.731 8       278.611 8        49.346 8  20272958.824 8  83014379.189 8       217.020 8        50.226 8
G20  22783438.871 7 119727781.247 7      3035.525 7        42.936 7  22783455.598 6  93294381.709 6      2365.299 6        40.407 6
R07  20788084.629 8 111280243.885 8      -494.605 8        53.019 8  20788088.352 8  86551307.126 8      -384.736 8        48.402 8
R08  20821885.074 8 111500247.671 8      2992.264 8        52.275 8  20821890.086 8  86722447.072 8      2327.182 8        48.940 8
R12  22250504.301 8 118858200.643 8     -3600.684 8        48.232 8  22250514.898 7  92445304.961 7     -2800.836 7        42.407 7
R13  21496304.520 6 114789088.240 6     -1112.631 6        39.834 6  21496314.117 6  89280433.236 6      -865.098 6        38.364 6
R23  21351444.613 7 114215833.098 7      1373.336 7        47.992 7                                                                
C01  37493976.824 7 195240974.038 7        17.975 7        45.072 7  37493986.375 7 150972743.568 7        13.727 7        45.642 7  37493994.926 7 158649361.662 7        14.428 7        43.003 7
C02  37679402.742 6 196206538.186 6        36.041 6        41.717 6  37679409.430 7 151719366.816 7        27.555 7        44.168 7  37679420.328 7 159433959.985 7        28.939 7        42.330 7
C03  36888449.621 7 192087833.503 7        39.127 7        47.246 7  36888455.453 7 148534524.067 7        30.133 7        47.229 7  36888464.074 7 156087164.890 7        31.635 7        45.353 7
C04  38556302.699 6 200772785.702 6        -0.678 6        39.134 6  38556311.715 7 155250287.979 7        -0.375 7        45.327 7  38556319.160 6 163144404.439 6        -0.416 6        40.931 6
C05  39361271.387 6 204964472.47416        39.713 6        38.968 6  39361285.230 6 158491586.623 6        30.504 6        40.103 6  39361291.270 6 166550500.46016        32.475 6        39.346 6
C07  36083864.957 8 187898155.395 8      -586.830 8        49.252 8  36083870.039 8 145294790.330 8      -453.891 8        50.282 8  36083876.270 8 152682688.918 8      -476.842 8        48.318 8
C08  36267770.488 7 188855800.482 7      -204.037 7        46.824 7  36267777.285 8 146035311.287 8      -157.523 8        50.090 8  36267783.883 7 153460861.556 7      -165.729 7        47.834 7
C10  35791228.133 8 186374316.755 8      -235.443 8        48.510 8  35791237.398 8 144116477.613 8      -182.309 8        49.866 8  35791242.750 8 151444459.363 8      -191.275 8        48.138 8
C13  36845867.969 8 191866097.665 8       -60.932 8        49.220 8  36845880.598 7 148363093.416 7       -47.133 7        47.411 7  36845886.164 7 155907002.431 7       -49.166 7        46.768 7
S37  36956374.641 7 194207053.929 7         1.600 7        43.488 7
> 2022 06 21 05 03 50.0000000  0 24       0.000000000000
G02  23099993.402 7 121391285.780 7      1292.178 7        46.102 7  23100006.367 8  94590666.771 8      1006.904 8        49.945 8
G04  24346089.516 6 127939559.026 6       341.338 6        38.428 6  24346106.301 5  99693170.947 5       265.965 5        33.597 5
G06  20830067.578 8 109462743.407 8      -173.369 8        48.957 8  20830083.707 8  85295710.853 8      -135.070 8        50.226 8
G09  23495194.262 5 123468068.829 5      1627.646 5        33.720 5  23495212.578 3  96208967.475 3      1268.057 3        20.124 3
G11  22277705.516 7 117070125.140 7      1600.576 7        46.951 7  22277719.852 8  91223540.695 8      1247.314 8        48.755 8
G12  23319815.938 6 122546472.067 6      2573.369 6        37.263 6  23319829.387 6  95490778.726 6      2005.264 6        39.327 6
G17  21069973.492 8 110723456.510 8      -691.242 8        48.402 8  21069986.355 8  86278055.137 8      -538.371 8        50.226 8
G19  20272420.473 8 106532286.829 8       275.752 8        49.074 8  20272431.535 8  83012219.241 8       214.969 8        50.226 8
G20  22777664.539 7 119697437.308 7      3033.857 7        42.913 7  22777681.340 6  93270737.096 6      2364.053 6        40.448 6
R07  20789016.500 8 111285230.024 8      -502.447 8        52.171 8  20789019.367 7  86555185.229 7      -390.578 7        47.538 7
R08  20816301.898 8 111470348.099 8      2987.803 8        51.387 8  20816306.766 8  86699191.867 8      2323.727 8        48.859 8
R12  22257246.086 8 118894217.131 8     -3602.150 8        49.392 8  22257255.684 7  92473317.726 7     -2801.723 7        44.575 7
R13  21498399.438 6 114800246.682 6     -1118.824 6        37.737 6  21498404.449 6  89289112.066 6      -870.596 6        38.616 6
R23  21348877.758 8 114202099.187 8      1374.045 8        48.968 8                                                                
C01  37493941.875 7 195240792.851 7        18.666 7        45.353 7  37493951.676 7 150972603.456 7        14.355 7        45.248 7  37493960.457 7 158649214.424 7        15.264 7        43.527 7
C02  37679333.523 6 196206176.077 6        36.869 6        41.141 6  37679340.031 7 151719086.797 7        28.730 7        44.889 7  37679350.758 7 159433665.732 7        29.736 7        42.607 7
C03  36888373.895 7 192087441.369 7        39.721 7        46.888 7  36888380.152 7 148534220.835 7        30.781 7        47.435 7  36888388.848 7 156086846.253 7        32.236 7        45.379 7
C04  38556304.023 6 200772788.145 6         0.443 6        39.448 6  38556312.395 7 155250289.851 7         0.176 7        45.100 7  38556319.980 6 163144406.411 6         0.244 6        41.626 6
C05  39361194.582 6 204964072.088 6        40.775 6        38.364 6  39361208.570 6 158491276.968 6        31.465 6        40.059 6  39361214.430 6 166550175.104 6        33.076 6        38.676 6
C07  36084993.168 8 187904027.106 8      -587.115 8        49.273 8  36084997.785 8 145299330.693 8      -453.926 8        50.257 8  36085003.730 8 152687460.153 8      -476.943 8        48.542 8
C08  36268162.813 7 188857841.095 7      -203.619 7        47.427 7  36268168.609 8 146036889.214 8      -157.578 8        49.433 8  36268176.090 8 153462519.724 8      -165.283 8        48.144 8
C10  35791681.379 8 186376677.438 8      -236.178 8        48.013 8  35791691.145 8 144118303.033 8      -182.559 8        49.834 8  35791696.063 8 151446377.620 8      -191.982 8        48.076 8
C13  36845984.520 8 191866704.468 8       -60.143 8        49.689 8  36845995.969 7 148363562.632 7       -46.738 7        47.229 7  36846002.566 7 155907495.516 7       -49.072 7        46.915 7
S37  36956370.496 7 194207032.940 7         2.666 7        43.814 7
> 2022 06 21 05 04  0.0000000  0 24       0.000000000000
G02  23097537.691 7 121378378.413 7      1290.025 7        46.315 7  23097550.301 8  94580609.113 8      1005.236 8        49.411 8
G04  24345447.496 6 127936181.330 6       335.826 6        37.179 6  24345463.379 5  99690538.903 5       261.701 5        30.915 5
G06  20830399.297 8 109464492.307 8      -176.068 8        48.131 8  20830416.340 8  85297073.658 8      -137.186 8        50.226 8
G09  23492102.219 5 123451825.558 5      1622.350 5        32.656 5  23492122.727 3  96196310.424 3      1263.830 3        23.134 3
G11  22274662.699 7 117054135.504 7      1597.916 7        46.538 7  22274677.293 8  91211081.268 8      1245.100 8        48.602 8
G12  23314925.230 6 122520773.493 6      2566.764 6        36.124 6  23314937.137 6  95470753.867 6      2000.100 6        38.449 6
G17  21071293.117 8 110730391.532 8      -695.443 8        48.712 8  21071305.668 8  86283459.021 8      -541.443 8        50.226 8
G19  20271899.793 8 106529552.861 8       271.314 8        48.652 8  20271911.340 8  83010088.887 8       211.428 8        50.226 8
G20  22771896.250 7 119667120.877 7      3030.377 7        42.483 7  22771912.293 6  93247113.940 6      2361.271 6        38.368 6
R07  20789963.293 8 111290303.287 8      -511.783 8        53.109 8  20789964.871 8  86559131.083 8      -398.254 8        48.062 8
R08  20810730.063 8 111440505.548 8      2980.770 8        51.168 8  20810733.500 8  86675981.002 8      2318.781 8        49.204 8
R12  22263994.922 8 118930256.331 8     -3604.932 8        48.454 8  22264008.098 7  92501348.158 7     -2804.295 7        44.742 7
R13  21500500.965 6 114811481.158 6     -1126.605 6        39.241 6  21500507.410 6  89297849.961 6      -876.234 6        40.634 6
R23  21346311.645 8 114188368.060 8      1372.955 8        49.876 8                                                                
C01  37493906.672 7 195240611.170 7        17.844 7        45.340 7  37493916.543 7 150972462.973 7        14.033 7        45.262 7  37493925.574 7 158649066.831 7        14.621 7        42.891 7
C02  37679264.121 6 196205813.338 6        36.086 6        41.595 6  37679270.094 7 151718806.306 7        28.252 7        44.742 7  37679280.961 7 159433370.944 7        29.875 7        42.304 7
C03  36888298.621 7 192087048.883 7        39.074 7        46.366 7  36888305.133 7 148533917.333 7        30.127 7        47.928 7  36888313.453 7 156086527.304 7        31.848 7        45.630 7
C04  38556303.699 6 200772790.114 6        -0.574 6        39.188 6  38556312.859 7 155250291.388 7        -0.322 7        45.182 7  38556319.813 6 163144408.023 6        -0.027 6        40.748 6
C05  39361117.738 6 204963671.054 6        39.914 6        38.854 6  39361131.047 7 158490966.901 7        30.947 7        42.680 7  39361137.223 6 166549849.259 6        32.004 6        40.748 6
C07  36086122.840 8 187909912.215 8      -589.422 8        48.370 8  36086127.848 8 145303881.415 8      -455.791 8        49.917 8  36086133.852 7 152692242.284 7      -478.738 7        47.956 7
C08  36268555.883 7 188859888.608 7      -205.164 7        47.646 7  36268561.680 8 146038472.497 8      -158.838 8        49.341 8  36268569.039 7 153464183.525 7      -167.020 7        47.863 7
C10  35792137.625 8 186379051.827 8      -238.348 8        48.048 8  35792146.855 8 144120139.041 8      -184.014 8        49.616 8  35792151.949 8 151448307.003 8      -193.660 8        48.055 8
C13  36846102.316 8 191867318.438 8       -61.727 8        49.665 8  36846113.980 7 148364037.396 7       -47.979 7        46.833 7  36846120.355 7 155907994.426 7       -50.457 7        47.040 7
S37  36956365.805 7 194207011.324 7         2.018 7        43.644 7
> 2022 06 21 05 04 10.0000000  0 24       0.000000000000
G02  23095084.691 7 121365486.171 7      1288.262 7        46.325 7  23095096.727 8  94570563.214 8      1003.752 8        49.342 8
G04  24344812.766 5 127932855.700 5       329.881 5        35.418 5  24344830.109 5  99687947.578 5       256.994 5        32.165 5
G06  20830737.164 8 109466262.252 8      -177.951 8        48.724 8  20830753.160 8  85298451.840 8      -138.709 8        50.226 8
G09  23489015.609 5 123435621.304 5      1618.770 5        31.864 5  23489040.223 3  96183683.706 3      1261.799 3        23.134 3
G11  22271623.449 7 117038168.650 7      1595.410 7        45.901 7  22271639.375 8  91198639.598 8      1243.068 8        48.906 8
G12  23310046.965 6 122495123.088 6      2562.285 6        38.298 6  23310057.512 6  95450766.544 6      1996.643 6        41.530 6
G17  21072619.320 8 110737361.891 8      -699.064 8        48.415 8  21072631.996 8  86288890.457 8      -544.529 8        50.226 8
G19  20271387.406 8 106526858.932 8       267.225 8        48.700 8  20271398.883 8  83007989.706 8       208.225 8        50.226 8
G20  22766132.246 7 119636834.090 7      3027.012 7        43.135 7  22766147.500 6  93223513.950 6      2358.734 6        39.866 6
R07  20790926.984 8 111295465.445 8      -520.768 8        53.193 8  20790928.848 7  86563146.133 7      -405.238 7        46.683 7
R08  20805166.676 8 111410721.894 8      2975.264 8        52.004 8  20805172.262 8  86652815.965 8      2313.986 8        49.035 8
R12  22270743.895 8 118966320.063 8     -3607.656 8        49.650 8  22270755.781 7  92529397.597 7     -2806.090 7        46.241 7
R13  21502621.398 6 114822793.615 6     -1136.068 6        40.315 6  21502625.266 6  89306648.531 6      -883.107 6        39.079 6
R23  21343744.098 7 114174641.658 7      1372.191 7        46.498 7                                                                
C01  37493872.711 7 195240431.024 7        17.508 7        45.045 7  37493882.301 7 150972323.658 7        13.867 7        45.593 7  37493890.828 7 158648920.410 7        14.621 7        43.070 7
C02  37679193.637 6 196205451.998 6        36.082 6        41.502 6  37679200.363 7 151718526.907 7        27.559 7        44.219 7  37679211.738 7 159433077.375 7        29.094 7        42.607 7
C03  36888223.488 7 192086657.999 7        39.031 7        46.960 7  36888229.895 7 148533615.075 7        30.098 7        47.662 7  36888238.613 7 156086209.690 7        31.594 7        45.773 7
C04  38556303.727 6 200772793.629 6        -0.891 6        38.298 6  38556313.527 7 155250294.100 7        -0.586 7        44.831 7  38556320.180 6 163144410.891 6        -0.184 6        41.470 6
C05  39361040.961 6 204963271.479 6        39.891 6        39.448 6  39361054.340 7 158490657.924 7        30.820 7        42.936 7  39361060.730 6 166549524.590 6        32.238 6        40.103 6
C07  36087255.547 8 187915812.632 8      -591.027 8        48.165 8  36087260.945 8 145308443.986 8      -456.914 8        50.265 8  36087267.043 8 152697036.838 8      -479.988 8        48.676 8
C08  36268950.984 7 188861945.051 7      -206.164 7        47.760 7  36268957.281 8 146040062.661 8      -159.453 8        49.493 8  36268963.605 7 153465854.545 7      -167.801 7        47.639 7
C10  35792596.797 8 186381441.925 8      -239.973 8        48.265 8  35792605.598 8 144121987.212 8      -185.879 8        49.193 8  35792611.000 8 151450249.146 8      -195.105 8        48.219 8
C13  36846222.359 8 191867941.506 8       -63.039 8        49.797 8  36846233.344 7 148364519.169 7       -48.555 7        47.110 7  36846239.820 7 155908500.699 7       -51.238 7        46.942 7
S37  36956362.109 7 194206991.119 7         1.854 7        43.527 7
> 2022 06 21 05 04 20.0000000  0 24       0.000000000000
G02  23092632.309 7 121352607.410 7      1288.314 7        43.905 7  23092645.676 8  94560527.843 8      1003.998 8        48.763 8
G04  24344190.242 6 127929580.867 6       325.482 6        38.491 6  24344207.898 5  99685395.768 5       253.666 5        34.356 5
G06  20831077.793 8 109468051.730 8      -179.342 8        48.911 8  20831093.590 8  85299840.224 8      -139.654 8        50.226 8
G09  23485941.063 5 123419452.623 5      1616.420 5        33.325 5                                                                
G11  22268588.828 7 117022223.068 7      1594.193 7        45.314 7  22268604.711 8  91186214.445 8      1242.279 8        48.980 8
G12  23305172.320 6 122469519.333 6      2557.787 6        36.731 6  23305185.957 7  95430815.590 7      1993.139 7        42.622 7
G17  21073951.859 8 110744366.146 8      -701.627 8        48.479 8  21073965.055 8  86294348.330 8      -547.154 8        50.226 8
G19  20270882.074 8 106524203.540 8       263.959 8        49.007 8  20270893.320 8  83005920.558 8       205.678 8        50.226 8
G20  22760374.156 7 119606575.329 7      3024.896 7        43.663 7  22760389.496 6  93199935.749 6      2356.967 6        40.047 6
R07  20791907.617 8 111300714.856 8      -528.824 8        53.462 8  20791912.059 7  86567228.981 7      -411.211 7        47.346 7
R08  20799616.789 8 111380995.982 8      2970.311 8        51.867 8  20799620.656 8  86629695.837 8      2310.043 8        49.204 8
R12  22277498.922 8 119002406.651 8     -3609.357 8        49.392 8  22277509.520 7  92557464.825 7     -2807.213 7        45.654 7
R13  21504754.477 6 114834182.274 6     -1141.891 6        39.645 6  21504759.633 6  89315506.364 6      -888.994 6        38.554 6
R23  21341176.875 7 114160918.213 7      1372.826 7        44.269 7                                                                
C01  37493837.117 7 195240250.916 7        18.125 7        44.697 7  37493847.848 7 150972184.385 7        14.570 7        45.605 7  37493856.355 7 158648774.070 7        14.654 7        43.387 7
C02  37679124.664 6 196205090.594 6        37.109 6        41.470 6  37679131.246 7 151718247.442 7        28.105 7        44.065 7  37679142.563 7 159432783.693 7        29.557 7        42.913 7
C03  36888148.258 7 192086267.252 7        39.453 7        46.356 7  36888154.766 7 148533312.920 7        30.449 7        47.329 7  36888163.426 7 156085892.178 7        32.076 7        44.932 7
C04  38556304.582 6 200772797.209 6         0.723 6        38.854 6  38556314.742 7 155250296.909 7        -0.020 7        43.941 7  38556321.094 6 163144413.813 6        -0.150 6        40.556 6
C05  39360964.512 6 204962871.855 6        40.742 6        39.597 6  39360976.961 7 158490348.914 7        31.211 7        42.583 7  39360984.066 6 166549199.844 6        32.818 6        40.858 6
C07  36088391.191 8 187921726.909 8      -591.660 8        48.165 8  36088396.809 8 145313017.284 8      -457.381 8        50.298 8  36088402.867 8 152701842.698 8      -480.639 8        48.670 8
C08  36269347.238 7 188864008.999 7      -206.230 7        47.427 7  36269353.965 8 146041658.641 8      -159.375 8        49.684 8  36269359.797 7 153467531.673 7      -167.846 7        47.554 7
C10  35793058.195 7 186383846.197 7      -240.801 7        47.978 7  35793067.031 8 144123846.334 8      -186.309 8        48.990 8  35793072.684 7 151452202.788 7      -195.463 7        47.949 7
C13  36846343.273 8 191868572.216 8       -63.066 8        49.412 8  36846355.434 7 148365006.883 7       -48.711 7        47.435 7  36846361.086 7 155909013.195 7       -51.068 7        46.796 7
S37  36956358.316 7 194206970.756 7         2.768 7        43.795 7
> 2022 06 21 05 04 30.0000000  0 24       0.000000000000
G02  23090184.449 7 121339741.035 7      1286.074 7        44.801 7  23090197.285 8  94550502.133 8      1002.178 8        48.286 8
G04  24343576.246 6 127926355.541 6       319.336 6        38.428 6  24343594.891 5  99682882.531 5       248.994 5        35.806 5
G06  20831421.797 8 109469859.556 8      -181.875 8        48.900 8  20831437.840 8  85301254.922 8      -141.611 8        50.226 8
G09  23482872.039 5 123403322.657 5      1610.684 5        35.544 5                                                                
G11  22265558.867 7 117006297.489 7      1591.523 7        46.683 7  22265573.965 8  91173804.926 8      1240.264 8        49.334 8
G12  23300310.500 6 122443961.491 6      2552.188 6        38.232 6  23300322.777 7  95410900.354 7      1990.400 7        42.859 7
G17  21075291.500 8 110751403.202 8      -705.391 8        48.305 8  21075304.148 8  86299831.733 8      -549.775 8        50.226 8
G19  20270384.414 8 106521585.614 8       259.766 8        49.041 8  20270394.859 8  83003880.609 8       202.354 8        50.226 8
G20  22754620.871 7 119576343.803 7      3021.016 7        42.913 7  22754636.441 6  93176378.765 6      2354.033 6        39.431 6
R07  20792905.961 8 111306050.702 8      -538.008 8        51.788 8  20792909.254 7  86571379.084 7      -418.096 7        47.005 7
R08  20794075.594 8 111351326.753 8      2963.998 8        51.662 8  20794080.891 8  86606619.786 8      2305.268 8        49.172 8
R12  22284260.344 8 119038514.817 8     -3611.938 8        48.658 8  22284269.367 7  92585548.847 7     -2808.941 7        43.959 7
R13  21506900.246 6 114845645.991 6     -1151.404 6        39.548 6  21506906.695 6  89324422.511 6      -894.219 6        38.298 6
R23  21338613.613 8 114147196.985 8      1371.906 8        48.742 8                                                                
C01  37493803.719 7 195240069.673 7        18.037 7        45.058 7  37493813.160 7 150972044.238 7        13.986 7        45.353 7  37493821.441 7 158648626.779 7        14.717 7        43.242 7
C02  37679055.313 6 196204727.918 6        36.182 6        41.374 6  37679061.930 7 151717966.997 7        28.029 7        44.134 7  37679072.887 7 159432488.993 7        29.521 7        43.178 7
C03  36888073.324 7 192085875.478 7        38.994 7        46.693 7  36888079.266 7 148533009.978 7        30.080 7        47.499 7  36888088.285 7 156085573.818 7        31.650 7        45.642 7
C04  38556304.773 6 200772799.697 6         0.088 6        38.232 6  38556314.969 7 155250298.808 7        -0.213 7        44.368 7  38556321.793 6 163144415.811 6         0.225 6        40.967 6
C05  39360887.719 6 204962471.014 6        40.479 6        39.880 6  39360900.027 7 158490038.976 7        30.842 7        42.868 7  39360906.836 6 166548874.151 6        32.568 6        40.517 6
C07  36089529.895 8 187927653.880 8      -593.389 8        48.199 8  36089535.297 8 145317600.399 8      -458.980 8        50.615 8  36089541.102 8 152706658.841 8      -482.197 8        48.529 8
C08  36269745.301 7 188866079.181 7      -207.568 7        47.600 7  36269751.344 8 146043259.419 8      -160.328 8        49.669 8  36269757.414 7 153469213.862 7      -168.721 7        47.411 7
C10  35793521.934 7 186386263.656 7      -242.314 7        47.834 7  35793531.090 8 144125715.667 8      -187.359 8        49.018 8  35793537.035 8 151454167.182 8      -197.061 8        48.172 8
C13  36846465.414 8 191869209.433 8       -64.248 8        49.294 8  36846478.258 7 148365499.616 7       -49.842 7        47.885 7  36846483.363 7 155909530.982 7       -52.021 7        46.721 7
S37  36956354.324 7 194206949.159 7         1.934 7        43.586 7
> 2022 06 21 05 04 40.0000000  0 24       0.000000000000
G02  23087739.641 7 121326889.196 7      1284.182 7        45.340 7  23087751.473 7  94540487.743 7      1000.740 7        47.832 7
G04  24342972.316 6 127923181.787 6       314.787 6        37.427 6  24342990.359 5  99680409.512 5       245.311 5        35.209 5
G06  20831770.430 8 109471687.789 8      -183.982 8        49.493 8  20831783.438 8  85302671.517 8      -143.166 8        48.296 8
G09  23479810.219 6 123387231.328 6      1605.959 6        36.014 6                                                                
G11  22262533.391 7 116990394.051 7      1589.084 7        47.255 7  22262548.145 8  91161412.675 8      1238.203 8        49.447 8
G12  23295455.594 6 122418451.509 6      2548.264 6        37.263 6  23295468.832 7  95391022.486 7      1985.840 7        42.377 7
G17  21076637.480 8 110758475.172 8      -709.160 8        48.634 8  21076650.059 8  86305342.355 8      -552.482 8        50.226 8
G19  20269893.238 8 106519007.306 8       255.900 8        48.219 8  20269904.430 8  83001871.536 8       199.432 8        50.226 8
G20  22748873.645 7 119546141.422 7      3018.967 7        42.483 7  22748888.668 6  93152844.509 6      2352.578 6        39.058 6
R07  20793918.527 8 111311474.646 8      -546.773 8        52.692 8  20793919.961 7  86575597.693 7      -425.855 7        45.392 7
R08  20788546.039 8 111321716.255 8      2957.988 8        51.849 8  20788549.766 8  86583589.397 8      2300.479 8        49.018 8
R12  22291022.383 8 119074646.415 8     -3614.617 8        48.801 8  22291034.844 7  92613651.128 7     -2811.648 7        43.923 7
R13  21509061.535 6 114857186.686 6     -1157.934 6        38.854 6  21509068.125 6  89333398.569 6      -900.033 6        36.538 6
R23  21336050.535 7 114133479.732 7      1371.576 7        47.737 7                                                                
C01  37493768.719 7 195239889.453 7        17.672 7        45.418 7  37493778.055 7 150971904.899 7        13.658 7        45.456 7  37493786.992 7 158648480.357 7        14.365 7        43.178 7
C02  37678985.258 6 196204366.172 6        35.895 6        40.895 6  37678992.160 7 151717687.274 7        27.740 7        44.465 7  37679003.465 7 159432195.054 7        29.326 7        43.157 7
C03  36887998.367 7 192085484.808 7        39.000 7        46.518 7  36888004.234 7 148532707.893 7        30.143 7        47.677 7  36888013.320 7 156085256.378 7        31.396 7        45.773 7
C04  38556305.156 6 200772803.236 6        -0.551 6        37.662 6  38556315.457 7 155250301.521 7        -0.541 7        44.030 7  38556322.109 6 163144418.682 6        -0.518 6        40.672 6
C05  39360810.832 6 204962071.080 6        39.742 6        39.498 6  39360822.922 7 158489729.722 7        30.455 7        42.728 7  39360830.164 6 166548549.153 6        32.568 6        40.315 6
C07  36090670.434 8 187933595.738 8      -595.297 8        48.245 8  36090676.480 8 145322195.019 8      -460.150 8        50.668 8  36090682.254 8 152711487.074 8      -483.760 8        48.338 8
C08  36270144.121 7 188868157.704 7      -208.656 7        47.515 7  36270149.844 8 146044866.657 8      -160.854 8        49.674 8  36270156.617 7 153470902.820 7      -169.209 7        47.387 7
C10  35793989.258 7 186388696.318 7      -244.418 7        47.899 7  35793997.914 8 144127596.747 8      -188.705 8        49.123 8  35794004.141 7 151456143.916 7      -198.643 7        47.963 7
C13  36846588.961 8 191869855.164 8       -65.082 8        49.024 8  36846602.160 8 148365998.935 8       -50.678 8        48.138 8  36846607.477 7 155910055.690 7       -52.959 7        46.805 7
S37  36956350.660 7 194206928.393 7         1.760 7        43.263 7
> 2022 06 21 05 04 50.0000000  0 24       0.000000000000
G02  23085296.449 7 121314051.376 7      1283.166 7        44.831 7  23085309.070 7  94530484.258 7       999.914 7        47.957 7
G04  24342378.301 6 127920059.540 6       309.279 6        38.027 6  24342395.199 5  99677976.589 5       240.947 5        34.146 5
G06  20832120.961 8 109473536.023 8      -185.291 8        48.842 8  20832137.504 8  85304119.710 8      -144.521 8        50.226 8
G09  23476754.734 5 123371178.546 5      1603.967 5        35.017 5  23476758.770 3  96133402.199 3      1249.035 3        21.093 3
G11  22259510.246 7 116974512.392 7      1587.424 7        46.458 7  22259526.074 8  91149037.390 8      1237.063 8        49.486 8
G12  23290608.457 5 122392989.239 5      2543.869 5        35.017 5  23290624.227 7  95371181.753 7      1983.449 7        42.178 7
G17  21077989.375 8 110765581.874 8      -712.127 8        48.504 8  21078002.625 8  86310880.023 8      -554.717 8        50.226 8
G19  20269410.121 8 106516468.351 8       251.896 8        48.422 8  20269421.066 8  82999893.128 8       196.455 8        50.226 8
G20  22743131.039 7 119515967.923 7      3016.584 7        42.508 7  22743146.191 6  93129332.729 6      2350.598 6        39.568 6
R07  20794949.184 8 111316986.640 8      -554.973 8        52.493 8  20794951.762 7  86579884.829 7      -431.760 7        44.917 7
R08  20783026.988 8 111292164.744 8      2952.250 8        51.913 8  20783032.574 8  86560604.918 8      2296.234 8        49.299 8
R12  22297791.629 8 119110801.062 8     -3616.469 8        49.741 8  22297800.078 7  92641771.289 7     -2812.904 7        43.644 7
R13  21511236.617 6 114868804.056 6     -1165.234 6        38.854 6  21511240.770 5  89342434.272 5      -905.818 5        35.288 5
R23  21333486.359 8 114119766.269 8      1371.229 8        48.212 8                                                                
C01  37493734.051 7 195239709.890 7        18.023 7        44.874 7  37493743.531 7 150971766.055 7        14.057 7        45.418 7  37493752.238 7 158648334.441 7        14.637 7        42.680 7
C02  37678916.066 6 196204004.969 6        36.109 6        41.595 6  37678922.578 7 151717407.962 7        28.119 7        44.236 7  37678934.254 7 159431901.544 7        29.500 7        43.468 7
C03  36887923.023 7 192085094.872 7        39.137 7        46.712 7  36887929.430 7 148532406.365 7        30.307 7        47.246 7  36887938.445 7 156084939.526 7        31.961 7        45.889 7
C04  38556306.938 6 200772807.463 6        -0.512 6        38.165 6  38556316.238 7 155250304.786 7        -0.279 7        44.202 7  38556323.320 6 163144422.108 6        -0.129 6        40.748 6
C05  39360734.273 6 204961671.723 6        39.762 6        40.356 6  39360746.793 7 158489420.882 7        31.322 7        42.632 7  39360753.625 6 166548224.648 6        32.664 6        40.672 6
C07  36091814.090 8 187939551.950 8      -596.139 8        48.076 8  36091820.063 8 145326800.734 8      -460.807 8        50.497 8  36091826.188 8 152716326.982 8      -484.406 8        48.579 8
C08  36270544.699 7 188870244.276 7      -208.854 7        47.346 7  36270550.531 8 146046480.152 8      -161.471 8        49.402 8  36270557.277 7 153472598.338 7      -169.816 7        47.354 7
C10  35794459.273 8 186391143.811 8      -245.123 8        48.131 8  35794468.324 8 144129489.310 8      -189.850 8        49.134 8  35794474.250 8 151458132.706 8      -199.445 8        48.245 8
C13  36846714.914 8 191870509.068 8       -65.551 8        48.894 8  36846728.434 8 148366504.566 8       -50.455 8        48.272 8  36846732.930 7 155910587.050 7       -53.234 7        46.731 7
S37  36956346.613 7 194206908.140 7         2.150 7        43.284 7
> 2022 06 21 05 05  0.0000000  0 24       0.000000000000
G02  23082855.227 7 121301227.459 7      1281.344 7        43.959 7  23082868.934 7  94520491.652 7       998.510 7        47.340 7
G04  24341792.980 6 127916988.535 6       304.098 6        37.005 6  24341811.582 5  99675583.647 5       236.967 5        34.517 5
G06  20832476.617 8 109475404.077 8      -187.914 8        48.658 8  20832492.957 8  85305576.334 8      -146.314 8        50.226 8
G09  23473708.234 5 123355164.275 5      1598.551 5        35.666 5  23473715.320 4  96120923.494 4      1246.010 4        24.517 4
G11  22256491.793 7 116958652.344 7      1584.977 7        45.958 7  22256507.621 8  91136678.916 8      1234.994 8        49.615 8
G12  23285771.594 6 122367574.546 6      2538.531 6        36.014 6  23285788.719 7  95351378.109 7      1978.627 7        42.529 7
G17  21079348.387 8 110772723.009 8      -715.688 8        48.357 8  21079361.582 8  86316444.529 8      -557.506 8        50.226 8
G19  20268934.410 8 106513968.621 8       248.004 8        48.760 8  20268945.340 8  82997945.279 8       193.236 8        50.226 8
G20  22737394.980 7 119485823.183 7      3013.004 7        43.113 7  22737409.734 6  93105843.352 6      2347.768 6        40.002 6
R07  20795992.980 8 111322586.553 8      -564.605 8        51.543 8  20795996.277 7  86584240.322 7      -438.939 7        45.405 7
R08  20777518.641 8 111262671.902 8      2946.736 8        50.988 8  20777525.516 8  86537666.077 8      2291.377 8        48.652 8
R12  22304562.840 8 119146978.388 8     -3619.041 8        48.996 8  22304574.156 7  92669909.081 7     -2814.451 7        43.663 7
R13  21513427.414 6 114880497.800 6     -1173.430 6        38.616 6  21513432.141 6  89351529.445 6      -912.619 6        37.093 6
R23  21330921.715 8 114106056.485 8      1370.855 8        49.107 8                                                                
C01  37493699.027 7 195239530.764 7        18.193 7        44.667 7  37493709.617 7 150971627.543 7        13.764 7        45.738 7  37493717.629 7 158648188.891 7        14.451 7        42.728 7
C02  37678846.879 6 196203644.072 6        36.045 6        41.438 6  37678854.000 7 151717128.894 7        27.982 7        44.368 7  37678864.809 7 159431608.285 7        28.982 7        43.488 7
C03  36887848.543 7 192084705.494 7        39.268 7        46.805 7  36887854.449 7 148532105.271 7        30.189 7        47.321 7  36887863.504 7 156084623.127 7        31.463 7        45.666 7
C04  38556307.293 6 200772812.116 6        -0.205 6        38.795 6  38556316.988 7 155250308.401 7        -0.396 7        44.168 7  38556324.516 6 163144425.925 6        -0.549 6        41.276 6
C05  39360657.180 6 204961272.686 6        40.068 6        39.788 6  39360670.629 7 158489112.365 7        30.541 7        42.171 7  39360676.918 6 166547900.415 6        32.342 6        40.231 6
C07  36092960.793 8 187945522.525 8      -597.588 8        48.069 8  36092966.445 8 145331417.572 8      -462.115 8        50.445 8  36092972.848 8 152721178.576 8      -485.822 8        48.579 8
C08  36270946.645 7 188872338.548 7      -210.127 7        47.145 7  36270952.727 8 146048099.574 8      -162.350 8        49.612 8  36270959.543 7 153474300.103 7      -170.373 7        47.577 7
C10  35794932.441 8 186393606.077 8      -246.904 8        48.034 8  35794941.527 8 144131393.291 8      -191.178 8        49.453 8  35794946.895 8 151460133.495 8      -200.783 8        48.192 8
C13  36846841.621 8 191871170.908 8       -66.533 8        48.712 8  36846855.715 8 148367016.348 8       -51.646 8        48.402 8  36846860.172 7 155911124.840 7       -54.025 7        46.805 7
S37  36956342.676 7 194206888.171 7         1.891 7        43.407 7
> 2022 06 21 05 05 10.0000000  0 24       0.000000000000
G02  23080418.211 7 121288417.143 7      1279.678 7        44.742 7  23080431.129 7  94510509.627 7       997.057 7        47.565 7
G04  24341218.879 6 127913968.699 6       299.131 6        37.737 6  24341236.762 5  99673230.590 5       233.033 5        34.748 5
G06  20832836.617 8 109477291.637 8      -189.834 8        49.096 8  20832852.199 8  85307038.164 8      -148.002 8        50.226 8
G09  23470665.223 5 123339188.145 5      1593.232 5        32.407 5  23470679.492 4  96108508.591 4      1243.170 4        26.891 4
G11  22253478.258 7 116942813.605 7      1582.256 7        45.832 7  22253493.629 8  91124337.039 8      1233.014 8        49.206 8
G12  23280946.371 6 122342207.081 6      2533.740 6        36.824 6  23280961.465 6  95331611.379 6      1974.635 6        41.554 6
G17  21080713.895 8 110779898.241 8      -719.189 8        48.622 8  21080727.047 8  86322035.646 8      -560.775 8        50.226 8
G19  20268466.625 8 106511507.851 8       243.857 8        49.225 8  20268477.027 8  82996027.789 8       189.986 8        50.226 8
G20  22731663.844 7 119455707.007 7      3009.424 7        42.891 7  22731678.371 6  93082376.252 6      2345.025 6        40.508 6
R07  20797055.027 8 111328273.804 8      -573.316 8        51.668 8  20797060.039 7  86588663.741 7      -445.832 7        46.587 7
R08  20772022.957 8 111233237.668 8      2940.113 8        51.107 8  20772027.395 8  86514772.790 8      2286.770 8        49.013 8
R12  22311339.555 8 119183177.820 8     -3621.268 8        49.182 8  22311350.727 7  92698064.122 7     -2816.891 7        43.199 7
R13  21515630.016 6 114892267.466 6     -1181.652 6        38.165 6  21515634.598 6  89360683.595 6      -918.535 6        39.294 6
R23  21328359.848 7 114092349.908 7      1370.055 7        47.443 7                                                                
C01  37493665.344 7 195239351.840 7        17.434 7        45.045 7  37493674.684 7 150971489.192 7        13.336 7        45.340 7  37493683.426 7 158648043.503 7        14.092 7        42.936 7
C02  37678778.105 6 196203283.255 6        35.695 6        41.276 6  37678784.762 7 151716849.887 7        27.828 7        43.923 7  37678795.434 7 159431315.082 7        28.857 7        43.070 7
C03  36887773.582 7 192084316.424 7        38.625 7        46.778 7  36887779.844 7 148531804.417 7        29.801 7        47.246 7  36887788.848 7 156084306.973 7        31.299 7        45.366 7
C04  38556308.422 6 200772817.010 6        -0.398 6        38.232 6  38556317.938 7 155250312.193 7        -0.551 7        44.202 7  38556325.219 6 163144429.909 6        -0.869 6        40.595 6
C05  39360580.250 6 204960873.802 6        39.113 6        39.397 6  39360593.629 7 158488803.895 7        30.641 7        42.433 7  39360600.441 6 166547576.302 6        31.846 6        40.315 6
C07  36094110.121 8 187951507.068 8      -599.480 8        48.219 8  36094115.883 8 145336045.209 8      -463.713 8        50.441 8  36094121.941 8 152726041.518 8      -487.412 8        48.331 8
C08  36271350.430 7 188874440.379 7      -210.887 7        47.238 7  36271356.871 8 146049724.859 8      -163.148 8        49.802 8  36271363.254 7 153476008.023 7      -171.533 7        47.179 7
C10  35795408.598 8 186396082.813 8      -248.797 8        48.402 8  35795417.254 8 144133308.456 8      -192.602 8        49.361 8  35795422.520 7 151462146.036 7      -202.295 7        47.819 7
C13  36846969.563 8 191871840.434 8       -67.547 8        48.718 8  36846983.941 8 148367534.059 8       -52.484 8        48.083 8  36846988.844 7 155911668.880 7       -55.264 7        46.596 7
S37  36956338.938 7 194206868.275 7         1.357 7        43.242 7
> 2022 06 21 05 05 20.0000000  0 24       0.000000000000
G02  23077983.441 7 121275620.396 7      1279.107 7        44.742 7  23077995.992 7  94500538.126 7       996.631 7        47.539 7
G04  24340654.180 6 127911000.028 6       294.320 6        37.737 6  24340671.090 5  99670917.350 5       229.287 5        35.037 5
G06  20833198.867 8 109479198.753 8      -191.520 8        48.801 8  20833215.238 8  85308534.220 8      -149.287 8        50.226 8
G09  23467633.336 5 123323250.421 5      1590.904 5        31.564 5  23467649.832 4  96096103.728 4      1240.361 4        24.517 4
G11  22250467.977 7 116926996.153 7      1580.494 7        45.866 7  22250483.344 8  91112011.801 8      1231.475 8        49.429 8
G12  23276126.402 6 122316887.276 6      2529.947 6        36.538 6  23276142.328 7  95311881.669 7      1971.260 7        42.566 7
G17  21082085.801 8 110787107.958 8      -722.652 8        48.682 8  21082099.094 8  86327653.587 8      -563.467 8        50.226 8
G19  20268005.379 8 106509086.210 8       240.258 8        48.597 8  20268016.125 8  82994140.789 8       187.295 8        50.226 8
G20  22725938.250 7 119425619.539 7      3007.018 7        43.448 7  22725953.305 6  93058931.511 6      2343.096 6        41.722 6
R07  20798133.652 8 111334048.719 8      -581.729 8        51.175 8  20798138.953 8  86593155.357 8      -452.674 8        48.076 8
R08  20766537.406 8 111203862.299 8      2934.498 8        51.939 8  20766544.137 8  86491925.288 8      2282.547 8        49.166 8
R12  22318120.957 8 119219399.368 8     -3623.242 8        48.573 8  22318130.984 7  92726236.339 7     -2818.289 7        43.242 7
R13  21517847.336 6 114904113.155 6     -1188.666 6        38.736 6  21517855.930 6  89369896.872 6      -924.018 6        39.346 6
R23  21325797.230 8 114078646.850 8      1370.332 8        48.819 8                                                                
C01  37493631.016 7 195239173.188 7        18.152 7        45.154 7  37493640.711 7 150971351.053 7        13.523 7        45.605 7  37493649.254 7 158647898.332 7        14.664 7        42.913 7
C02  37678707.609 6 196202922.621 6        35.613 6        41.626 6  37678715.301 7 151716571.003 7        28.133 7        44.667 7  37678726.293 7 159431022.037 7        29.078 7        43.427 7
C03  36887699.223 7 192083927.727 7        38.914 7        46.721 7  36887705.020 7 148531503.854 7        30.184 7        47.530 7  36887714.242 7 156083991.114 7        31.793 7        45.506 7
C04  38556309.184 6 200772822.227 6        -0.324 6        38.298 6  38556319.309 7 155250316.231 7        -0.598 7        44.253 7  38556326.336 6 163144434.148 6        -0.707 6        41.374 6
C05  39360504.281 6 204960475.051 6        39.852 6        39.597 6  39360516.516 7 158488495.608 7        30.984 7        42.632 7  39360523.934 6 166547252.292 6        32.711 6        40.437 6
C07  36095262.027 8 187957505.789 8      -600.598 8        48.396 8  36095268.180 8 145340683.806 8      -464.348 8        50.493 8  36095273.938 8 152730915.960 8      -488.051 8        48.239 8
C08  36271756.109 7 188876549.722 7      -211.145 7        47.538 7  36271762.121 8 146051355.935 8      -163.371 8        49.912 8  36271768.465 7 153477722.051 7      -171.781 7        47.162 7
C10  35795886.930 8 186398574.042 8      -249.777 8        48.566 8  35795895.695 8 144135234.835 8      -193.332 8        49.252 8  35795901.004 7 151464170.359 7      -203.031 7        47.899 7
C13  36847099.824 8 191872517.794 8       -68.273 8        48.766 8  36847113.848 8 148368057.823 8       -52.473 8        48.357 8  36847118.953 7 155912219.289 7       -55.609 7        46.567 7
S37  36956334.875 7 194206848.495 7         2.094 7        43.003 7
> 2022 06 21 05 05 30.0000000  0 24       0.000000000000
G02  23075550.445 7 121262837.403 7      1277.322 7        44.816 7  23075564.195 8  94490577.379 8       995.260 8        48.035 8
G04  24340099.121 6 127908082.688 6       288.162 6        38.165 6  24340115.504 6  99668644.104 6       224.398 6        36.062 6
G06  20833565.605 8 109481125.504 8      -194.162 8        49.046 8  20833581.820 8  85310035.583 8      -151.324 8        50.226 8
G09  23464608.367 5 123307351.406 5      1587.693 5        32.144 5  23464627.625 4  96083714.949 4      1236.490 4        24.895 4
G11  22247462.898 7 116911200.219 7      1578.006 7        47.040 7  22247476.805 8  91099703.287 8      1229.596 8        48.907 8
G12  23271319.797 6 122291615.424 6      2524.451 6        39.346 6  23271332.820 7  95292189.273 7      1967.467 7        43.304 7
G17  21083464.629 8 110794352.222 8      -726.896 8        48.888 8  21083477.867 8  86333298.438 8      -566.148 8        50.226 8
G19  20267551.918 8 106506703.828 8       235.916 8        48.529 8  20267563.051 8  82992284.390 8       183.832 8        50.226 8
G20  22720219.004 7 119395561.001 7      3003.514 7        44.528 7  22720234.129 7  93035509.328 7      2340.318 7        43.096 7
R07  20799228.656 8 111339911.291 8      -591.064 8        51.564 8  20799234.813 8  86597715.114 8      -459.717 8        48.390 8
R08  20761061.500 8 111174546.218 8      2928.131 8        52.081 8  20761068.945 8  86469123.913 8      2277.221 8        49.002 8
R12  22324908.285 8 119255642.883 8     -3625.779 8        48.865 8  22324916.449 7  92754425.638 7     -2820.469 7        42.407 7
R13  21520080.313 6 114916034.856 6     -1196.574 6        39.188 6  21520088.191 6  89379169.329 6      -930.453 6        38.968 6
R23  21323238.531 8 114064947.404 8      1369.396 8        48.854 8                                                                
C01  37493596.598 7 195238994.973 7        17.332 7        45.017 7  37493606.223 7 150971213.230 7        13.430 7        45.017 7  37493614.965 7 158647753.502 7        14.428 7        42.680 7
C02  37678638.492 6 196202562.248 6        35.633 6        41.438 6  37678645.684 7 151716292.357 7        27.453 7        43.959 7  37678657.082 7 159430729.205 7        29.076 7        43.113 7
C03  36887624.488 7 192083539.531 7        38.504 7        46.924 7  36887630.820 7 148531203.676 7        29.855 7        47.136 7  36887639.715 7 156083675.687 7        31.088 7        45.494 7
C04  38556310.434 6 200772827.871 6        -0.598 6        38.364 6  38556320.055 7 155250320.606 7        -1.004 7        43.814 7  38556327.301 6 163144438.740 6        -0.553 6        40.967 6
C05  39360427.293 6 204960076.666 6        39.227 6        39.971 6  39360440.027 7 158488187.537 7        30.188 7        42.198 7  39360447.340 6 166546928.553 6        31.752 6        40.595 6
C07  36096416.773 8 187963518.697 8      -602.668 8        48.259 8  36096422.926 8 145345333.361 8      -465.750 8        50.433 8  36096428.434 8 152735801.937 8      -489.459 8        48.027 8
C08  36272161.879 7 188878666.823 7      -212.707 7        47.411 7  36272168.426 8 146052992.995 8      -164.324 8        49.412 8  36272174.879 7 153479442.356 7      -172.975 7        47.238 7
C10  35796368.324 8 186401079.940 8      -251.770 8        48.664 8  35796376.480 8 144137172.552 8      -194.734 8        49.041 8  35796382.273 7 151466206.613 7      -204.674 7        47.819 7
C13  36847231.211 8 191873202.937 8       -69.582 8        48.748 8  36847245.055 7 148368587.621 7       -53.602 7        47.985 7  36847250.430 7 155912776.013 7       -56.451 7        46.645 7
S37  36956331.289 7 194206828.984 7         1.287 7        43.284 7
> 2022 06 21 05 05 40.0000000  0 24       0.000000000000
G02  23073120.105 7 121250067.208 7      1276.203 7        44.543 7  23073133.801 8  94480626.612 8       994.457 8        48.327 8
G04  24339553.301 6 127905215.792 6       284.074 6        38.165 6  24339571.434 6  99666410.153 6       221.371 6        36.508 6
G06  20833936.152 8 109483070.896 8      -195.066 8        49.283 8  20833951.992 8  85311520.477 8      -152.301 8        50.226 8
G09  23461590.492 5 123291490.159 5      1583.176 5        32.891 5  23461610.953 4  96071355.595 4      1233.793 4        25.564 4
G11  22244460.051 7 116895424.787 7      1576.672 7        45.924 7  22244474.645 8  91087410.762 8      1228.500 8        48.504 8
G12  23266519.570 6 122266390.493 6      2520.344 6        40.231 6  23266532.648 7  95272533.473 7      1964.770 7        44.548 7
G17  21084849.410 8 110801630.055 8      -729.090 8        48.962 8  21084862.688 8  86338969.491 8      -568.492 8        50.226 8
G19  20267105.977 8 106504359.797 8       232.473 8        48.911 8  20267117.238 8  82990457.861 8       181.117 8        50.226 8
G20  22714504.133 7 119365530.458 7      3002.082 7        45.761 7  22714519.945 7  93012108.950 7      2339.223 7        45.127 7
R07  20800341.070 8 111345860.564 8      -599.102 8        51.650 8  20800346.941 8  86602342.355 8      -466.074 8        48.795 8
R08  20755596.273 8 111145288.232 8      2923.041 8        51.659 8  20755605.012 8  86446367.743 8      2273.188 8        48.830 8
R12  22331695.836 8 119291907.450 8     -3627.676 8        48.923 8  22331707.008 7  92782631.287 7     -2821.213 7        42.278 7
R13  21522324.406 6 114928031.491 6     -1203.080 6        38.096 6  21522332.715 6  89388500.021 6      -935.689 6        37.812 6
R23  21320677.332 7 114051250.374 7      1369.701 7        47.255 7                                                                
C01  37493562.406 7 195238816.205 7        18.025 7        44.727 7  37493571.527 7 150971074.992 7        14.217 7        44.831 7  37493580.715 7 158647608.263 7        14.549 7        42.583 7
C02  37678570.172 6 196202201.221 6        36.619 6        41.595 6  37678576.539 7 151716013.199 7        27.869 7        44.335 7  37678587.617 7 159430435.852 7        29.764 7        43.178 7
C03  36887549.945 7 192083150.896 7        39.217 7        46.438 7  36887555.703 7 148530903.149 7        30.584 7        47.005 7  36887564.945 7 156083359.878 7        31.814 7        45.392 7
C04  38556311.906 6 200772833.036 6        -0.783 6        38.491 6  38556320.883 7 155250324.565 7        -0.295 7        43.605 7  38556328.340 6 163144442.905 6        -0.588 6        40.672 6
C05  39360350.387 6 204959677.611 6        40.115 6        39.397 6  39360363.625 7 158487878.960 7        31.111 7        42.198 7  39360370.656 6 166546604.315 6        32.615 6        39.971 6
C07  36097574.000 8 187969544.930 8      -603.264 8        48.013 8  36097580.547 8 145349993.228 8      -466.643 8        50.611 8  36097585.691 8 152740698.733 8      -490.100 8        48.331 8
C08  36272569.090 7 188880790.542 7      -212.639 7        46.778 7  36272576.172 8 146054635.190 8      -164.436 8        49.356 8  36272582.523 7 153481168.052 7      -172.854 7        46.969 7
C10  35796852.125 8 186403599.516 8      -252.580 8        48.548 8  35796860.531 8 144139120.849 8      -195.549 8        48.996 8  35796866.105 8 151468253.979 8      -205.314 8        48.034 8
C13  36847363.543 7 191873895.062 7       -69.455 7        47.928 7  36847377.926 7 148369122.816 7       -53.518 7        47.737 7  36847383.332 7 155913338.422 7       -56.662 7        46.547 7
S37  36956327.648 7 194206808.771 7         1.926 7        43.720 7
> 2022 06 21 05 05 50.0000000  0 24       0.000000000000
G02  23070694.063 7 121237311.372 7      1275.166 7        46.134 7  23070705.793 8  94470687.019 8       993.635 8        48.658 8
G04  24339018.074 6 127902401.123 6       279.873 6        38.616 6  24339035.660 6  99664216.911 6       218.049 6        36.751 6
G06  20834309.699 8 109485036.617 8      -197.354 8        48.688 8  20834326.082 8  85313083.217 8      -154.100 8        50.226 8
G09  23458581.777 5 123275668.676 5      1580.439 5        34.253 5  23458601.809 4  96059027.150 4      1231.525 4        28.253 4
G11  22241462.207 7 116879671.558 7      1574.541 7        46.167 7  22241477.305 8  91075135.542 8      1226.857 8        48.867 8
G12  23261728.789 6 122241214.347 6      2514.990 6        40.748 6  23261741.582 7  95252915.733 7      1959.689 7        44.984 7
G17  21086241.344 8 110808943.361 8      -733.271 8        49.220 8  21086254.305 8  86344668.153 8      -571.170 8        50.226 8
G19  20266667.336 8 106502055.980 8       228.447 8        48.760 8  20266678.852 8  82988662.671 8       178.010 8        50.226 8
G20  22708795.129 7 119335529.769 7      2998.838 7        45.469 7  22708810.797 7  92988731.842 7      2336.643 7        45.384 7
R07  20801468.383 8 111351898.071 8      -607.959 8        52.491 8  20801474.113 8  86607038.194 8      -473.285 8        49.041 8
R08  20750147.668 8 111116090.592 8      2917.152 8        51.726 8  20750151.105 8  86423658.492 8      2268.264 8        49.377 8
R12  22338490.980 8 119328194.394 8     -3629.803 8        48.529 8  22338499.430 7  92810854.419 7     -2823.215 7        43.663 7
R13  21524589.840 6 114940104.710 6     -1211.184 6        38.165 6  21524596.000 6  89397890.236 6      -942.086 6        36.124 6
R23  21318117.141 8 114037557.872 8      1369.453 8        48.603 8                                                                
C01  37493528.570 7 195238638.622 7        17.701 7        45.141 7  37493537.691 7 150970937.680 7        13.828 7        45.418 7  37493546.672 7 158647463.944 7        14.660 7        42.981 7
C02  37678501.242 6 196201841.282 6        35.982 6        41.438 6  37678506.859 7 151715734.872 7        27.598 7        44.202 7  37678518.352 7 159430143.366 7        29.250 7        42.845 7
C03  36887475.254 7 192082763.566 7        38.775 7        46.693 7  36887481.586 7 148530603.654 7        29.980 7        47.196 7  36887490.594 7 156083045.138 7        31.340 7        45.581 7
C04  38556312.305 6 200772839.339 6        -0.229 6        37.956 6  38556322.391 7 155250329.454 7        -0.371 7        43.905 7  38556329.504 6 163144448.031 6        -0.359 6        40.931 6
C05  39360274.520 6 204959279.688 6        39.654 6        40.103 6  39360287.504 7 158487571.264 7        30.781 7        43.199 7  39360294.043 6 166546280.957 6        32.746 6        40.822 6
C07  36098734.516 8 187975586.115 8      -604.682 8        48.318 8  36098740.633 8 145354664.654 8      -467.813 8        50.672 8  36098745.777 8 152745607.695 8      -491.316 8        48.331 8
C08  36272978.695 7 188882922.675 7      -213.412 7        47.005 7  36272985.922 8 146056283.896 8      -165.391 8        49.621 8  36272991.738 7 153482900.578 7      -173.309 7        47.329 7
C10  35797338.570 8 186406134.590 8      -254.330 8        48.364 8  35797347.836 8 144141081.129 8      -196.895 8        49.538 8  35797353.059 8 151470313.934 8      -206.434 8        48.285 8
C13  36847497.914 8 191874595.707 8       -70.541 8        48.048 8  36847513.008 7 148369664.592 7       -54.414 7        47.992 7  36847517.910 7 155913907.731 7       -57.156 7        46.969 7
S37  36956324.578 7 194206789.571 7         2.314 7        43.720 7
> 2022 06 21 05 06  0.0000000  0 24       0.000000000000
G02  23068268.508 7 121224567.977 7      1273.328 7        45.418 7  23068280.941 8  94460757.125 8       992.127 8        48.525 8
G04  24338491.637 6 127899636.753 6       273.582 6        39.134 6  24338508.949 6  99662062.894 6       213.123 6        37.625 6
G06  20834687.316 8 109487020.700 8      -199.699 8        48.554 8  20834703.688 8  85314628.244 8      -155.490 8        50.226 8
G09  23455577.418 5 123259884.871 5      1576.434 5        33.905 5  23455598.965 4  96046728.075 4      1228.240 4        28.082 4
G11  22238469.008 7 116863938.542 7      1571.980 7        46.547 7  22238483.832 8  91062876.103 8      1224.920 8        48.746 8
G12  23256947.512 6 122216085.057 6      2510.457 6        41.374 6  23256959.492 7  95233334.468 7      1957.732 7        45.690 7
G17  21087638.918 8 110816290.101 8      -736.574 8        48.778 8  21087652.355 8  86350392.889 8      -574.279 8        50.226 8
G19  20266236.914 8 106499790.431 8       224.617 8        49.018 8  20266248.090 8  82986897.308 8       175.154 8        50.226 8
G20  22703090.914 7 119305556.980 7      2995.711 7        45.275 7  22703107.082 7  92965376.491 7      2334.354 7        44.548 7
R07  20802613.379 8 111358022.116 8      -617.049 8        52.251 8  20802617.820 8  86611801.352 8      -479.953 8        49.262 8
R08  20744704.711 8 111086951.376 8      2910.973 8        51.687 8  20744708.578 8  86400994.648 8      2263.861 8        49.150 8
R12  22345283.469 8 119364501.848 8     -3632.174 8        48.205 8  22345295.785 7  92839093.429 7     -2824.490 7        42.171 7
R13  21526866.367 6 114952252.298 6     -1219.471 6        39.188 6  21526867.516 6  89407338.363 6      -947.543 6        37.263 6
R23  21315558.590 8 114023867.787 8      1368.803 8        48.718 8                                                                
C01  37493494.477 7 195238460.251 7        17.291 7        45.195 7  37493503.492 7 150970799.736 7        13.729 7        45.058 7  37493512.723 7 158647318.998 7        14.318 7        43.663 7
C02  37678431.199 6 196201480.375 6        36.158 6        41.276 6  37678437.676 7 151715455.793 7        27.830 7        44.100 7  37678449.309 7 159429850.110 7        28.889 7        43.304 7
C03  36887400.813 7 192082375.521 7        38.189 7        46.547 7  36887407.180 7 148530303.576 7        30.115 7        47.395 7  36887415.980 7 156082729.805 7        31.115 7        45.726 7
C04  38556313.449 6 200772844.915 6        -0.307 6        37.737 6  38556323.105 7 155250333.755 7        -0.568 7        43.682 7  38556330.590 6 163144452.571 6        -0.818 6        41.107 6
C05  39360197.676 6 204958880.818 6        39.869 6        39.294 6  39360210.234 7 158487262.863 7        30.486 7        42.330 7  39360217.531 6 166545956.854 6        32.326 6        40.556 6
C07  36099897.102 8 187981640.358 8      -606.537 8        48.151 8  36099903.184 8 145359346.167 8      -468.947 8        50.695 8  36099908.543 8 152750527.262 8      -492.596 8        48.428 8
C08  36273390.047 7 188885061.292 7      -214.584 7        47.110 7  36273396.523 8 146057937.597 8      -165.842 8        49.518 8  36273402.391 7 153484638.359 7      -173.963 7        47.443 7
C10  35797827.406 7 186408683.154 7      -255.932 7        47.885 7  35797837.137 8 144143051.827 8      -197.658 8        49.397 8  35797842.512 8 151472384.836 8      -207.693 8        48.090 8
C13  36847634.422 8 191875303.014 8       -71.146 8        48.312 8  36847648.910 8 148370211.533 8       -55.354 8        48.062 8  36847653.582 7 155914482.480 7       -57.713 7        46.749 7
S37  36956320.141 7 194206769.451 7         1.902 7        43.869 7
> 2022 06 21 05 06 10.0000000  0 24       0.000000000000
G02  23065845.133 7 121211838.301 7      1272.475 7        44.860 7  23065859.043 8  94450837.961 8       991.455 8        49.427 8
G04  24337975.676 6 127896924.093 6       268.449 6        38.491 6  24337993.035 6  99659949.129 6       209.189 6        38.433 6
G06  20835068.258 8 109489024.405 8      -201.180 8        48.377 8  20835084.969 8  85316190.574 8      -156.553 8        50.226 8
G09  23452582.391 5 123244140.324 5      1571.361 5        33.905 5  23452604.168 4  96034459.617 4      1225.244 4        25.864 4
G11  22235477.844 7 116848227.095 7      1570.346 7        44.845 7  22235493.742 8  91050633.421 8      1223.623 8        48.770 8
G12  23252172.566 6 122191004.116 6      2506.615 6        39.188 6  23252186.848 7  95213790.868 7      1954.150 7        45.797 7
G17  21089044.113 8 110823671.672 8      -739.754 8        48.603 8  21089057.234 8  86356144.754 8      -576.689 8        50.226 8
G19  20265812.676 8 106497564.521 8       220.754 8        48.819 8  20265824.379 8  82985162.832 8       171.963 8        50.226 8
G20  22697393.309 7 119275613.523 7      2993.080 7        45.418 7  22697409.262 7  92942043.970 7      2332.316 7        45.144 7
R07  20803772.016 8 111364233.887 8      -625.426 8        52.354 8  20803776.313 8  86616632.723 8      -486.564 8        48.985 8
R08  20739272.957 8 111057872.088 8      2905.096 8        50.942 8  20739279.832 8  86378377.453 8      2259.457 8        48.778 8
R12  22352086.586 8 119400830.682 8     -3633.578 8        49.024 8  22352097.613 7  92867349.093 7     -2826.395 7        42.090 7
R13  21529153.672 6 114964475.525 6     -1225.818 6        39.548 6  21529154.961 6  89416845.217 6      -952.609 6        37.005 6
R23  21312999.926 7 114010181.236 7      1368.139 7        46.325 7                                                                
C01  37493459.844 7 195238282.432 7        17.963 7        45.262 7  37493469.145 7 150970662.243 7        13.861 7        45.168 7  37493478.504 7 158647174.508 7        14.441 7        43.263 7
C02  37678361.902 6 196201119.949 6        36.459 6        40.931 6  37678368.734 7 151715177.099 7        27.826 7        43.869 7  37678379.887 7 159429557.219 7        29.500 7        43.135 7
C03  36887326.039 7 192081988.129 7        38.939 7        46.508 7  36887332.871 7 148530004.026 7        30.092 7        46.796 7  36887341.715 7 156082415.028 7        31.473 7        45.593 7
C04  38556315.840 6 200772851.068 6        -0.475 6        38.676 6  38556323.746 7 155250338.525 7        -0.494 7        43.547 7  38556331.566 6 163144457.593 6        -0.598 6        40.931 6
C05  39360121.582 6 204958482.447 6        39.975 6        39.448 6  39360133.566 7 158486954.820 7        30.658 7        42.171 7  39360141.148 6 166545633.150 6        32.293 6        40.710 6
C07  36101062.402 8 187987709.033 8      -607.232 8        48.325 8  36101068.125 8 145364038.859 8      -469.713 8        50.307 8  36101073.977 8 152755458.562 8      -493.547 8        48.298 8
C08  36273801.969 7 188887207.617 7      -214.869 7        47.213 7  36273808.766 8 146059597.271 8      -166.002 8        49.361 8  36273814.711 7 153486382.430 7      -174.680 7        47.280 7
C10  35798319.816 8 186411246.590 8      -256.979 8        48.205 8  35798328.902 8 144145034.027 8      -198.658 8        48.718 8  35798334.621 8 151474467.833 8      -208.918 8        48.062 8
C13  36847771.711 8 191876018.164 8       -71.842 8        49.041 8  36847786.914 7 148370764.528 7       -55.299 7        47.992 7  36847790.887 7 155915063.605 7       -58.293 7        46.787 7
S37  36956316.738 7 194206749.768 7         2.102 7        43.586 7
> 2022 06 21 05 06 20.0000000  0 24       0.000000000000
G02  23063425.695 7 121199122.296 7      1270.164 7        45.288 7  23063439.402 8  94440929.388 8       989.738 8        48.746 8
G04  24337469.234 6 127894262.953 6       263.092 6        39.346 6  24337486.863 6  99657875.535 6       204.973 6        38.831 6
G06  20835453.277 8 109491047.556 8      -203.549 8        48.813 8  20835470.418 8  85317768.055 8      -158.680 8        50.226 8
G09  23449592.156 5 123228434.729 5      1568.270 5        31.242 5  23449616.141 4  96022221.514 4      1223.000 4        24.103 4
G11  22232493.480 7 116832537.048 7      1567.391 7        45.506 7  22232508.289 8  91038407.398 8      1221.301 8        49.007 8
G12  23247409.566 6 122165971.401 6      2499.910 6        39.926 6  23247424.289 7  95194284.842 7      1948.352 7        46.220 7
G17  21090455.242 8 110831087.885 8      -743.744 8        48.640 8  21090468.438 8  86361923.595 8      -579.324 8        50.226 8
G19  20265397.094 8 106495378.176 8       216.256 8        49.085 8  20265408.242 8  82983459.186 8       168.488 8        50.226 8
G20  22691700.926 7 119245699.245 7      2989.598 7        44.801 7  22691716.082 7  92918734.181 7      2329.621 7        45.202 7
R07  20804950.770 8 111370533.289 8      -634.582 8        51.662 8  20804953.348 7  86621532.245 7      -493.795 7        47.826 7
R08  20733854.164 8 111028852.705 8      2898.713 8        51.192 8  20733858.891 8  86355806.829 8      2254.354 8        48.390 8
R12  22358891.352 8 119437180.795 8     -3636.209 8        49.289 8  22358901.664 7  92895621.296 7     -2828.117 7        42.891 7
R13  21531457.371 6 114976774.307 6     -1233.662 6        38.968 6  21531462.242 6  89426410.971 6      -959.801 6        39.079 6
R23  21310440.613 8 113996498.322 8      1367.754 8        49.402 8                                                                
C01  37493426.320 7 195238104.994 7        17.883 7        44.742 7  37493434.832 7 150970525.063 7        13.400 7        44.974 7  37493444.219 7 158647030.327 7        14.275 7        43.048 7
C02  37678292.855 6 196200759.753 6        35.344 6        41.276 6  37678299.828 7 151714898.565 7        27.639 7        44.202 7  37678310.805 7 159429264.529 7        29.021 7        43.070 7
C03  36887252.164 7 192081601.226 7        38.547 7        46.346 7  36887258.281 7 148529704.848 7        29.631 7        46.942 7  36887267.461 7 156082100.645 7        31.170 7        45.866 7
C04  38556316.012 6 200772857.645 6        -1.141 6        38.428 6  38556325.457 7 155250343.609 7        -0.643 7        43.887 7  38556332.770 6 163144462.916 6        -0.998 6        40.556 6
C05  39360044.629 6 204958084.379 6        39.270 6        40.015 6  39360057.219 7 158486647.002 7        30.510 7        42.304 7  39360064.883 6 166545309.690 6        32.010 6        40.477 6
C07  36102231.168 8 187993791.951 8      -609.383 8        48.370 8  36102236.465 8 145368742.547 8      -471.229 8        50.525 8  36102242.215 8 152760401.421 8      -495.277 8        48.434 8
C08  36274215.355 7 188889361.451 7      -216.180 7        46.942 7  36274222.367 8 146061262.758 8      -167.146 8        49.783 8  36274228.418 7 153488132.606 7      -175.861 7        47.271 7
C10  35798815.125 8 186413824.729 8      -259.070 8        48.158 8  35798823.996 8 144147027.602 8      -200.193 8        48.905 8  35798829.625 8 151476562.770 8      -210.256 8        48.138 8
C13  36847910.934 8 191876741.160 8       -73.094 8        48.917 8  36847925.746 8 148371323.595 8       -56.326 8        48.285 8  36847929.723 7 155915651.115 7       -59.553 7        46.861 7
S37  36956312.402 7 194206730.276 7         1.744 7        43.739 7
> 2022 06 21 05 06 30.0000000  0 23       0.000000000000
G02  23061007.469 7 121186419.612 7      1269.166 7        43.923 7  23061022.121 8  94431031.216 8       989.082 8        48.578 8
G04  24336972.875 6 127891653.199 6       258.736 6        38.736 6  24336989.977 6  99655841.968 6       201.582 6        38.636 6
G06  20835841.797 8 109493089.871 8      -205.346 8        48.178 8  20835858.984 8  85319360.458 8      -159.805 8        50.226 8
G11  22229511.473 7 116816868.014 7      1565.826 7        46.036 7  22229526.523 8  91026197.800 8      1220.059 8        48.420 8
G12  23242653.934 6 122140986.759 6      2495.008 6        38.232 6  23242669.188 7  95174816.308 7      1945.217 7        46.328 7
G17  21091872.742 8 110838538.585 8      -746.811 8        48.298 8  21091885.891 8  86367729.316 8      -581.875 8        50.226 8
G19  20264988.309 8 106493231.167 8       212.799 8        48.542 8  20264999.457 8  82981786.188 8       165.879 8        50.226 8
G20  22686012.910 7 119215813.880 7      2987.391 7        43.832 7  22686029.363 7  92895446.918 7      2327.814 7        44.949 7
R07  20806144.066 8 111376919.813 8      -643.076 8        51.325 8  20806149.793 7  86626499.549 7      -499.938 7        47.722 7
R08  20728447.043 8 110999893.065 8      2892.936 8        50.751 8  20728453.773 8  86333282.677 8      2250.088 8        48.795 8
R12  22365700.910 8 119473551.739 8     -3638.023 8        48.772 8  22365712.797 7  92923909.702 7     -2829.221 7        43.026 7
R13  21533774.031 6 114989148.246 6     -1241.436 6        39.241 6  21533781.195 6  89436035.100 6      -965.084 6        39.548 6
R23  21307884.523 7 113982818.655 7      1368.010 7        47.562 7                                                                
C01  37493392.328 7 195237927.750 7        17.686 7        45.003 7  37493401.699 7 150970387.967 7        13.641 7        45.222 7  37493410.043 7 158646886.294 7        14.287 7        42.728 7
C02  37678223.699 6 196200399.625 6        36.592 6        41.406 6  37678230.316 7 151714620.098 7        28.016 7        43.682 7  37678241.648 7 159428971.909 7        29.053 7        42.798 7
C03  36887177.605 7 192081214.590 7        38.330 7        46.397 7  36887184.008 7 148529405.876 7        29.754 7        47.145 7  36887193.078 7 156081786.461 7        31.182 7        45.654 7
C04  38556318.043 6 200772864.396 6        -0.654 6        38.736 6  38556326.988 7 155250348.838 7        -0.871 7        43.795 7  38556334.148 6 163144468.409 6        -0.908 6        40.931 6
C05  39359968.137 6 204957686.373 6        39.678 6        39.597 6  39359980.945 6 158486339.243 6        30.379 6        41.626 6  39359988.301 6 166544986.277 6        32.510 6        40.231 6
C07  36103401.977 8 187999888.816 8      -610.381 8        48.573 8  36103407.414 8 145373457.030 8      -472.277 8        50.441 8  36103413.164 8 152765355.613 8      -496.182 8        48.377 8
C08  36274630.492 7 188891522.625 7      -216.689 7        47.411 7  36274637.145 8 146062933.910 8      -167.453 8        49.731 8  36274643.691 7 153489888.729 7      -175.771 7        47.403 7
C10  35799313.004 8 186416417.297 8      -259.873 8        48.377 8  35799321.734 8 144149032.332 8      -200.871 8        48.905 8  35799327.551 8 151478669.457 8      -211.670 8        48.034 8
C13  36848051.371 8 191877471.683 8       -73.545 8        49.278 8  36848065.609 8 148371888.504 8       -56.848 8        48.138 8  36848069.969 7 155916244.736 7       -59.932 7        46.768 7
S37  36956308.426 7 194206710.802 7         1.998 7        43.199 7
> 2022 06 21 05 06 40.0000000  0 25       0.000000000000
G02  23058592.820 7 121173730.536 7      1268.906 7        43.468 7  23058607.043 7  94421143.665 7       988.709 7        47.952 7
G04  24336485.246 6 127889095.386 6       252.852 6        37.507 6  24336503.719 6  99653848.862 6       197.068 6        38.449 6
G06  20836234.328 8 109495151.745 8      -206.680 8        48.062 8  20836251.113 8  85320965.090 8      -160.705 8        50.226 8
G09  23443638.445 5 123197145.442 5      1560.430 5        34.575 5  23443633.164 2  95997758.108 2      1216.775 2        14.103 2
G11  22226533.758 7 116801220.492 7      1564.180 7        45.544 7  22226547.922 8  91014004.960 8      1218.807 8        48.477 8
G12  23237910.180 6 122116050.730 6      2491.389 6        39.241 6  23237924.777 7  95155385.656 7      1941.756 7        45.961 7
G17  21093296.820 7 110846024.309 7      -749.766 7        47.623 7  21093310.398 8  86373562.347 8      -584.650 8        50.226 8
G19  20264586.824 8 106491123.972 8       209.199 8        48.298 8  20264598.512 8  82980144.211 8       162.967 8        50.226 8
G20  22680331.758 7 119185958.063 7      2984.553 7        43.777 7  22680347.914 7  92872182.679 7      2325.701 7        45.044 7
R07  20807351.824 8 111383394.168 8      -651.389 8        51.212 8  20807358.555 8  86631535.199 8      -506.721 8        48.048 8
R08  20723051.668 8 110970993.922 8      2887.084 8        50.796 8  20723057.539 8  86310805.572 8      2245.764 8        49.412 8
R12  22372512.762 7 119509943.651 7     -3639.908 7        47.797 7  22372525.082 6  92952214.450 6     -2831.199 6        41.242 6
R13  21536102.867 6 115001597.569 6     -1249.355 6        37.507 6  21536110.461 6  89445717.932 6      -971.340 6        39.024 6
R14  23693341.652 5 126298855.429 5      2175.049 5        32.891 5                                                                
R23  21305327.578 7 113969142.795 7      1367.805 7        46.606 7                                                                
C01  37493358.477 7 195237751.022 7        17.877 7        44.742 7  37493367.387 7 150970251.308 7        14.248 7        44.974 7  37493376.191 7 158646742.680 7        14.551 7        42.751 7
C02  37678155.398 6 196200039.922 6        36.295 6        41.656 6  37678160.945 7 151714341.946 7        28.115 7        43.995 7  37678172.527 7 159428679.608 7        29.473 7        42.798 7
C03  36887104.082 7 192080828.595 7        38.990 7        46.438 7  36887109.949 7 148529107.408 7        29.854 7        46.942 7  36887118.902 7 156081472.804 7        31.348 7        45.494 7
C04  38556320.004 6 200772871.789 6        -0.443 6        39.241 6  38556328.695 7 155250354.520 7        -0.225 7        43.941 7  38556335.586 6 163144474.393 6        -0.098 6        40.634 6
C05  39359891.969 6 204957288.851 6        40.182 6        39.397 6  39359904.707 7 158486031.848 7        31.045 7        42.034 7  39359912.273 6 166544663.257 6        32.930 6        40.785 6
C07  36104574.750 8 188006000.112 8      -611.615 8        48.131 8  36104580.977 8 145378182.673 8      -472.979 8        50.189 8  36104586.598 8 152770321.545 8      -496.953 8        48.318 8
C08  36275047.598 7 188893691.396 7      -216.830 7        47.246 7  36275053.680 8 146064610.935 8      -167.725 8        49.112 8  36275060.238 7 153491651.042 7      -176.270 7        47.491 7
C10  35799814.141 8 186419024.722 8      -260.893 8        48.312 8  35799822.727 8 144151048.555 8      -202.080 8        48.917 8  35799828.313 8 151480788.184 8      -212.402 8        48.096 8
C13  36848193.457 8 191878210.083 8       -73.783 8        49.013 8  36848206.762 7 148372459.493 7       -57.061 7        47.562 7  36848211.898 7 155916844.751 7       -60.020 7        46.852 7
S37  36956305.305 7 194206691.720 7         2.266 7        43.263 7
> 2022 06 21 05 06 50.0000000  0 25       0.000000000000
G02  23056181.410 7 121161054.713 7      1266.188 7        44.368 7  23056194.848 8  94411266.415 8       986.596 8        48.238 8
G04  24336008.582 6 127886588.895 6       248.395 6        38.298 6  24336026.367 6  99651895.794 6       193.568 6        37.941 6
G06  20836630.383 8 109497232.592 8      -209.262 8        48.415 8  20836642.059 7  85322566.540 7      -162.955 7        44.995 7
G09  23440672.695 5 123181557.487 5      1558.512 5        34.253 5                                                                
G11  22223559.711 7 116785593.979 7      1561.285 7        45.866 7  22223573.988 8  91001828.463 8      1216.557 8        48.779 8
G12  23233174.672 6 122091162.865 6      2485.621 6        40.356 6  23233188.148 7  95135992.539 7      1937.240 7        46.881 7
G17  21094728.000 7 110853544.616 7      -753.891 7        47.483 7  21094741.734 8  86379422.321 8      -587.467 8        50.226 8
G19  20264193.867 8 106489056.101 8       204.352 8        48.754 8  20264205.012 8  82978532.877 8       159.311 8        50.226 8
G20  22674655.992 7 119156131.276 7      2980.738 7        44.401 7  22674672.234 7  92848941.085 7      2322.553 7        44.884 7
R07  20808577.148 8 111389955.680 8      -660.840 8        51.820 8  20808582.734 7  86636638.574 7      -514.043 7        47.136 7
R08  20717664.973 8 110942154.688 8      2880.734 8        51.364 8  20717670.418 8  86288375.096 8      2240.336 8        49.778 8
R12  22379329.430 7 119546355.956 7     -3642.379 7        47.179 7  22379340.027 6  92980535.012 6     -2832.635 6        41.107 6
R13  21538451.273 6 115014121.854 6     -1255.438 6        38.554 6  21538454.996 6  89455459.021 6      -977.248 6        38.676 6
R14  23690997.473 5                      2170.373 5        30.103 5                                                                
R23  21302772.004 8 113955470.122 8      1367.006 8        50.580 8                                                                
C01  37493323.645 7 195237574.349 7        17.404 7        45.168 7  37493333.590 7 150970114.716 7        13.631 7        45.275 7  37493341.934 7 158646599.130 7        14.266 7        42.458 7
C02  37678086.117 6 196199680.166 6        35.295 6        41.656 6  37678092.020 7 151714063.750 7        27.752 7        43.905 7  37678103.566 7 159428387.288 7        28.699 7        43.003 7
C03  36887029.363 7 192080442.735 7        38.342 7        46.778 7  36887035.980 7 148528809.035 7        29.412 7        47.119 7  36887044.961 7 156081159.256 7        31.336 7        45.750 7
C04  38556320.301 6 200772879.183 6        -0.701 6        38.795 6  38556330.211 7 155250360.264 7        -0.783 7        44.134 7  38556337.223 6 163144480.430 6        -0.949 6        41.002 6
C05  39359815.965 6 204956891.242 6        39.533 6        39.188 6  39359828.055 6 158485724.417 6        30.467 6        41.893 6  39359835.824 6 166544340.183 6        31.980 6        40.397 6
C07  36105751.012 8 188012125.255 8      -613.396 8        48.158 8  36105757.164 8 145382919.005 8      -474.318 8        50.393 8  36105762.969 8 152775298.713 8      -498.469 8        48.357 8
C08  36275465.902 7 188895867.420 7      -218.084 7        47.491 7  36275471.910 8 146066293.566 8      -168.576 8        49.402 8  36275478.051 7 153493419.235 7      -177.453 7        47.263 7
C10  35800317.906 8 186421646.477 8      -263.123 8        48.466 8  35800326.813 8 144153075.855 8      -203.537 8        49.161 8  35800331.852 7 151482918.565 7      -213.566 7        47.999 7
C13  36848336.520 8 191878955.821 8       -75.350 8        49.096 8  36848349.758 7 148373036.148 7       -58.264 7        47.362 7  36848355.316 7 155917450.707 7       -60.754 7        46.969 7
S37  36956301.559 7 194206672.544 7         1.871 7        43.221 7
> 2022 06 21 05 07  0.0000000  0 25       0.000000000000
G02  23053771.105 7 121148391.121 7      1265.686 7        43.850 7  23053784.930 7  94401398.697 7       986.221 7        47.703 7
G04  24335542.324 6 127884133.037 6       242.971 6        39.880 6  24335559.078 6  99649982.131 6       189.287 6        38.697 6
G06  20837029.973 8 109499331.631 8      -210.818 8        49.215 8  20837046.242 8  85324221.153 8      -164.424 8        50.226 8
G09  23437712.633 5 123166008.185 5      1553.322 5        33.905 5                                                                
G11  22220590.629 7 116769987.649 7      1559.807 7        46.654 7  22220604.281 8  90989667.690 8      1215.420 8        48.857 8
G12  23228447.852 6 122066322.494 6      2481.818 6        41.242 6  23228461.316 8  95116636.471 8      1933.799 8        48.180 8
G17  21096165.723 7 110861098.654 7      -757.068 7        47.942 7  21096179.359 8  86385308.574 8      -590.244 8        50.226 8
G19  20263807.738 8 106487026.897 8       201.096 8        48.848 8  20263818.785 8  82976951.680 8       156.709 8        50.226 8
G20  22668985.480 7 119126332.796 7      2978.518 7        43.739 7  22669001.863 7  92825721.543 7      2320.850 7        45.212 7
R07  20809818.184 8 111396603.506 8      -669.119 8        50.774 8  20809826.063 8  86641809.125 8      -520.299 8        48.027 8
R08  20712289.414 8 110913374.893 8      2875.111 8        51.426 8  20712297.148 8  86265990.843 8      2236.188 8        50.015 8
R12  22386147.488 7 119582787.653 7     -3644.016 7        47.145 7  22386162.242 6  93008870.672 6     -2834.029 6        41.406 6
R13  21540807.801 6 115026720.178 6     -1263.326 6        39.346 6  21540814.961 6  89465257.712 6      -983.055 6        37.179 6
R14  23690997.473 5                      2170.373 5        30.103 5                                                                
R23  21300217.969 8 113941799.932 8      1367.125 8        49.161 8                                                                
C01  37493290.027 7 195237396.977 7        17.746 7        45.141 7  37493299.184 7 150969977.554 7        13.828 7        45.222 7  37493308.293 7 158646454.998 7        14.859 7        43.070 7
C02  37678016.438 6 196199319.565 6        36.066 6        41.921 6  37678022.949 7 151713784.930 7        27.852 7        44.151 7  37678034.168 7 159428094.272 7        29.098 7        42.656 7
C03  36886955.930 7 192080056.297 7        38.703 7        46.805 7  36886961.723 7 148528510.212 7        29.941 7        46.906 7  36886970.723 7 156080845.233 7        31.305 7        45.605 7
C04  38556321.953 6 200772885.943 6        -0.418 6        38.968 6  38556331.289 7 155250365.510 7        -0.703 7        44.667 7  38556338.285 6 163144485.926 6        -0.668 6        41.002 6
C05  39359739.164 6 204956492.870 6        39.797 6        39.880 6  39359751.973 7 158485416.354 7        30.547 7        42.607 7  39359758.996 6 166544016.462 6        32.262 6        40.556 6
C07  36106930.133 8 188018263.595 8      -614.070 8        48.144 8  36106935.820 8 145387665.563 8      -475.195 8        50.290 8  36106941.680 8 152780286.616 8      -499.340 8        48.138 8
C08  36275884.594 7 188898049.746 7      -218.445 7        47.499 7  36275890.746 8 146067981.094 8      -169.180 8        49.246 8  36275897.086 7 153495192.544 7      -177.543 7        47.387 7
C10  35800823.492 8 186424281.875 8      -263.934 8        48.447 8  35800833.078 8 144155113.704 8      -204.063 8        49.278 8  35800838.266 8 151485060.051 8      -214.496 8        48.344 8
C13  36848480.406 8 191879708.166 8       -75.516 8        48.957 8  36848494.824 7 148373617.916 7       -58.340 7        47.685 7  36848499.840 7 155918062.082 7       -61.664 7        46.861 7
S37  36956298.203 7 194206652.506 7         2.209 7        43.387 7
> 2022 06 21 05 07 10.0000000  0 25       0.000000000000
G02  23051363.504 7 121135741.176 7      1264.568 7        43.135 7  23051377.430 7  94391541.621 7       985.475 7        47.356 7
G04  24335083.637 6 127881729.299 6       237.459 6        38.911 6  24335101.234 6  99648109.144 6       185.045 6        37.905 6
G06  20837433.699 8 109501450.220 8      -212.971 8        49.335 8  20837449.367 8  85325869.995 8      -165.971 8        50.226 8
G09  23434762.285 5 123150498.616 5      1548.182 5        33.905 5  23434766.406 3  95961445.050 3      1207.135 3        21.093 3
G11  22217625.258 7 116754402.827 7      1557.459 7        47.058 7  22217639.711 8  90977523.698 8      1213.580 8        49.320 8
G12  23223729.316 6 122041531.179 6      2477.107 6        40.356 6  23223743.582 8  95097318.573 8      1929.869 8        48.986 8
G17  21097609.871 7 110868687.806 7      -760.666 7        47.378 7  21097623.477 8  86391222.165 8      -592.768 8        50.226 8
G19  20263429.324 8 106485037.852 8       197.010 8        48.985 8  20263440.172 8  82975401.767 8       153.443 8        50.226 8
G20  22663321.109 7 119096564.173 7      2975.037 7        44.575 7  22663336.875 7  92802525.218 7      2318.131 7        45.521 7
R07  20811079.551 8 111403339.176 8      -677.789 8        51.870 8  20811082.563 7  86647047.969 7      -527.309 7        46.547 7
R08  20706926.734 8 110884655.949 8      2868.826 8        51.726 8  20706933.035 8  86243653.896 8      2231.408 8        49.816 8
R12  22392973.133 7 119619240.079 7     -3646.465 7        46.861 7  22392986.309 6  93037222.456 6     -2836.590 6        41.072 6
R13  21543184.230 6 115039393.594 6     -1270.834 6        39.971 6  21543186.520 6  89475114.770 6      -988.645 6        36.731 6
R14  23684402.113 5                      2160.406 5        30.103 5                                                                
R23  21297660.488 7 113928133.442 7      1366.520 7        46.768 7                                                                
C01  37493256.355 7 195237220.271 7        17.842 7        45.086 7  37493265.012 7 150969840.922 7        13.248 7        44.989 7  37493274.086 7 158646311.408 7        14.346 7        42.407 7
C02  37677947.566 6 196198959.522 6        35.947 6        41.747 6  37677953.363 7 151713506.514 7        27.936 7        43.869 7  37677964.926 7 159427801.699 7        29.150 7        42.433 7
C03  36886881.621 7 192079670.623 7        38.213 7        46.759 7  36886887.809 7 148528211.977 7        29.947 7        47.246 7  36886896.574 7 156080531.842 7        31.455 7        45.456 7
C04  38556323.805 6 200772893.411 6        -0.615 6        38.854 6  38556332.965 7 155250371.239 7        -0.521 7        44.449 7  38556339.969 6 163144491.973 6        -0.771 6        41.141 6
C05  39359663.105 6 204956095.036 6        39.775 6        39.741 6  39359675.410 7 158485108.735 7        30.904 7        42.533 7  39359682.742 6 166543693.213 6        32.393 6        40.189 6
C07  36108111.672 8 188024416.463 8      -616.162 8        48.245 8  36108117.789 8 145392423.324 8      -476.322 8        50.909 8  36108123.313 7 152785286.286 7      -500.576 7        47.956 7
C08  36276305.098 7 188900239.839 7      -219.580 7        47.639 7  36276311.000 8 146069674.604 8      -169.857 8        49.468 8  36276317.398 7 153496972.186 7      -178.545 7        47.145 7
C10  35801332.426 8 186426932.240 8      -265.928 8        48.298 8  35801342.156 8 144157163.111 8      -205.482 8        49.769 8  35801347.230 8 151487213.672 8      -215.928 8        48.110 8
C13  36848626.676 8 191880468.473 8       -76.631 8        48.859 8  36848641.055 8 148374205.834 8       -59.330 8        48.131 8  36848646.035 7 155918679.874 7       -62.061 7        46.478 7
S37  36956294.117 7 194206632.986 7         1.756 7        43.199 7
> 2022 06 21 05 07 20.0000000  0 25       0.000000000000
G02  23048959.219 7 121123104.942 7      1262.742 7        44.433 7  23048972.711 8  94381695.249 8       984.025 8        48.014 8
G04  24334636.129 6 127879377.707 6       230.906 6        37.885 6  24334653.199 6  99646276.793 6       179.982 6        37.070 6
G06  20837839.594 8 109503588.284 8      -215.051 8        48.542 8  20837855.520 8  85327534.029 8      -167.498 8        50.226 8
G09  23431817.250 5 123135029.110 5      1543.914 5        32.656 5                                                                
G11  22214663.199 7 116738839.522 7      1555.203 7        46.325 7  22214678.277 8  90965396.477 8      1211.740 8        48.890 8
G12  23219020.676 6 122016788.905 6      2471.902 6        40.015 6  23219034.582 8  95078038.903 8      1925.979 8        48.436 8
G17  21099060.480 7 110876312.093 7      -764.211 7        47.354 7  21099074.031 8  86397163.147 8      -595.389 8        50.226 8
G19  20263058.086 8 106483088.884 8       192.742 8        48.529 8  20263069.363 8  82973883.087 8       150.295 8        50.226 8
G20  22657662.051 7 119066825.390 7      2972.059 7        44.932 7  22657678.105 7  92779352.197 7      2315.959 7        45.738 7
R07  20812353.969 8 111410162.355 8      -686.781 8        51.933 8  20812357.836 7  86652354.872 7      -534.455 7        46.960 7
R08  20701575.527 8 110855998.160 8      2862.488 8        51.841 8  20701582.262 8  86221364.541 8      2226.504 8        49.577 8
R12  22399800.938 7 119655712.840 7     -3648.494 7        47.067 7  22399813.113 6  93065590.111 6     -2837.832 6        41.309 6
R13  21545568.266 6 115052142.203 6     -1278.486 6        40.556 6  21545575.426 5  89485030.341 5      -995.688 5        35.418 5
R14  23684402.113 5                      2160.406 5        30.103 5                                                                
R23  21295108.035 8 113914470.988 8      1365.695 8        49.382 8                                                                
C01  37493221.672 7 195237044.274 7        17.521 7        44.621 7  37493231.148 7 150969704.825 7        13.592 7        45.222 7  37493240.395 7 158646168.425 7        14.252 7        42.656 7
C02  37677878.684 6 196198599.964 6        35.783 6        41.717 6  37677884.691 7 151713228.458 7        27.771 7        44.065 7  37677895.941 7 159427509.544 7        28.920 7        43.026 7
C03  36886807.477 7 192079285.697 7        38.361 7        46.702 7  36886813.559 7 148527914.328 7        29.432 7        47.170 7  36886822.668 7 156080219.079 7        31.107 7        45.208 7
C04  38556325.535 6 200772901.544 6        -0.838 6        39.079 6  38556334.586 7 155250377.526 7        -0.900 7        44.303 7  38556341.570 6 163144498.577 6        -0.924 6        41.564 6
C05  39359585.957 6 204955697.791 6        39.475 6        39.741 6  39359598.762 6 158484801.571 6        30.721 6        41.374 6  39359606.547 6 166543370.425 6        32.064 6        40.477 6
C07  36109296.020 8 188030583.827 8      -617.654 8        48.199 8  36109302.637 8 145397192.318 8      -477.541 8        50.661 8  36109307.555 8 152790297.786 8      -501.861 8        48.041 8
C08  36276727.484 7 188902437.537 7      -220.115 7        47.767 7  36276732.852 8 146071373.977 8      -170.588 8        49.030 8  36276739.320 7 153498757.959 7      -179.049 7        47.362 7
C10  35801844.176 8 186429597.654 8      -267.635 8        48.579 8  35801854.117 8 144159224.172 8      -206.584 8        49.320 8  35801859.070 8 151489379.531 8      -217.389 8        48.239 8
C13  36848774.289 8 191881236.707 8       -77.400 8        49.139 8  36848788.633 7 148374799.894 7       -59.729 7        47.797 7  36848793.465 7 155919304.140 7       -62.818 7        46.870 7
S37  36956290.770 7 194206613.979 7         1.688 7        43.199 7
> 2022 06 21 05 07 30.0000000  0 25       0.000000000000
G02  23046557.246 7 121110481.229 7      1261.670 7        44.352 7  23046570.566 8  94371858.595 8       982.965 8        48.482 8
G04  24334199.094 6 127877077.149 6       227.998 6        39.346 6  24334215.535 6  99644484.168 6       177.613 6        37.625 6
G06  20838250.520 8 109505744.769 8      -216.006 8        48.700 8  20838262.227 7  85329200.409 7      -168.307 7        45.875 7
G09  23428881.402 5 123119598.545 5      1541.436 5        32.407 5                                                                
G11  22211704.883 7 116723296.715 7      1553.545 7        45.114 7  22211720.164 8  90953285.207 8      1210.660 8        48.496 8
G12  23214321.648 6 121992094.821 6      2467.764 6        40.059 6  23214334.813 8  95058796.749 8      1922.477 8        48.528 8
G17  21100517.980 7 110883970.505 7      -767.295 7        47.049 7  21100531.461 8  86403130.729 8      -597.779 8        50.226 8
G19  20262695.605 8 106481179.052 8       189.287 8        49.407 8  20262706.164 8  82972394.912 8       147.535 8        50.226 8
G20  22652008.742 7 119037115.452 7      2969.795 7        45.392 7  22652023.941 7  92756201.637 7      2314.059 7        45.867 7
R07  20813644.316 8 111417072.260 8      -695.063 8        52.177 8  20813646.754 7  86657729.249 7      -540.482 7        46.915 7
R08  20696235.238 8 110827400.580 8      2857.139 8        52.204 8  20696241.684 8  86199122.001 8      2222.217 8        48.766 8
R12  22406633.070 8 119692204.868 8     -3649.832 8        48.285 8  22406646.105 6  93093972.656 6     -2838.477 6        41.776 6
R13  21547968.516 6 115064964.741 6     -1284.846 6        40.595 6  21547975.676 6  89495003.344 6      -999.729 6        36.014 6
R14  23684402.113 5                      2160.406 5        30.103 5                                                                
R23  21292554.180 8 113900811.287 8      1366.258 8        48.597 8                                                                
C01  37493188.156 7 195236867.846 7        17.854 7        44.960 7  37493197.563 7 150969568.412 7        14.000 7        45.168 7  37493206.465 7 158646025.040 7        14.727 7        42.171 7
C02  37677809.574 6 196198239.963 6        36.096 6        41.950 6  37677815.691 7 151712950.094 7        27.887 7        43.941 7  37677826.875 7 159427217.005 7        29.590 7        42.704 7
C03  36886733.109 7 192078900.502 7        38.420 7        46.508 7  36886739.977 7 148527616.449 7        30.094 7        47.229 7  36886748.605 7 156079906.046 7        31.855 7        45.353 7
C04  38556327.152 6 200772909.319 6        -0.193 6        39.188 6  38556335.949 7 155250383.546 7        -0.316 7        44.151 7  38556342.926 6 163144504.888 6        -0.488 6        40.967 6
C05  39359510.051 6 204955300.101 6        39.904 6        39.693 6  39359522.570 7 158484494.040 7        31.168 7        42.278 7  39359529.902 6 166543047.262 6        32.773 6        40.189 6
C07  36110483.008 8 188036764.656 8      -618.377 8        48.279 8  36110489.590 8 145401971.708 8      -478.207 8        50.877 8  36110494.406 7 152795320.202 7      -502.463 7        47.885 7
C08  36277151.039 7 188904641.879 7      -220.311 7        47.616 7  36277156.086 8 146073078.512 8      -170.570 8        49.262 8  36277162.895 7 153500549.178 7      -179.318 7        47.263 7
C10  35802359.273 8 186432276.932 8      -268.143 8        48.736 8  35802368.465 8 144161295.969 8      -207.504 8        49.538 8  35802373.582 7 151491556.665 7      -218.088 7        47.899 7
C13  36848923.035 8 191882011.719 8       -77.361 8        49.397 8  36848937.453 8 148375399.213 8       -59.848 8        48.312 8  36848942.383 7 155919933.931 7       -63.068 7        46.787 7
S37  36956286.586 7 194206594.430 7         2.393 7        43.567 7
> 2022 06 21 05 07 40.0000000  0 25       0.000000000000
G02  23044157.973 7 121097870.501 7      1260.746 7        44.989 7  23044170.594 7  94362032.082 7       982.381 7        47.966 7
G04  24333771.344 6 127874828.279 6       222.758 6        39.241 6  24333787.582 6  99642731.788 6       173.631 6        37.777 6
G06  20838664.723 8 109507920.159 8      -218.258 8        49.558 8  20838679.531 8  85330895.491 8      -169.924 8        50.226 8
G09  23425952.117 5 123104207.596 5      1540.414 5        30.895 5  23425962.363 2  95925397.157 2      1198.221 2        17.113 2
G11  22208751.129 7 116707774.847 7      1551.566 7        45.855 7  22208766.582 8  90941190.273 8      1209.002 8        48.889 8
G12  23209633.191 6 121967449.398 6      2462.074 6        41.921 6  23209644.680 8  95039592.592 8      1918.377 8        48.813 8
G17  21101981.902 7 110891663.598 7      -770.348 7        47.451 7  21101995.914 8  86409125.346 8      -600.627 8        50.226 8
G19  20262339.254 8 106479308.923 8       185.434 8        49.366 8  20262350.188 8  82970937.651 8       144.607 8        50.226 8
G20  22646360.141 7 119007434.930 7      2967.191 7        45.544 7  22646375.578 7  92733074.009 7      2312.088 7        46.265 7
R07  20814950.824 8 111424069.127 8      -703.762 8        51.543 8  20814956.840 7  86663171.233 7      -547.254 7        46.712 7
R08  20690905.668 8 110798863.837 8      2851.152 8        51.659 8  20690911.113 8  86176926.773 8      2217.553 8        48.754 8
R12  22413469.191 7 119728716.487 7     -3651.918 7        47.877 7  22413478.215 6  93122370.490 6     -2840.357 6        40.273 6
R13  21550386.648 6 115077861.696 6     -1292.986 6        40.785 6  21550393.094 6  89505034.273 6     -1005.672 6        37.005 6
R14  23684402.113 5                      2160.406 5        30.103 5                                                                
R23  21289999.730 7 113887154.843 7      1365.902 7        45.878 7                                                                
C01  37493155.191 7 195236691.550 7        18.223 7        45.275 7  37493163.813 7 150969432.088 7        13.826 7        45.127 7  37493172.492 7 158645881.792 7        14.635 7        42.330 7
C02  37677740.660 6 196197879.966 6        36.230 6        41.776 6  37677746.848 7 151712671.698 7        28.455 7        44.082 7  37677757.574 7 159426924.473 7        29.400 7        42.798 7
C03  36886658.973 7 192078515.490 7        38.711 7        46.438 7  36886666.164 7 148527318.732 7        30.232 7        47.419 7  36886674.848 7 156079593.207 7        31.373 7        45.327 7
C04  38556328.316 6 200772917.238 6        -0.313 6        39.294 6  38556337.152 7 155250389.652 7        -0.217 7        44.202 7  38556344.484 6 163144511.327 6        -0.482 6        41.141 6
C05  39359433.266 6 204954902.404 6        39.941 6        39.741 6  39359446.824 7 158484186.530 7        31.150 7        42.845 7  39359453.234 6 166542724.128 6        32.604 6        39.971 6
C07  36111672.910 8 188042959.497 8      -619.941 8        48.325 8  36111679.418 8 145406761.955 8      -479.396 8        50.974 8  36111684.078 8 152800354.005 8      -503.549 8        48.103 8
C08  36277575.258 7 188906853.350 7      -221.348 7        47.362 7  36277580.730 8 146074788.539 8      -171.037 8        49.315 8  36277587.770 7 153502346.151 7      -179.623 7        47.585 7
C10  35802877.035 8 186434970.762 8      -269.570 8        48.940 8  35802886.086 8 144163379.001 8      -208.537 8        49.612 8  35802890.902 8 151493745.610 8      -219.271 8        48.151 8
C13  36849073.555 8 191882794.145 8       -78.242 8        49.257 8  36849087.543 7 148376004.255 7       -60.705 7        47.921 7  36849092.563 7 155920569.719 7       -63.666 7        46.693 7
S37  36956283.102 7 194206574.837 7         2.484 7        43.758 7
> 2022 06 21 05 07 50.0000000  0 24       0.000000000000
G02  23041760.367 7 121085272.951 7      1259.199 7        44.903 7  23041772.559 7  94352215.843 7       981.195 7        47.537 7
G04  24333352.844 6 127872631.219 6       217.148 6        39.397 6  24333370.086 6  99641019.812 6       169.203 6        38.401 6
G06  20839082.023 8 109510114.492 8      -220.527 8        48.917 8  20839097.262 8  85332605.373 8      -171.715 8        50.226 8
G11  22205801.477 7 116692274.045 7      1548.945 7        46.178 7  22205816.375 8  90929111.765 8      1206.957 8        48.876 8
G12  23204951.125 6 121942852.888 6      2457.656 6        41.309 6  23204963.988 8  95020426.493 8      1914.672 8        49.134 8
G17  21103452.074 7 110899391.586 7      -774.551 7        46.870 7  21103466.500 8  86415147.129 8      -603.668 8        50.226 8
G19  20261991.301 8 106477478.711 8       180.996 8        49.626 8  20262001.574 8  82969511.506 8       140.961 8        50.226 8
G20  22640718.070 7 118977784.025 7      2963.809 7        45.901 7  22640732.996 7  92709969.463 7      2309.594 7        46.583 7
R07  20816275.340 8 111431153.293 8      -712.795 8        52.641 8  20816277.918 7  86668681.160 7      -554.148 7        47.752 7
R08  20685587.227 8 110770388.152 8      2844.521 8        51.809 8  20685593.816 7  86154779.033 7      2212.436 7        47.999 7
R12  22420305.125 8 119765247.673 8     -3654.096 8        48.325 8  22420318.016 6  93150783.500 6     -2842.211 6        39.880 6
R13  21552817.770 6 115090833.077 6     -1300.789 6        40.231 6  21552822.352 6  89515123.096 6     -1012.137 6        37.812 6
R14  23684402.113 5                      2160.406 5        30.103 5                                                                
R23  21287447.813 8 113873501.946 8      1365.229 8        48.591 8                                                                
C01  37493120.434 7 195236515.515 7        17.559 7        44.917 7  37493129.625 7 150969295.949 7        13.289 7        44.727 7  37493138.426 7 158645738.755 7        13.945 7        42.117 7
C02  37677671.344 7 196197520.057 7        36.055 7        42.198 7  37677678.031 7 151712393.411 7        27.762 7        44.621 7  37677688.422 7 159426632.030 7        29.102 7        42.680 7
C03  36886585.184 7 192078130.849 7        38.379 7        46.315 7  36886592.195 7 148527021.314 7        29.461 7        47.616 7  36886600.961 7 156079280.669 7        31.211 7        45.654 7
C04  38556330.578 6 200772925.438 6        -0.840 6        40.015 6  38556339.023 7 155250395.977 7        -0.734 7        43.407 7  38556346.184 6 163144517.956 6        -0.723 6        41.002 6
C05  39359357.043 6 204954504.892 6        39.473 6        39.834 6  39359370.887 7 158483879.159 7        30.750 7        43.304 7  39359376.934 6 166542401.096 6        32.266 6        40.397 6
C07  36112864.910 8 188049168.417 8      -621.230 8        48.041 8  36112871.887 8 145411563.076 8      -480.676 8        50.891 8  36112876.488 8 152805399.278 8      -505.078 8        48.069 8
C08  36278001.039 7 188909072.099 7      -222.285 7        47.370 7  36278007.371 8 146076504.230 8      -171.711 8        49.830 8  36278014.238 7 153504149.080 7      -180.645 7        47.585 7
C10  35803396.469 8 186437679.202 8      -271.738 8        48.566 8  35803405.844 8 144165473.311 8      -209.973 8        49.361 8  35803411.016 8 151495946.416 8      -220.371 8        48.062 8
C13  36849225.348 8 191883583.924 8       -79.512 8        49.407 8  36849238.691 7 148376614.938 7       -61.301 7        47.435 7  36849244.316 7 155921211.471 7       -64.336 7        46.987 7
S37  36956279.285 7 194206555.338 7         1.777 7        43.977 7
> 2022 06 21 05 08  0.0000000  0 24       0.000000000000
G02  23039365.367 7 121072688.440 7      1257.564 7        44.974 7  23039378.031 7  94342409.765 7       979.867 7        46.730 7
G04  24332944.531 6 127870485.928 6       211.822 6        39.448 6  24332962.117 6  99639348.163 6       165.063 6        37.977 6
G06  20839502.785 8 109512327.688 8      -222.514 8        49.052 8  20839518.496 8  85334344.938 8      -173.238 8        50.226 8
G11  22202855.715 7 116676794.188 7      1546.842 7        45.958 7  22202870.480 8  90917049.549 8      1205.336 8        49.109 8
G12  23200282.535 7 121918305.347 7      2452.213 7        43.795 7  23200292.637 8  95001298.552 8      1911.059 8        49.292 8
G17  21104929.715 7 110907154.367 7      -778.334 7        47.411 7  21104942.965 8  86421196.035 8      -606.305 8        50.226 8
G19  20261650.098 8 106475688.301 8       176.998 8        49.002 8  20261661.129 8  82968116.376 8       137.934 8        50.226 8
G20  22635081.176 7 118948162.683 7      2960.807 7        46.283 7  22635096.160 7  92686887.949 7      2307.172 7        46.448 7
R07  20817614.484 8 111438324.435 8      -721.535 8        52.177 8  20817618.207 7  86674258.717 7      -561.152 7        47.956 7
R08  20680283.418 8 110741973.690 8      2838.145 8        50.645 8  20680288.145 8  86132678.888 8      2207.443 8        48.325 8
R12  22427147.387 7 119801798.117 7     -3656.115 7        47.654 7  22427163.285 6  93179211.547 6     -2843.785 6        40.931 6
R13  21555257.652 6 115103878.688 6     -1308.627 6        39.397 6  21555265.242 6  89525269.646 6     -1016.971 6        38.232 6
R14  23684402.113 5                      2160.406 5        30.103 5                                                                
R23  21284897.781 8 113859852.349 8      1364.535 8        48.658 8                                                                
C01  37493086.516 7 195236339.628 7        17.299 7        44.528 7  37493096.246 7 150969159.931 7        13.787 7        45.235 7  37493104.855 7 158645595.810 7        14.080 7        42.251 7
C02  37677603.230 6 196197160.224 6        35.697 6        41.835 6  37677609.418 7 151712115.143 7        28.025 7        44.697 7  37677619.285 7 159426339.623 7        29.256 7        42.632 7
C03  36886511.813 7 192077746.458 7        38.373 7        46.335 7  36886518.465 7 148526724.070 7        29.549 7        47.288 7  36886527.238 7 156078968.307 7        31.287 7        45.605 7
C04  38556331.367 6 200772933.780 6        -1.041 6        39.448 6  38556340.594 7 155250402.427 7        -0.646 7        44.168 7  38556347.684 6 163144524.753 6        -0.783 6        41.406 6
C05  39359280.953 6 204954107.458 6        39.740 6        39.926 6  39359294.691 7 158483571.861 7        30.408 7        42.845 7  39359300.809 6 166542078.181 6        32.205 6        40.103 6
C07  36114060.262 7 188055391.371 7      -623.502 7        47.899 7  36114066.633 8 145416375.038 8      -481.855 8        50.803 8  36114071.645 8 152810455.917 8      -506.311 8        48.117 8
C08  36278428.668 7 188911297.882 7      -222.916 7        47.538 7  36278435.000 8 146078225.350 8      -172.676 8        49.548 8  36278441.797 7 153505957.706 7      -181.057 7        47.841 7
C10  35803918.824 7 186440402.103 7      -273.365 7        47.906 7  35803928.375 8 144167578.822 8      -211.211 8        49.397 8  35803934.172 8 151498159.009 8      -222.033 8        48.331 8
C13  36849378.133 8 191884381.130 8       -80.240 8        48.754 8  36849391.977 7 148377231.413 7       -62.170 7        47.585 7  36849397.352 7 155921859.283 7       -65.354 7        46.805 7
S37  36956275.922 7 194206535.845 7         1.705 7        44.048 7
> 2022 06 21 05 08 10.0000000  0 25       0.000000000000
G02  23036972.316 7 121060116.935 7      1256.510 7        43.850 7  23036985.125 7  94332613.814 7       979.066 7        46.566 7
G04  24332545.324 6 127868392.410 6       207.486 6        38.428 6  24332563.539 6  99637716.875 6       161.605 6        38.319 6
G06  20839927.645 8 109514559.616 8      -224.271 8        48.807 8  20839943.539 8  85336084.127 8      -174.938 8        50.226 8
G09  23417230.656 5 123058377.31515      1523.854 5        31.242 5                                                                
G11  22199914.195 7 116661335.199 7      1544.771 7        46.014 7  22199929.020 8  90905003.596 8      1203.617 8        49.414 8
G12  23195619.332 7 121893806.773 7      2447.037 7        42.751 7  23195631.336 8  94982208.765 8      1906.820 8        49.204 8
G17  21106413.883 7 110914951.957 7      -781.596 7        47.685 7  21106426.848 8  86427272.085 8      -609.078 8        50.226 8
G19  20261317.141 8 106473937.704 8       172.838 8        49.351 8  20261327.801 8  82966752.268 8       134.555 8        50.226 8
G20  22629450.387 7 118918570.911 7      2957.623 7        46.407 7  22629464.555 7  92663829.479 7      2304.555 7        46.206 7
R07  20818970.480 8 111445582.631 8      -730.113 8        52.481 8  20818974.918 8  86679903.971 8      -567.793 8        48.634 8
R08  20674987.723 8 110713620.462 8      2832.184 8        51.124 8  20674992.020 8  86110626.378 8      2202.893 8        48.219 8
R12  22433995.754 7 119838367.687 7     -3658.111 7        47.229 7  22434009.789 6  93207654.438 6     -2844.527 6        38.854 6
R13  21557713.957 6 115116998.293 6     -1315.389 6        39.241 6  21557724.125 6  89535473.835 6     -1023.807 6        38.736 6
R14  23684402.113 5                      2160.406 5        30.103 5                                                                
R23  21282345.406 8 113846206.025 8      1364.299 8        48.138 8                                                                
C01  37493052.980 7 195236163.805 7        17.611 7        44.874 7  37493062.461 7 150969023.987 7        13.674 7        45.340 7  37493071.227 7 158645452.955 7        14.234 7        42.356 7
C02  37677533.457 6 196196800.335 6        35.756 6        41.470 6  37677539.750 7 151711836.888 7        27.678 7        44.319 7  37677549.961 7 159426047.190 7        29.488 7        42.458 7
C03  36886437.781 7 192077362.280 7        38.314 7        46.188 7  36886444.684 7 148526427.007 7        29.514 7        47.229 7  36886453.492 7 156078656.122 7        31.129 7        45.443 7
C04  38556333.496 6 200772942.248 6        -0.768 6        39.498 6  38556342.188 7 155250408.992 7        -0.564 7        44.048 7  38556349.121 6 163144531.629 6        -0.531 6        41.107 6
C05  39359204.527 6 204953710.014 6        39.643 6        39.294 6  39359217.621 6 158483264.529 6        30.510 6        41.921 6  39359224.523 6 166541755.206 6        32.184 6        40.315 6
C07  36115257.855 7 188061628.213 7      -624.654 7        47.885 7  36115264.078 8 145421197.746 8      -482.830 8        50.348 8  36115269.504 8 152815523.856 8      -507.621 8        48.083 8
C08  36278857.996 7 188913530.773 7      -223.795 7        47.522 7  36278864.043 8 146079951.949 8      -173.045 8        49.453 8  36278870.555 7 153507772.092 7      -181.332 7        47.623 7
C10  35804444.637 7 186443139.481 7      -274.518 7        47.956 7  35804453.688 8 144169695.544 8      -212.166 8        48.923 8  35804459.754 8 151500383.354 8      -223.012 8        48.232 8
C13  36849532.266 8 191885185.538 8       -80.826 8        48.706 8  36849546.465 7 148377853.414 7       -62.439 7        47.600 7  36849551.676 7 155922512.920 7       -65.668 7        46.805 7
S37  36956272.078 7 194206516.285 7         1.939 7        44.100 7
> 2022 06 21 05 08 20.0000000  0 24       0.000000000000
G02  23034582.477 7 121047558.663 7      1255.162 7        43.795 7  23034595.199 7  94322828.169 7       978.084 7        46.402 7
G04  24332156.910 6 127866351.110 6       201.490 6        39.548 6  24332175.340 6  99636126.196 6       157.146 6        38.903 6
G06  20840356.285 8 109516810.603 8      -225.912 8        49.341 8  20840371.984 8  85337840.126 8      -176.154 8        50.226 8
G11  22196976.027 7 116645897.322 7      1542.623 7        46.304 7  22196991.867 8  90892974.130 8      1202.010 8        49.677 8
G12  23190966.066 7 121869357.483 7      2442.506 7        42.632 7  23190978.613 8  94963157.418 8      1902.947 8        48.850 8
G17  21107904.410 8 110922784.683 8      -784.857 8        48.034 8  21107917.746 8  86433375.478 8      -611.291 8        50.226 8
G19  20260991.402 8 106472227.275 8       169.107 8        48.754 8  20261002.793 8  82965419.453 8       131.854 8        50.226 8
G20  22623825.238 7 118889009.057 7      2954.869 7        47.313 7  22623839.176 7  92640794.313 7      2302.459 7        46.945 7
R07  20820341.582 8 111452928.155 8      -738.525 8        51.861 8  20820348.027 8  86685617.167 8      -574.727 8        48.396 8
R08  20669704.555 8 110685329.097 8      2826.078 8        51.699 8  20669708.711 8  86088621.998 8      2198.109 8        49.172 8
R12  22440845.621 7 119874956.295 7     -3659.773 7        45.855 7  22440855.789 6  93236112.072 6     -2845.275 6        38.491 6
R13  21560187.516 6 115130192.225 6     -1322.891 6        39.294 6  21560193.672 6  89545735.743 6     -1029.281 6        40.634 6
R14  23684402.113 5                      2160.406 5        30.103 5                                                                
R23  21279798.688 8 113832563.429 8      1363.971 8        49.166 8                                                                
C01  37493019.508 7 195235988.391 7        17.635 7        45.114 7  37493028.773 7 150968888.331 7        13.482 7        44.860 7  37493037.211 7 158645310.381 7        14.516 7        42.251 7
C02  37677463.746 6 196196440.758 6        36.307 6        41.656 6  37677470.863 7 151711558.838 7        27.857 7        44.048 7  37677480.957 7 159425755.024 7        29.105 7        42.607 7
C03  36886364.098 7 192076978.586 7        38.748 7        46.231 7  36886371.074 7 148526130.303 7        29.850 7        47.263 7  36886379.867 7 156078344.352 7        31.000 7        45.617 7
C04  38556335.402 6 200772951.207 6        -0.627 6        39.693 6  38556343.234 7 155250415.919 7        -0.834 7        43.448 7  38556351.035 6 163144538.896 6        -0.680 6        41.072 6
C05  39359128.340 6 204953312.879 6        39.393 6        39.079 6  39359141.574 7 158482957.437 7        30.650 7        42.144 7  39359148.285 6 166541432.508 6        32.152 6        40.273 6
C07  36116457.656 7 188067879.336 7      -625.627 7        47.906 7  36116464.129 8 145426031.512 8      -483.588 8        50.133 8  36116469.996 8 152820603.414 8      -508.551 8        48.225 8
C08  36279287.500 7 188915770.892 7      -224.377 7        47.530 7  36279294.188 8 146081684.146 8      -173.529 8        49.513 8  36279300.621 7 153509592.380 7      -182.066 7        47.685 7
C10  35804973.121 8 186445891.660 8      -275.549 8        48.165 8  35804982.242 8 144171823.711 8      -213.393 8        48.789 8  35804988.445 8 151502619.720 8      -224.059 8        48.165 8
C13  36849688.566 8 191885997.508 8       -81.564 8        48.718 8  36849702.340 7 148378481.280 7       -62.924 7        47.707 7  36849707.605 7 155923172.717 7       -66.227 7        46.824 7
S37  36956268.582 7 194206496.981 7         2.076 7        43.905 7
> 2022 06 21 05 08 30.0000000  0 24       0.000000000000
G02  23032194.949 7 121035013.117 7      1253.883 7        43.977 7  23032207.984 7  94313052.470 7       977.102 7        45.580 7
G04  24331778.680 6 127864361.464 6       196.305 6        39.926 6  24331796.711 6  99634575.830 6       153.059 6        38.065 6
G06  20840787.953 8 109519080.159 8      -227.738 8        49.335 8  20840803.797 8  85339607.631 8      -177.762 8        50.226 8
G11  22194042.316 7 116630480.225 7      1540.328 7        46.058 7  22194057.828 8  90880960.814 8      1200.324 8        49.778 8
G12  23186323.121 7 121844957.149 7      2437.672 7        42.583 7  23186335.527 8  94944144.161 8      1899.660 8        48.226 8
G17  21109401.828 8 110930652.210 8      -788.402 8        48.377 8  21109414.891 8  86439506.019 8      -614.461 8        50.226 8
G19  20260673.984 8 106470556.716 8       165.094 8        49.989 8  20260684.762 8  82964117.726 8       128.684 8        50.226 8
G20  22618204.836 7 118859476.846 7      2951.736 7        47.530 7  22618219.805 7  92617782.254 7      2300.109 7        47.111 7
R07  20821729.746 8 111460360.716 8      -747.543 8        52.117 8  20821735.617 8  86691398.056 8      -581.572 8        48.819 8
R08  20664432.293 8 110657099.172 8      2819.814 8        51.791 8  20664438.164 8  86066665.422 8      2193.334 8        49.438 8
R12  22447697.078 7 119911563.579 7     -3661.838 7        46.407 7  22447709.398 6  93264584.348 6     -2847.881 6        39.498 6
R13  21562669.395 6 115143459.882 6     -1329.703 6        38.428 6  21562678.563 6  89556054.984 6     -1034.604 6        40.356 6
R14  23684402.113 5                      2160.406 5        30.103 5                                                                
R23  21277245.965 8 113818923.916 8      1364.033 8        48.245 8                                                                
C01  37492985.664 7 195235813.030 7        17.414 7        45.058 7  37492995.395 7 150968752.728 7        13.402 7        45.568 7  37493003.723 7 158645167.894 7        13.938 7        42.533 7
C02  37677394.809 6 196196081.093 6        35.910 6        41.950 6  37677401.996 7 151711280.723 7        27.738 7        44.481 7  37677412.137 7 159425462.764 7        29.055 7        43.003 7
C03  36886290.152 7 192076595.034 7        38.156 7        46.488 7  36886297.094 7 148525833.710 7        29.730 7        47.546 7  36886306.152 7 156078032.673 7        31.262 7        45.418 7
C04  38556336.688 6 200772960.156 6        -0.965 6        39.788 6  38556345.844 7 155250422.826 7        -0.328 7        44.185 7  38556352.621 6 163144546.177 6        -0.867 6        41.175 6
C05  39359051.461 6 204952915.660 6        39.680 6        39.294 6  39359064.949 7 158482650.277 7        30.609 7        42.356 7  39359072.102 6 166541109.736 6        32.121 6        40.015 6
C07  36117660.770 7 188074144.335 7      -627.059 7        47.722 7  36117667.316 8 145430876.012 8      -484.801 8        50.393 8  36117673.168 8 152825694.232 8      -509.539 8        48.083 8
C08  36279718.668 7 188918017.935 7      -224.891 7        47.370 7  36279725.715 8 146083421.697 8      -173.961 8        49.366 8  36279732.133 7 153511418.279 7      -182.527 7        47.631 7
C10  35805504.598 8 186448658.303 8      -277.313 8        48.338 8  35805513.539 8 144173963.059 8      -214.664 8        48.962 8  35805519.465 8 151504867.849 8      -225.145 8        48.090 8
C13  36849846.035 8 191886816.570 8       -82.156 8        49.177 8  36849860.023 7 148379114.626 7       -63.414 7        47.971 7  36849865.340 7 155923838.272 7       -66.746 7        47.110 7
S37  36956264.820 7 194206477.547 7         1.969 7        43.905 7
> 2022 06 21 05 08 40.0000000  0 25       0.000000000000
G02  23029811.813 7 121022480.389 7      1252.266 7        45.235 7  23029823.090 7  94303286.719 7       975.715 7        45.338 7
G04  24331411.281 6 127862423.673 6       191.328 6        41.175 6  24331426.691 5  99633065.854 5       149.074 5        35.533 5
G06  20841223.156 8 109521368.301 8      -229.902 8        49.199 8  20841239.414 8  85341391.583 8      -178.934 8        50.226 8
G09  23408540.359 5 123012688.700 5      1512.090 5        34.417 5                                                                
G11  22191113.141 7 116615083.924 7      1538.262 7        46.577 7  22191127.480 8  90868963.694 8      1198.664 8        49.086 8
G12  23181688.008 6 121820605.969 6      2432.793 6        40.231 6  23181701.516 7  94925169.253 7      1895.383 7        47.656 7
G17  21110905.926 8 110938554.579 8      -792.148 8        48.957 8  21110918.719 8  86445663.704 8      -617.273 8        50.226 8
G19  20260363.680 8 106468926.055 8       160.898 8        49.885 8  20260374.398 8  82962847.078 8       125.383 8        50.226 8
G20  22612591.113 7 118829974.335 7      2948.574 7        47.562 7  22612606.051 7  92594793.344 7      2297.629 7        47.650 7
R07  20823134.047 8 111467879.854 8      -756.150 8        51.632 8  20823137.484 8  86697246.325 8      -588.541 8        48.640 8
R08  20659172.016 8 110628930.896 8      2813.566 8        51.852 8  20659178.891 8  86044756.782 8      2188.375 8        49.857 8
R12  22454555.082 7 119948189.366 7     -3663.697 7        46.749 7  22454565.395 6  93293070.986 6     -2849.861 6        40.015 6
R13  21565170.715 6 115156801.204 6     -1338.045 6        39.294 6  21565175.582 6  89566431.520 6     -1040.176 6        38.428 6
R14  23684402.113 5                      2160.406 5        30.103 5                                                                
R23  21274694.922 8 113805287.655 8      1363.279 8        48.103 8                                                                
C01  37492951.883 7 195235637.678 7        17.596 7        44.449 7  37492961.293 7 150968617.136 7        13.342 7        45.168 7  37492969.922 7 158645025.406 7        14.119 7        42.382 7
C02  37677325.754 6 196195721.310 6        35.740 6        41.438 6  37677332.441 7 151711002.521 7        27.561 7        44.134 7  37677343.020 7 159425170.409 7        29.197 7        42.583 7
C03  36886217.059 7 192076211.580 7        37.967 7        46.468 7  36886223.746 7 148525537.200 7        29.631 7        47.483 7  36886232.383 7 156077721.093 7        30.818 7        45.544 7
C04  38556337.535 6 200772969.176 6        -1.330 6        38.911 6  38556346.977 7 155250429.802 7        -0.818 7        44.030 7  38556354.504 6 163144553.492 6        -0.666 6        41.564 6
C05  39358975.969 6 204952518.407 6        39.686 6        39.645 6  39358989.348 7 158482343.103 7        30.607 7        42.913 7  39358995.406 6 166540786.951 6        31.639 6        39.926 6
C07  36118867.129 7 188080423.309 7      -628.889 7        47.855 7  36118873.141 8 145435731.300 8      -486.189 8        50.710 8  36118878.855 7 152830796.400 7      -510.959 7        47.963 7
C08  36280151.652 7 188920271.962 7      -226.037 7        47.435 7  36280158.449 8 146085164.658 8      -174.627 8        49.558 8  36280164.922 7 153513249.890 7      -183.967 7        47.395 7
C10  35806038.641 8 186451439.342 8      -279.064 8        48.542 8  35806047.406 8 144176113.536 8      -215.545 8        48.905 8  35806053.465 7 151507127.685 7      -226.838 7        47.885 7
C13  36850004.641 8 191887642.760 8       -83.186 8        48.940 8  36850018.449 7 148379753.499 7       -64.412 7        47.855 7  36850023.738 7 155924509.619 7       -67.775 7        46.759 7
S37  36956260.590 7 194206457.999 7         1.777 7        43.720 7
> 2022 06 21 05 08 50.0000000  0 25       0.000000000000
G02  23027428.512 7 121009960.648 7      1251.584 7        44.559 7  23027440.617 7  94293531.090 7       975.303 7        45.144 7
G04  24331050.867 6 127860538.099 6       186.486 6        39.024 6  24331068.395 5  99631596.624 5       145.283 5        35.141 5
G06  20841663.199 8 109523675.288 8      -231.404 8        49.921 8  20841677.953 8  85343186.234 8      -180.439 8        50.226 8
G09  23405666.105 5 122997578.450 5      1508.107 5        32.891 5                                                                
G11  22188188.234 7 116599708.563 7      1536.604 7        47.378 7  22188201.156 8  90856982.922 8      1197.412 8        48.880 8
G12  23177063.023 6 121796304.362 6      2427.775 6        40.059 6  23177076.805 7  94906232.910 7      1891.221 7        47.621 7
G17  21112416.297 8 110946492.072 8      -795.252 8        48.905 8  21112429.477 8  86451848.734 8      -619.717 8        50.226 8
G19  20260060.789 8 106467335.658 8       156.975 8        49.139 8  20260071.949 8  82961607.785 8       122.334 8        50.226 8
G20  22606981.945 7 118800501.824 7      2945.725 7        47.005 7  22606997.270 7  92571827.801 7      2295.264 7        47.625 7
R07  20824554.801 8 111475486.191 8      -764.850 8        51.489 8  20824560.676 8  86703162.369 8      -595.129 8        48.390 8
R08  20653923.316 8 110600824.786 8      2807.564 8        51.878 8  20653929.047 8  86022896.510 8      2183.543 8        49.722 8
R12  22461414.352 7 119984833.779 7     -3665.305 7        45.750 7  22461425.953 6  93321572.124 6     -2851.178 6        40.273 6
R13  21567679.602 6 115170216.338 6     -1344.438 6        39.926 6  21567688.910 6  89576865.527 6     -1045.945 6        38.554 6
R14  23684402.113 5                      2160.406 5        30.103 5                                                                
R23  21272148.723 8 113791654.880 8      1363.410 8        50.766 8                                                                
C01  37492918.078 7 195235462.704 7        17.229 7        44.974 7  37492927.738 7 150968481.815 7        13.658 7        45.379 7  37492936.574 7 158644883.221 7        14.576 7        42.382 7
C02  37677257.211 7 196195361.770 7        35.451 7        42.006 7  37677263.723 7 151710724.479 7        27.896 7        44.335 7  37677274.082 7 159424878.248 7        29.400 7        42.607 7
C03  36886143.113 7 192075828.548 7        38.381 7        46.557 7  36886150.020 7 148525241.022 7        29.654 7        47.443 7  36886158.797 7 156077409.844 7        31.314 7        45.494 7
C04  38556339.430 6 200772978.534 6        -0.994 6        39.241 6  38556348.410 7 155250437.039 7        -0.756 7        43.739 7  38556356.543 6 163144561.105 6        -0.443 6        41.309 6
C05  39358898.484 6 204952121.397 6        39.572 6        39.971 6  39358913.043 7 158482036.117 7        30.729 7        42.680 7  39358919.074 6 166540464.353 6        32.018 6        39.693 6
C07  36120075.219 7 188086716.429 7      -629.842 7        47.877 7  36120081.695 8 145440597.541 8      -487.025 8        50.630 8  36120087.445 7 152835910.080 7      -511.928 7        47.913 7
C08  36280585.973 7 188922532.996 7      -226.365 7        47.562 7  36280592.805 8 146086913.036 8      -175.072 8        49.703 8  36280599.207 7 153515087.151 7      -183.959 7        47.459 7
C10  35806575.914 8 186454235.046 8      -280.271 8        48.634 8  35806584.250 8 144178275.365 8      -216.693 8        48.917 8  35806589.996 7 151509399.419 7      -227.670 7        47.899 7
C13  36850164.547 8 191888476.527 8       -83.885 8        49.361 8  36850178.461 7 148380398.198 7       -64.721 7        47.928 7  36850183.992 7 155925187.115 7       -68.100 7        47.058 7
S37  36956256.762 7 194206438.597 7         1.994 7        43.832 7
> 2022 06 21 05 09  0.0000000  0 25       0.000000000000
G02  23025048.438 7 120997453.903 7      1249.918 7        44.845 7  23025060.602 7  94283785.626 7       973.941 7        45.817 7
G04  24330701.555 6 127858704.816 6       180.738 6        37.885 6  24330720.129 5  99630168.107 5       140.736 5        34.231 5
G06  20842105.617 8 109526001.094 8      -233.559 8        49.746 8  20842121.027 8  85345001.548 8      -182.193 8        50.226 8
G09  23402797.520 5 122982508.882 5      1502.301 5        32.407 5  23402799.723 2  95830552.07512      1172.906 2        14.103 2
G11  22185265.414 7 116584354.220 7      1534.469 7        46.577 7  22185279.066 8  90845018.549 8      1195.699 8        48.893 8
G12  23172448.715 6 121772052.294 6      2422.184 6        40.517 6  23172462.137 7  94887335.219 7      1887.672 7        47.756 7
G17  21113933.047 7 110954464.899 7      -798.990 7        47.992 7  21113946.555 8  86458061.305 8      -622.584 8        50.226 8
G19  20259765.852 8 106465785.567 8       152.867 8        49.278 8  20259776.758 8  82960399.925 8       119.115 8        50.226 8
G20  22601379.586 7 118771059.476 7      2942.477 7        46.458 7  22601394.813 7  92548885.759 7      2292.887 7        47.998 7
R07  20825993.113 8 111483179.729 8      -773.688 8        52.034 8  20825999.129 8  86709146.231 8      -602.143 8        49.199 8
R08  20648685.875 8 110572780.927 8      2800.916 8        52.040 8  20648693.465 8  86001084.646 8      2178.408 8        49.703 8
R12  22468277.000 7 120021496.661 7     -3667.162 7        47.075 7  22468290.320 6  93350087.562 6     -2852.455 6        40.634 6
R13  21570208.051 6 115183705.310 6     -1352.623 6        40.103 6  21570214.926 6  89587356.884 6     -1052.164 6        37.179 6
R14  23684402.113 5                      2160.406 5        30.103 5                                                                
R23  21269600.316 8 113778025.905 8      1362.695 8        48.535 8                                                                
C01  37492885.070 7 195235288.019 7        17.242 7        45.058 7  37492893.871 7 150968346.760 7        13.256 7        44.960 7  37492902.605 7 158644741.293 7        13.867 7        42.144 7
C02  37677188.180 7 196195002.416 7        35.816 7        42.034 7  37677194.262 7 151710446.615 7        27.396 7        44.481 7  37677204.723 7 159424586.240 7        29.238 7        42.508 7
C03  36886069.504 7 192075445.991 7        37.984 7        46.645 7  36886076.695 7 148524945.203 7        29.662 7        47.451 7  36886085.461 7 156077098.984 7        30.781 7        45.726 7
C04  38556341.945 6 200772988.292 6        -1.117 6        38.911 6  38556350.387 7 155250444.578 7        -1.061 7        43.366 7  38556358.078 6 163144569.009 6        -0.742 6        41.107 6
C05  39358823.156 6 204951724.653 6        39.352 6        39.498 6  39358837.395 7 158481729.327 7        30.365 7        42.868 7  39358843.375 6 166540141.956 6        32.090 6        40.015 6
C07  36121285.969 7 188093023.714 7      -631.254 7        47.906 7  36121292.977 8 145445474.728 8      -488.326 8        50.603 8  36121298.566 8 152841035.262 8      -512.930 8        48.172 8
C08  36281021.520 7 188924801.339 7      -227.133 7        47.288 7  36281028.387 8 146088667.046 8      -175.885 8        49.848 8  36281034.660 7 153516930.357 7      -184.590 7        47.752 7
C10  35807115.203 8 186457045.551 8      -282.133 8        48.428 8  35807123.859 8 144180448.608 8      -217.936 8        48.742 8  35807129.762 8 151511683.181 8      -228.906 8        48.020 8
C13  36850326.109 8 191889317.578 8       -84.516 8        49.341 8  36850340.023 7 148381048.562 7       -65.240 7        47.942 7  36850345.418 7 155925870.535 7       -68.691 7        46.933 7
S37  36956253.301 7 194206419.396 7         1.871 7        43.977 7
> 2022 06 21 05 09 10.0000000  0 24       0.000000000000
G02  23022671.141 7 120984959.830 7      1248.992 7        45.866 7  23022683.473 7  94274050.014 7       973.199 7        46.478 7
G04  24330363.172 6 127856923.491 6       174.930 6        38.968 6  24330380.875 5  99628780.069 5       136.168 5        33.645 5
G06  20842551.379 8 109528345.360 8      -234.973 8        50.002 8  20842567.191 8  85346829.248 8      -183.168 8        50.226 8
G11  22182346.516 7 116569020.593 7      1532.684 7        45.353 7  22182361.824 8  90833070.283 8      1194.293 8        48.797 8
G12  23167842.332 6 121747849.615 6      2418.191 6        40.015 6  23167856.527 7  94868475.995 7      1884.273 7        47.636 7
G17  21115456.863 8 110962472.589 8      -802.492 8        48.441 8  21115470.156 8  86464301.057 8      -625.219 8        50.226 8
G19  20259478.270 8 106464275.552 8       149.207 8        48.979 8  20259489.801 8  82959223.287 8       116.305 8        50.226 8
G20  22595782.004 7 118741646.909 7      2939.949 7        46.518 7  22595797.672 7  92525966.927 7      2290.719 7        47.621 7
R07  20827446.375 8 111490959.879 8      -781.932 8        52.768 8  20827450.813 8  86715197.459 8      -608.152 8        49.193 8
R08  20643460.945 8 110544799.288 8      2795.363 8        52.607 8  20643468.680 8  85979321.177 8      2174.271 8        50.172 8
R12  22475145.289 7 120058177.433 7     -3668.736 7        47.246 7  22475155.313 6  93378616.926 6     -2853.887 6        39.188 6
R13  21572747.297 6 115197267.594 6     -1360.037 6        39.188 6  21572753.313 5  89597905.324 5     -1058.166 5        35.785 5
R14  23634147.922 5                      2075.912 5        30.517 5                                                                
R23  21267053.680 7 113764400.077 7      1362.693 7        46.113 7                                                                
C01  37492851.617 7 195235113.353 7        17.939 7        45.506 7  37492860.203 7 150968211.694 7        13.936 7        45.443 7  37492869.332 7 158644599.381 7        14.268 7        42.533 7
C02  37677118.848 7 196194642.969 7        36.045 7        42.251 7  37677125.469 7 151710168.681 7        27.861 7        44.352 7  37677135.840 7 159424294.160 7        29.580 7        42.558 7
C03  36885995.699 7 192075063.525 7        38.623 7        46.346 7  36886003.070 7 148524649.451 7        30.010 7        47.321 7  36886011.898 7 156076788.196 7        31.436 7        45.593 7
C04  38556343.191 6 200772998.054 6        -0.381 6        39.024 6  38556353.102 7 155250452.132 7        -0.557 7        44.335 7  38556360.027 6 163144576.979 6        -0.732 6        40.967 6
C05  39358746.418 6 204951327.795 6        40.166 6        39.397 6  39358760.051 6 158481422.469 6        31.260 6        41.921 6  39358767.160 6 166539819.494 6        32.686 6        40.748 6
C07  36122500.133 8 188099344.931 8      -632.764 8        48.069 8  36122507.254 8 145450362.678 8      -489.092 8        50.967 8  36122512.340 8 152846171.761 8      -513.994 8        48.124 8
C08  36281458.910 7 188927076.457 7      -227.412 7        47.892 7  36281465.387 8 146090426.314 8      -175.869 8        49.778 8  36281471.902 7 153518779.092 7      -184.893 7        47.870 7
C10  35807657.980 8 186459870.507 8      -282.803 8        48.560 8  35807666.676 8 144182633.057 8      -218.857 8        48.778 8  35807672.262 7 151513978.688 7      -229.697 7        47.978 7
C13  36850489.230 8 191890165.766 8       -84.971 8        49.193 8  36850502.859 8 148381704.434 8       -65.537 8        48.110 8  36850508.203 7 155926559.757 7       -69.170 7        46.674 7
S37  36956249.758 7 194206400.040 7         2.586 7        43.887 7
> 2022 06 21 05 09 20.0000000  0 24       0.000000000000
G02  23020296.559 7 120972478.536 7      1248.006 7        45.469 7  23020307.945 7  94264324.317 7       972.438 7        46.179 7
G04  24330034.520 6 127855194.274 6       170.916 6        39.134 6  24330049.945 5  99627432.653 5       133.277 5        34.517 5
G06  20843001.145 8 109530708.196 8      -236.662 8        49.597 8  20843016.984 8  85348665.419 8      -184.691 8        50.226 8
G11  22179433.477 7 116553707.828 7      1530.311 7        46.273 7  22179448.070 8  90821138.255 8      1192.438 8        49.092 8
G12  23163246.531 6 121723696.583 6      2413.396 6        40.748 6  23163260.270 8  94849655.478 8      1880.328 8        48.392 8
G17  21116987.402 7 110970515.347 7      -805.549 7        47.913 7  21117000.281 8  86470568.126 8      -627.855 8        50.226 8
G19  20259198.980 8 106462805.795 8       145.232 8        49.068 8  20259209.973 8  82958078.022 8       113.297 8        50.226 8
G20  22590191.000 7 118712264.391 7      2936.873 7        46.674 7  22590206.340 8  92503071.505 8      2288.434 8        48.550 8
R07  20828916.535 8 111498827.099 8      -790.500 8        52.304 8  20828921.547 8  86721316.411 8      -614.932 8        48.083 8
R08  20638246.613 8 110516880.085 8      2789.217 8        52.744 8  20638253.918 8  85957606.250 8      2169.660 8        50.603 8
R12  22482014.289 7 120094876.233 7     -3670.605 7        46.210 7  22482026.895 6  93407160.243 6     -2855.002 6        37.585 6
R13  21575305.590 6 115210903.257 6     -1366.436 6        39.294 6  21575308.598 6  89608510.791 6     -1062.641 6        36.824 6
R14  23629588.254 5                      2067.338 5        33.325 5                                                                
R23  21264506.758 8 113750777.657 8      1362.523 8        49.788 8                                                                
C01  37492817.555 7 195234938.901 7        17.990 7        45.031 7  37492826.676 7 150968076.804 7        14.057 7        45.003 7  37492835.668 6 158644457.628 6        14.400 6        41.864 6
C02  37677049.727 6 196194283.597 6        36.506 6        41.950 6  37677056.809 7 151709890.804 7        28.119 7        44.319 7  37677066.875 7 159424002.157 7        29.303 7        42.533 7
C03  36885922.215 7 192074681.365 7        38.479 7        46.498 7  36885929.441 7 148524353.929 7        29.721 7        47.435 7  36885938.527 7 156076477.657 7        31.393 7        45.405 7
C04  38556345.902 6 200773008.023 6        -0.857 6        39.448 6  38556354.809 7 155250459.843 7        -0.182 7        43.887 7  38556361.945 6 163144585.073 6        -0.697 6        41.309 6
C05  39358671.289 6 204950931.070 6        40.354 6        39.548 6  39358683.773 7 158481115.707 7        30.912 7        42.382 7  39358690.863 6 166539497.122 6        32.838 6        40.189 6
C07  36123717.586 8 188105680.213 8      -634.178 8        48.096 8  36123724.313 8 145455261.512 8      -490.279 8        50.822 8  36123729.078 7 152851319.686 7      -515.131 7        47.892 7
C08  36281897.336 7 188929358.554 7      -228.299 7        47.841 7  36281903.488 8 146092190.962 8      -176.451 8        49.407 8  36281910.121 7 153520633.472 7      -185.443 7        47.554 7
C10  35808203.871 8 186462710.035 8      -284.314 8        48.905 8  35808212.063 8 144184828.744 8      -219.654 8        48.504 8  35808217.598 7 151516286.033 7      -230.873 7        47.782 7
C13  36850654.098 8 191891021.138 8       -85.311 8        49.602 8  36850666.941 7 148382365.879 7       -66.549 7        47.459 7  36850672.395 7 155927254.818 7       -69.467 7        46.645 7
S37  36956246.352 7 194206380.757 7         2.088 7        43.905 7
> 2022 06 21 05 09 30.0000000  0 24       0.000000000000
G02  23017923.105 7 120960010.138 7      1246.137 7        44.786 7  23017935.727 7  94254608.729 7       970.936 7        46.288 7
G04  24329714.723 6 127853517.445 6       165.023 6        38.676 6  24329731.551 5  99626126.074 5       128.494 5        34.477 5
G06  20843454.473 8 109533089.881 8      -239.313 8        49.684 8  20843470.215 8  85350526.265 8      -186.486 8        50.226 8
G11  22176523.430 7 116538416.027 7      1527.914 7        46.768 7  22176538.441 8  90809222.619 8      1190.564 8        49.554 8
G12  23158659.020 6 121699593.563 6      2407.602 6        39.788 6  23158672.898 8  94830873.863 8      1876.092 8        48.839 8
G17  21118524.512 8 110978593.518 8      -809.762 8        48.158 8  21118537.477 8  86476862.781 8      -630.979 8        50.226 8
G19  20258926.836 8 106461376.581 8       140.980 8        49.304 8  20258938.066 8  82956964.338 8       109.744 8        50.226 8
G20  22584605.137 7 118682912.244 7      2933.266 7        46.335 7  22584620.359 8  92480199.748 8      2285.643 8        48.223 8
R07  20830402.723 8 111506781.199 8      -800.016 8        53.081 8  20830407.449 8  86727502.923 8      -622.123 8        48.754 8
R08  20633046.309 8 110489023.438 8      2782.184 8        51.770 8  20633049.887 8  85935940.001 8      2164.168 8        50.112 8
R12  22488887.863 7 120131592.972 7     -3672.932 7        44.286 7  22488899.750 6  93435717.587 6     -2857.525 6        37.737 6
R13  21577868.168 6 115224612.476 6     -1374.172 6        38.854 6  21577876.188 5  89619173.451 5     -1068.582 5        35.901 5
R14  23628197.961 5                      2063.689 5        30.103 5                                                                
R23  21261961.113 8 113737159.070 8      1361.350 8        48.485 8                                                                
C01  37492784.227 7 195234764.856 7        17.256 7        44.831 7  37492793.742 7 150967942.211 7        13.596 7        44.727 7  37492802.309 6 158644316.172 6        13.980 6        41.950 6
C02  37676980.914 7 196193924.548 7        35.869 7        42.117 7  37676987.566 7 151709613.143 7        27.580 7        44.621 7  37676997.750 7 159423710.396 7        28.512 7        42.821 7
C03  36885849.039 7 192074299.710 7        38.076 7        46.428 7  36885856.516 7 148524058.837 7        29.357 7        47.577 7  36885865.242 7 156076167.538 7        30.973 7        45.405 7
C04  38556348.707 6 200773018.452 6        -1.260 6        39.346 6  38556357.148 7 155250467.926 7        -1.229 7        43.284 7  38556363.813 6 163144593.544 6        -1.117 6        40.967 6
C05  39358594.461 6 204950534.674 6        39.092 6        39.788 6  39358607.590 7 158480809.182 7        30.334 7        42.382 7  39358614.625 6 166539175.008 6        32.203 6        40.437 6
C07  36124936.957 8 188112029.774 8      -635.830 8        48.165 8  36124943.684 8 145460171.384 8      -491.619 8        50.851 8  36124948.293 7 152856479.220 7      -516.938 7        47.855 7
C08  36282337.035 7 188931647.842 7      -229.463 7        47.631 7  36282342.938 8 146093961.185 8      -177.439 8        49.558 8  36282349.691 7 153522493.710 7      -186.625 7        47.956 7
C10  35808751.855 8 186465564.445 8      -286.279 8        48.842 8  35808760.227 8 144187035.975 8      -221.561 8        48.554 8  35808765.754 8 151518605.492 8      -233.012 8        48.062 8
C13  36850819.063 8 191891884.011 8       -87.041 8        49.330 8  36850832.262 7 148383033.081 7       -66.912 7        47.187 7  36850837.898 7 155927955.966 7       -70.727 7        46.596 7
S37  36956242.359 7 194206361.719 7         1.488 7        43.777 7
> 2022 06 21 05 09 40.0000000  0 24       0.000000000000
G02  23015553.133 7 120947554.062 7      1244.561 7        45.045 7  23015565.867 7  94244902.719 7       969.740 7        46.570 7
G04  24329406.563 6 127851892.393 6       159.170 6        39.448 6  24329422.199 5  99624859.832 5       123.900 5        34.437 5
G06  20843910.711 8 109535489.613 8      -241.396 8        49.231 8  20843926.793 8  85352396.181 8      -188.072 8        50.226 8
G11  22173616.289 7 116523144.603 7      1525.732 7        44.636 7  22173633.102 8  90797322.827 8      1188.842 8        49.817 8
G12  23154082.281 6 121675539.896 6      2402.451 6        39.741 6  23154095.289 8  94812130.786 8      1871.557 8        48.993 8
G17  21120068.961 8 110986706.479 8      -813.701 8        49.035 8  21120081.551 8  86483184.574 8      -634.361 8        50.226 8
G19  20258662.457 8 106459987.253 8       136.416 8        48.985 8  20258673.277 8  82955881.755 8       106.381 8        50.226 8
G20  22579025.039 7 118653589.846 7      2930.186 7        45.154 7  22579040.707 7  92457351.159 7      2283.178 7        47.863 7
R07  20831904.855 8 111514821.884 8      -808.684 8        52.619 8  20831911.301 8  86733756.817 8      -629.141 8        48.579 8
R08  20627853.777 8 110461229.141 8      2775.859 8        51.973 8  20627859.363 8  85914322.237 8      2158.830 8        50.042 8
R12  22495765.488 7 120168326.979 7     -3675.035 7        45.366 7  22495773.078 6  93464288.356 6     -2859.600 6        37.427 6
R13  21580446.973 6 115238394.454 6     -1382.801 6        38.736 6  21580456.281 6  89629892.765 6     -1075.461 6        38.554 6
R14  23621849.648 5 125917751.104 5      2053.182 5        31.864 5                                                                
R23  21259416.082 7 113723543.409 7      1360.924 7        47.767 7                                                                
C01  37492750.375 7 195234590.505 7        17.166 7        45.100 7  37492760.316 7 150967807.403 7        13.105 7        45.314 7  37492768.945 7 158644174.523 7        13.816 7        42.356 7
C02  37676912.074 7 196193565.062 7        35.467 7        42.144 7  37676918.477 7 151709335.160 7        27.793 7        44.168 7  37676928.816 7 159423418.256 7        28.914 7        42.656 7
C03  36885775.512 7 192073917.908 7        37.752 7        46.417 7  36885783.703 7 148523763.593 7        29.355 7        47.411 7  36885792.082 7 156075857.283 7        30.770 7        45.481 7
C04  38556349.875 6 200773028.629 6        -1.936 6        39.741 6  38556358.855 7 155250475.774 7        -1.211 7        44.368 7  38556365.949 6 163144601.810 6        -1.398 6        41.342 6
C05  39358518.824 6 204950137.918 6        39.119 6        39.741 6  39358532.133 7 158480502.415 7        30.254 7        42.558 7  39358538.391 6 166538852.641 6        31.746 6        40.356 6
C07  36126159.059 8 188118392.985 8      -637.307 8        48.124 8  36126165.426 8 145465091.828 8      -492.930 8        50.733 8  36126170.398 7 152861649.852 7      -517.980 7        47.797 7
C08  36282777.207 7 188933943.612 7      -230.334 7        47.443 7  36282784.363 8 146095736.425 8      -178.320 8        49.866 8  36282790.566 7 153524359.196 7      -187.121 7        47.870 7
C10  35809302.496 8 186468432.974 8      -287.951 8        48.676 8  35809311.117 8 144189254.094 8      -222.793 8        48.894 8  35809316.582 8 151520936.395 8      -234.055 8        48.020 8
C13  36850985.930 8 191892753.569 8       -87.912 8        49.139 8  36850999.488 7 148383705.479 7       -67.969 7        47.569 7  36851004.719 7 155928662.556 7       -71.496 7        46.693 7
S37  36956238.840 7 194206342.258 7         1.396 7        43.795 7
> 2022 06 21 05 09 50.0000000  0 24       0.000000000000
G02  23013185.480 7 120935110.932 7      1243.723 7        46.014 7  23013198.203 7  94235206.782 7       969.156 7        47.309 7
G04  24329106.730 6 127850319.781 6       154.875 6        39.397 6  24329122.660 5  99623634.410 5       120.738 5        33.788 5
G06  20844371.559 8 109537907.980 8      -242.449 8        50.172 8  20844386.996 8  85354280.624 8      -189.184 8        50.226 8
G11  22170713.332 7 116507894.115 7      1524.523 7        44.202 7  22170730.703 8  90785439.350 8      1187.887 8        49.791 8
G12  23149514.449 6 121651536.414 6      2398.215 6        39.741 6  23149527.973 8  94793426.791 8      1868.043 8        49.355 8
G17  21121619.309 8 110994854.774 8      -816.258 8        48.795 8  21121632.133 8  86489533.881 8      -636.410 8        50.226 8
G19  20258405.559 8 106458638.572 8       132.844 8        48.882 8  20258416.520 8  82954830.828 8       103.570 8        50.226 8
G20  22573450.555 7 118624297.799 7      2927.766 7        45.855 7  22573466.309 8  92434526.231 8      2281.324 8        48.576 8
R07  20833423.063 8 111522949.274 8      -817.020 8        53.019 8  20833429.078 8  86740078.085 8      -635.525 8        49.215 8
R08  20622677.039 8 110433497.842 8      2770.197 8        51.924 8  20622682.340 8  85892753.445 8      2154.281 8        50.116 8
R12  22502645.727 7 120205078.595 7     -3675.795 7        45.418 7  22502654.176 6  93492872.815 6     -2858.797 6        37.427 6
R13  21583043.570 6 115252249.611 6     -1389.088 6        37.885 6  21583051.164 6  89640669.019 6     -1080.869 6        40.556 6
R14  23621637.109 5                      2053.375 5        30.103 5                                                                
R23  21256870.801 8 113709931.390 8      1361.650 8        48.158 8                                                                
C01  37492717.660 7 195234416.542 7        17.248 7        45.086 7  37492726.355 7 150967672.888 7        13.303 7        44.682 7  37492735.313 7 158644033.116 7        14.443 7        42.198 7
C02  37676843.375 7 196193205.811 7        36.018 7        42.845 7  37676849.813 7 151709057.398 7        27.580 7        44.575 7  37676859.785 7 159423126.342 7        28.916 7        42.751 7
C03  36885702.734 7 192073536.554 7        38.049 7        46.428 7  36885710.281 7 148523468.688 7        29.475 7        47.403 7  36885718.652 7 156075547.396 7        31.143 7        45.654 7
C04  38556351.828 6 200773039.134 6        -1.033 6        39.834 6  38556360.770 7 155250483.910 7        -0.760 7        43.586 7  38556367.918 6 163144610.357 6        -0.928 6        41.072 6
C05  39358441.789 6 204949741.414 6        39.514 6        38.298 6  39358456.352 6 158480195.825 6        30.646 6        41.656 6  39358462.281 6 166538530.484 6        32.256 6        38.968 6
C07  36127383.695 8 188124770.405 8      -637.947 8        48.069 8  36127389.563 8 145470023.249 8      -493.631 8        50.286 8  36127395.441 8 152866832.026 8      -518.760 8        48.027 8
C08  36283219.668 7 188936246.348 7      -230.701 7        47.271 7  36283226.430 8 146097517.047 8      -178.299 8        49.844 8  36283232.805 7 153526230.360 7      -187.354 7        47.971 7
C10  35809855.316 8 186471316.270 8      -289.236 8        48.279 8  35809864.688 8 144191483.626 8      -223.572 8        48.742 8  35809870.305 7 151523279.304 7      -234.619 7        47.819 7
C13  36851154.082 8 191893630.546 8       -88.318 8        49.096 8  36851167.711 7 148384383.617 7       -68.064 7        47.179 7  36851173.344 7 155929375.170 7       -71.494 7        46.805 7
S37  36956235.066 7 194206323.016 7         1.633 7        43.605 7
> 2022 06 21 05 10  0.0000000  0 24       0.000000000000
G02  23010819.598 7 120922680.702 7      1242.521 7        44.831 7  23010832.477 7  94225520.911 7       968.268 7        46.160 7
G04  24328816.254 6 127848799.760 6       150.002 6        36.915 6  24328834.125 5  99622450.023 5       116.803 5        34.785 5
G06  20844835.027 8 109540345.083 8      -244.178 8        49.587 8  20844850.770 8  85356178.661 8      -190.385 8        50.226 8
G11  22167817.578 7 116492664.650 7      1522.521 7        46.458 7  22167832.230 8  90773572.226 8      1186.373 8        49.765 8
G12  23144955.684 6 121627583.211 6      2392.932 6        40.273 6  23144970.305 8  94774761.914 8      1864.732 8        50.226 8
G17  21123176.578 8 111003038.607 8      -819.939 8        48.312 8  21123189.656 8  86495910.878 8      -638.783 8        50.226 8
G19  20258156.859 8 106457330.661 8       129.104 8        49.231 8  20258167.766 8  82953811.676 8       100.592 8        50.226 8
G20  22567882.418 7 118595036.346 7      2925.021 7        45.605 7  22567898.141 8  92411725.142 8      2279.303 8        48.162 8
R07  20834956.930 8 111531163.868 8      -825.623 8        51.586 8  20834962.660 8  86746467.241 8      -641.900 8        48.510 8
R08  20617509.512 8 110405829.737 8      2764.076 8        52.420 8  20617516.102 8  85871233.802 8      2149.760 8        49.848 8
R12  22509527.730 7 120241847.808 7     -3677.836 7        44.117 7  22509538.328 5  93521470.995 5     -2860.643 5        35.418 5
R13  21585651.824 6 115266178.079 6     -1396.439 6        38.232 6  21585659.988 6  89651502.226 6     -1086.270 6        38.911 6
R14  23614213.758 5                      2040.654 5        33.113 5                                                                
R23  21254328.145 8 113696323.036 8      1361.152 8        48.034 8                                                                
C01  37492684.391 7 195234243.015 7        17.588 7        44.786 7  37492693.012 7 150967538.697 7        13.369 7        45.017 7  37492702.320 7 158643892.159 7        13.850 7        42.304 7
C02  37676773.648 7 196192846.973 7        36.123 7        42.356 7  37676780.840 7 151708779.911 7        28.174 7        44.682 7  37676790.863 7 159422834.771 7        29.045 7        42.775 7
C03  36885629.469 7 192073155.723 7        38.213 7        46.304 7  36885636.906 7 148523174.217 7        29.639 7        47.623 7  36885645.543 7 156075237.958 7        30.979 7        45.556 7
C04  38556353.719 6 200773050.128 6        -0.947 6        39.880 6  38556362.625 7 155250492.398 7        -0.420 7        43.701 7  38556370.168 6 163144619.277 6        -0.760 6        41.533 6
C05  39358365.984 6 204949345.301 6        39.697 6        39.448 6  39358379.898 7 158479889.510 7        30.986 7        42.198 7  39358386.219 6 166538208.591 6        32.307 6        40.015 6
C07  36128611.063 8 188131162.163 8      -639.736 8        48.232 8  36128617.250 8 145474965.739 8      -494.619 8        50.733 8  36128622.961 8 152872025.839 8      -519.979 8        48.239 8
C08  36283663.359 7 188938556.304 7      -231.182 7        47.554 7  36283669.977 8 146099303.230 8      -178.760 8        50.006 8  36283676.367 8 153528107.362 8      -187.752 8        48.062 8
C10  35810411.977 8 186474214.536 8      -290.049 8        48.124 8  35810421.668 8 144193724.749 8      -224.521 8        49.123 8  35810426.813 7 151525634.379 7      -235.799 7        47.707 7
C13  36851324.039 8 191894514.858 8       -88.389 8        48.928 8  36851338.098 8 148385067.432 8       -68.584 8        48.020 8  36851343.152 7 155930093.760 7       -71.893 7        46.478 7
S37  36956231.629 7 194206304.062 7         1.955 7        44.117 7
> 2022 06 21 05 10 10.0000000  0 25       0.000000000000
G02  23008456.484 7 120910262.635 7      1241.521 7        45.208 7  23008469.117 7  94215844.524 7       967.467 7        46.233 7
G04  24328538.273 6 127847331.598 6       145.311 6        39.188 6  24328555.328 5  99621306.032 5       113.248 5        35.406 5
G06  20845302.129 8 109542800.096 8      -245.900 8        49.903 8  20845315.965 8  85358084.671 8      -191.791 8        49.130 8
G09  23382940.492 5 122878181.291 5      1476.268 5        34.575 5                                                                
G11  22164923.164 7 116477455.389 7      1520.369 7        46.805 7  22164937.543 8  90761720.888 8      1184.752 8        49.524 8
G12  23140407.695 6 121603679.521 6      2388.709 6        40.634 6  23140421.836 8  94756135.683 8      1861.549 8        50.226 8
G17  21124740.762 8 111011257.243 8      -823.322 8        49.463 8  21124753.398 8  86502315.017 8      -641.771 8        50.226 8
G19  20257915.656 8 106456062.766 8       125.057 8        49.299 8  20257926.516 8  82952823.705 8        97.389 8        50.226 8
G20  22562320.195 7 118565804.722 7      2922.049 7        45.878 7  22562335.852 8  92388947.302 8      2276.920 8        48.162 8
R07  20836507.035 8 111539464.751 8      -834.051 8        51.364 8  20836513.766 8  86752923.465 8      -648.820 8        48.192 8
R08  20612353.355 8 110378224.319 8      2757.873 8        52.536 8  20612361.520 8  85849762.951 8      2144.932 8        50.172 8
R12  22516414.656 7 120278633.615 7     -3679.604 7        43.663 7  22516425.684 6  93550081.986 6     -2861.428 6        37.507 6
R13  21588273.301 6 115280178.894 6     -1402.191 6        38.232 6  21588283.613 6  89662391.773 6     -1091.410 6        39.448 6
R14  23610393.809 6                      2033.516 6        38.616 6                                                                
R23  21251782.102 7 113682717.695 7      1360.537 7        46.664 7                                                                
C01  37492650.453 7 195234069.188 7        17.803 7        44.605 7  37492659.969 7 150967404.263 7        14.195 7        45.141 7  37492668.883 7 158643750.878 7        14.055 7        42.583 7
C02  37676704.977 6 196192487.599 6        36.143 6        41.864 6  37676711.988 7 151708502.021 7        28.219 7        44.481 7  37676721.898 7 159422542.735 7        29.094 7        42.558 7
C03  36885555.930 7 192072774.681 7        38.525 7        46.113 7  36885564.156 7 148522879.577 7        29.605 7        47.848 7  36885572.387 7 156074928.318 7        31.223 7        45.182 7
C04  38556356.523 6 200773060.887 6        -0.830 6        39.498 6  38556364.570 7 155250500.689 7        -0.004 7        43.488 7  38556371.969 6 163144628.010 6        -1.082 6        41.037 6
C05  39358290.371 6 204948948.758 6        39.912 6        39.834 6  39358302.715 7 158479582.895 7        31.129 7        42.144 7  39358309.926 6 166537886.367 6        32.219 6        39.971 6
C07  36129841.234 8 188137567.453 8      -640.967 8        48.020 8  36129846.961 8 145479918.720 8      -495.668 8        50.401 8  36129852.875 8 152877230.656 8      -520.748 8        48.041 8
C08  36284107.602 7 188940872.545 7      -231.709 7        47.136 7  36284114.719 8 146101094.306 8      -179.184 8        49.621 8  36284121.309 8 153529989.503 8      -188.131 8        48.020 8
C10  35810971.512 8 186477126.783 8      -291.436 8        48.259 8  35810980.957 8 144195976.683 8      -225.414 8        49.085 8  35810986.121 7 151528000.818 7      -236.920 7        47.767 7
C13  36851495.547 8 191895405.832 8       -88.799 8        49.035 8  36851508.926 7 148385756.401 7       -68.813 7        47.797 7  36851514.563 7 155930817.748 7       -72.213 7        46.870 7
S37  36956227.957 7 194206284.589 7         2.400 7        43.850 7
> 2022 06 21 05 10 20.0000000  0 25       0.000000000000
G02  23006095.918 7 120897857.344 7      1239.211 7        45.248 7  23006108.754 7  94206178.074 7       965.578 7        46.341 7
G04  24328268.426 6 127845915.958 6       137.395 6        36.731 6  24328286.480 5  99620202.932 5       107.043 5        34.556 5
G06  20845772.637 8 109545273.563 8      -248.738 8        49.418 8  20845788.406 8  85360018.032 8      -193.680 8        50.226 8
G09  23380137.914 5 122863438.478 5      1470.148 5        33.113 5                                                                
G11  22162031.871 7 116462266.923 7      1517.199 7        45.301 7  22162048.141 8  90749885.730 8      1182.336 8        49.260 8
G12  23135868.414 6 121579826.115 6      2382.473 6        41.242 6  23135883.754 8  94737548.615 8      1856.320 8        50.226 8
G17  21126311.219 8 111019511.293 8      -827.938 8        48.285 8  21126324.469 8  86508746.731 8      -645.398 8        50.226 8
G19  20257681.867 8 106454835.428 8       120.051 8        49.046 8  20257693.156 8  82951867.329 8        93.410 8        50.226 8
G20  22556763.387 7 118536603.594 7      2917.922 7        45.642 7  22556778.898 8  92366193.221 8      2273.723 8        48.316 8
R07  20838074.445 8 111547852.232 8      -843.574 8        51.635 8  20838081.176 8  86759447.113 8      -656.146 8        48.670 8
R08  20607211.352 8 110350682.282 8      2750.539 8        52.749 8  20607216.938 8  85828341.391 8      2139.342 8        50.142 8
R12  22523304.422 7 120315436.521 7     -3681.666 7        42.225 7  22523315.879 6  93578706.341 6     -2863.209 6        38.736 6
R13  21590910.223 6 115294252.564 6     -1411.541 6        39.294 6  21590916.668 6  89673337.908 6     -1098.172 6        38.298 6
R14  23606558.223 5                      2025.943 5        32.656 5                                                                
R23  21249241.047 7 113669115.953 7      1359.334 7        47.554 7                                                                
C01  37492617.027 7 195233895.609 7        16.695 7        44.319 7  37492626.328 7 150967270.068 7        12.822 7        45.127 7  37492635.035 6 158643609.820 6        13.906 6        41.864 6
C02  37676636.246 6 196192128.424 6        35.133 6        41.978 6  37676643.293 7 151708224.275 7        27.119 7        44.757 7  37676652.879 7 159422250.868 7        28.711 7        42.533 7
C03  36885483.262 7 192072393.982 7        37.320 7        46.377 7  36885490.594 7 148522585.189 7        28.896 7        47.530 7  36885499.367 7 156074618.958 7        30.801 7        45.568 7
C04  38556358.441 6 200773071.825 6        -1.996 6        40.146 6  38556367.598 7 155250509.174 7        -0.908 7        44.168 7  38556374.387 6 163144636.896 6        -1.387 6        41.209 6
C05  39358214.949 6 204948552.354 6        39.254 6        39.597 6  39358227.719 7 158479276.389 7        29.932 7        42.382 7  39358233.809 6 166537564.281 6        31.563 6        40.146 6
C07  36131073.457 7 188143986.851 7      -643.520 7        47.577 7  36131080.078 8 145484882.600 8      -497.471 8        50.607 8  36131085.707 8 152882446.934 8      -522.539 8        48.245 8
C08  36284553.711 7 188943195.659 7      -233.012 7        47.451 7  36284560.438 8 146102890.696 8      -180.303 8        49.283 8  36284567.500 7 153531877.232 7      -189.727 7        47.767 7
C10  35811534.207 8 186480053.862 8      -294.066 8        48.517 8  35811543.152 8 144198240.077 8      -227.334 8        49.325 8  35811548.383 7 151530379.302 7      -239.063 7        47.775 7
C13  36851667.457 8 191896303.970 8       -90.844 8        48.905 8  36851682.016 8 148386450.874 8       -69.619 8        48.199 8  36851686.895 7 155931547.566 7       -73.828 7        46.645 7
S37  36956224.402 7 194206265.238 7         1.457 7        44.100 7
> 2022 06 21 05 10 30.0000000  0 24       0.000000000000
G02  23003737.875 7 120885464.748 7      1238.982 7        44.889 7  23003750.223 7  94196521.521 7       965.535 7        46.570 7
G04  24328007.965 5 127844552.746 5       134.920 5        35.666 5  24328027.340 5  99619140.729 5       105.105 5        34.858 5
G06  20846247.242 8 109547765.513 8      -249.611 8        49.392 8  20846260.223 8  85361950.813 8      -194.641 8        48.197 8
G11  22159145.531 7 116447099.288 7      1516.170 7        44.932 7  22159161.457 8  90738066.801 8      1181.473 8        49.148 8
G12  23131339.953 6 121556023.011 6      2378.084 6        41.309 6  23131353.676 8  94719000.755 8      1852.996 8        50.226 8
G17  21127888.633 8 111027800.852 8      -830.215 8        48.338 8  21127901.711 8  86515206.114 8      -646.809 8        50.226 8
G19  20257456.324 8 106453648.838 8       117.088 8        48.682 8  20257467.113 8  82950942.705 8        91.219 8        50.226 8
G20  22551212.676 7 118507433.060 7      2915.486 7        46.058 7  22551228.316 8  92343462.973 8      2271.863 8        48.596 8
R07  20839657.844 8 111556326.497 8      -851.313 8        51.219 8  20839662.855 8  86766038.206 8      -662.254 8        48.252 8
R08  20602079.750 8 110323203.996 8      2745.006 8        52.711 8  20602086.195 8  85806969.409 8      2135.131 8        49.612 8
R12  22530196.137 7 120352256.256 7     -3682.002 7        42.006 7  22530208.027 6  93607343.802 6     -2863.475 6        36.538 6
R13  21593556.977 6 115308399.002 6     -1417.443 6        39.597 6  21593563.137 6  89684340.690 6     -1102.793 6        38.676 6
R14  23602849.059 5 125815997.435 5      2021.410 5        34.082 5                                                                
R23  21246697.504 8 113655517.724 8      1359.896 8        48.848 8                                                                
C01  37492583.801 7 195233722.350 7        17.684 7        44.528 7  37492593.496 7 150967136.100 7        13.197 7        45.114 7  37492602.102 7 158643469.061 7        14.119 7        42.171 7
C02  37676566.922 6 196191769.444 6        36.297 6        41.656 6  37676574.543 7 151707946.684 7        27.982 7        44.712 7  37676584.078 7 159421959.184 7        29.412 7        42.433 7
C03  36885410.363 7 192072013.688 7        38.191 7        46.438 7  36885417.551 7 148522291.116 7        29.799 7        47.153 7  36885426.367 7 156074309.956 7        31.072 7        45.366 7
C04  38556360.379 6 200773083.200 6        -1.340 6        39.693 6  38556369.465 7 155250517.952 7        -0.611 7        43.701 7  38556376.348 6 163144646.134 6        -0.881 6        40.437 6
C05  39358138.723 6 204948156.209 6        39.930 6        40.015 6  39358150.598 7 158478970.058 7        31.029 7        42.656 7  39358157.633 6 166537242.376 6        32.381 6        40.477 6
C07  36132308.348 7 188150420.519 7      -643.879 7        47.238 7  36132315.609 8 145489857.502 8      -497.486 8        51.023 8  36132321.277 7 152887674.805 7      -523.029 7        47.841 7
C08  36285001.559 7 188945525.820 7      -232.961 7        47.403 7  36285007.961 8 146104692.524 8      -180.162 8        49.503 8  36285014.793 8 153533770.682 8      -189.123 8        48.062 8
C10  35812099.750 8 186482995.682 8      -294.230 8        48.968 8  35812107.941 8 144200514.877 8      -227.721 8        49.366 8  35812113.441 8 151532769.779 8      -239.416 8        48.083 8
C13  36851841.676 8 191897209.427 8       -90.871 8        49.063 8  36851855.629 8 148387151.049 8       -69.986 8        48.232 8  36851860.859 7 155932283.314 7       -73.303 7        46.596 7
S37  36956220.938 7 194206246.066 7         2.068 7        43.777 7
> 2022 06 21 05 10 40.0000000  0 24       0.000000000000
G02  23001382.613 7 120873084.560 7      1237.650 7        46.156 7  23001394.449 7  94186874.666 7       964.365 7        46.435 7
G04  24327760.020 6 127843242.010 6       129.330 6        36.635 6  24327778.910 5  99618119.354 5       100.947 5        34.785 5
G06  20846724.918 8 109550275.638 8      -251.686 8        49.438 8  20846740.242 8  85363916.738 8      -195.674 8        50.226 8
G11  22156263.695 7 116431952.155 7      1513.959 7        45.568 7  22156278.777 8  90726263.892 8      1179.639 8        49.004 8
G12  23126818.996 6 121532270.193 6      2372.768 6        41.107 6  23126833.293 8  94700492.050 8      1849.170 8        50.226 8
G17  21129472.406 8 111036125.558 8      -833.893 8        48.232 8  21129485.531 8  86521692.903 8      -649.756 8        50.226 8
G19  20257237.996 8 106452502.789 8       113.080 8        48.825 8  20257249.160 8  82950049.671 8        88.193 8        50.226 8
G20  22545667.469 7 118478292.953 7      2912.787 7        46.091 7  22545682.980 8  92320756.438 8      2269.658 8        49.028 8
R07  20841258.063 8 111564887.313 8      -859.996 8        51.384 8  20841261.355 8  86772696.621 8      -668.838 8        48.877 8
R08  20596960.102 8 110295788.941 8      2738.590 8        52.651 8  20596965.973 8  85785646.610 8      2130.031 8        49.660 8
R12  22537093.504 6 120389092.531 6     -3684.316 6        41.564 6  22537103.102 6  93635994.040 6     -2865.586 6        36.915 6
R13  21596223.559 6 115322617.735 6     -1424.873 6        39.079 6  21596229.145 6  89695399.623 6     -1107.639 6        38.298 6
R14  23599040.984 5 125796167.747 5      2012.670 5        33.905 5                                                                
R23  21244157.891 7 113641922.823 7      1359.553 7        46.897 7                                                                
C01  37492550.457 7 195233549.151 7        17.525 7        44.682 7  37492560.543 7 150967002.154 7        13.750 7        45.889 7  37492568.652 7 158643328.321 7        14.174 7        42.034 7
C02  37676498.020 7 196191410.354 7        36.217 7        42.117 7  37676505.496 7 151707669.017 7        27.930 7        44.816 7  37676514.977 7 159421667.400 7        29.643 7        42.798 7
C03  36885337.098 7 192071633.555 7        38.580 7        46.356 7  36885344.859 7 148521997.177 7        29.746 7        47.585 7  36885353.336 7 156074001.058 7        31.010 7        45.605 7
C04  38556362.879 6 200773094.558 6        -1.303 6        40.189 6  38556371.141 7 155250526.755 7        -0.488 7        43.905 7  38556378.613 6 163144655.374 6        -0.943 6        41.242 6
C05  39358062.238 6 204947759.999 6        40.084 6        39.788 6  39358075.113 7 158478663.691 7        30.586 7        42.304 7  39358081.539 6 166536920.422 6        32.123 6        40.231 6
C07  36133546.484 7 188156868.036 7      -645.053 7        47.387 7  36133553.996 8 145494843.133 8      -498.867 8        50.599 8  36133559.520 8 152892913.939 8      -524.029 8        48.027 8
C08  36285450.863 7 188947862.652 7      -233.666 7        47.608 7  36285456.625 8 146106499.516 8      -180.801 8        49.220 8  36285463.293 7 153535669.540 7      -189.596 7        47.631 7
C10  35812667.141 8 186485952.052 8      -296.205 8        48.859 8  35812676.227 8 144202800.920 8      -228.633 8        49.134 8  35812681.266 7 151535172.070 7      -240.689 7        47.715 7
C13  36852017.176 8 191898121.824 8       -91.439 8        49.018 8  36852030.664 7 148387856.569 7       -70.449 7        47.585 7  36852036.344 7 155933024.721 7       -74.146 7        46.740 7
S37  36956216.820 7 194206226.753 7         2.494 7        44.030 7
> 2022 06 21 05 10 50.0000000  0 24       0.000000000000
G02  22999029.004 7 120860717.110 7      1236.184 7        45.878 7  22999040.551 7  94177237.715 7       963.172 7        46.670 7
G04  24327520.023 6 127841983.826 6       125.227 6        37.662 6  24327538.121 5  99617139.026 5        97.664 5        35.864 5
G06  20847205.957 8 109552804.198 8      -253.465 8        49.320 8  20847221.684 8  85365887.058 8      -197.355 8        50.226 8
G11  22153384.652 7 116416825.859 7      1511.770 7        45.418 7  22153399.375 8  90714477.179 8      1177.996 8        48.671 8
G12  23122309.137 6 121508567.885 6      2367.336 6        41.242 6  23122322.559 8  94682022.747 8      1845.281 8        50.226 8
G17  21131063.270 8 111044485.784 8      -837.508 8        48.265 8  21131077.008 8  86528207.368 8      -652.824 8        50.226 8
G19  20257027.906 8 106451397.633 8       108.625 8        48.836 8  20257038.824 8  82949188.513 8        84.617 8        50.226 8
G20  22540128.203 7 118449183.651 7      2909.621 7        46.683 7  22540143.914 8  92298073.928 8      2267.234 8        49.308 8
R07  20842874.402 8 111573534.799 8      -868.949 8        52.742 8  20842877.840 8  86779422.438 8      -675.721 8        48.383 8
R08  20591851.559 8 110268437.812 8      2732.098 8        52.763 8  20591859.867 8  85764373.525 8      2124.867 8        50.133 8
R12  22543989.949 6 120425945.377 6     -3685.525 6        39.498 6  22544007.137 6  93664657.279 6     -2867.125 6        37.093 6
R13  21598897.094 6 115336909.162 6     -1433.115 6        39.294 6  21598905.117 6  89706515.142 6     -1114.178 6        39.134 6
R14  23596524.680 5                      2009.121 5        30.517 5                                                                
R23  21241616.352 7 113628331.492 7      1359.328 7        45.969 7                                                                
C01  37492517.906 7 195233376.266 7        17.504 7        44.874 7  37492527.207 7 150966868.463 7        13.326 7        45.750 7  37492535.836 7 158643187.816 7        14.451 7        42.225 7
C02  37676429.551 7 196191051.507 7        36.215 7        42.533 7  37676436.348 7 151707391.544 7        27.545 7        44.816 7  37676446.215 7 159421375.818 7        29.021 7        43.048 7
C03  36885264.480 7 192071253.857 7        38.285 7        46.091 7  36885271.418 7 148521703.585 7        29.400 7        47.411 7  36885280.328 7 156073692.536 7        30.896 7        45.481 7
C04  38556364.598 6 200773106.326 6        -1.285 6        39.548 6  38556373.289 7 155250535.853 7        -0.912 7        43.284 7  38556380.609 6 163144664.928 6        -0.764 6        40.231 6
C05  39357985.363 6 204947364.028 6        39.809 6        39.188 6  39357999.207 7 158478357.516 7        30.689 7        42.483 7  39358005.582 6 166536598.689 6        32.381 6        39.971 6
C07  36134787.879 7 188163329.826 7      -646.695 7        47.554 7  36134795.211 8 145499839.789 8      -500.170 8        50.680 8  36134800.266 7 152898164.666 7      -525.510 7        47.892 7
C08  36285900.855 7 188950206.419 7      -234.313 7        47.789 7  36285907.078 8 146108311.842 8      -181.244 8        49.626 8  36285913.520 7 153537574.030 7      -190.217 7        47.848 7
C10  35813237.398 8 186488923.208 8      -297.672 8        48.573 8  35813246.309 8 144205098.411 8      -230.111 8        48.830 8  35813251.902 8 151537586.356 8      -241.682 8        48.055 8
C13  36852193.969 8 191899041.380 8       -92.008 8        49.257 8  36852207.313 7 148388567.628 7       -71.244 7        47.378 7  36852212.613 7 155933771.944 7       -75.080 7        46.518 7
S37  36956213.496 7 194206207.663 7         2.102 7        44.082 7
> 2022 06 21 05 11  0.0000000  0 24       0.000000000000
G02  22996677.219 7 120848361.679 7      1234.775 7        45.379 7  22996689.180 7  94167610.120 7       962.193 7        47.191 7
G04  24327292.004 6 127840777.826 6       117.842 6        38.554 6  24327308.516 5  99616199.310 5        91.842 5        34.858 5
G06  20847690.539 8 109555350.545 8      -255.693 8        49.493 8  20847706.262 8  85367872.234 8      -199.135 8        50.226 8
G11  22150510.434 7 116401719.756 7      1509.385 7        45.690 7  22150524.602 8  90702706.200 8      1176.080 8        48.917 8
G12  23117807.820 6 121484915.667 6      2363.057 6        40.931 6  23117821.688 8  94663592.469 8      1841.314 8        50.226 8
G17  21132660.961 8 111052881.103 8      -841.357 8        48.560 8  21132674.629 8  86534749.151 8      -655.580 8        50.226 8
G19  20256825.785 8 106450332.849 8       104.502 8        49.382 8  20256835.832 8  82948358.799 8        81.432 8        50.226 8
G20  22534594.480 7 118420104.529 7      2906.592 7        46.702 7  22534610.176 8  92275414.909 8      2264.967 8        49.817 8
R07  20844505.598 8 111582268.560 8      -877.711 8        52.392 8  20844511.184 8  86786215.357 8      -682.723 8        48.117 8
R08  20586758.301 8 110241150.244 8      2725.523 8        52.059 8  20586763.027 8  85743149.860 8      2119.996 8        49.518 8
R12  22550892.652 7 120462814.121 7     -3687.686 7        42.821 7  22550907.117 6  93693332.834 6     -2869.203 6        37.346 6
R13  21601585.629 6 115351272.363 6     -1441.096 6        38.616 6  21601593.219 6  89717686.486 6     -1120.396 6        38.491 6
R14  23596524.680 5                      2009.121 5        30.517 5                                                                
R23  21239076.633 8 113614743.379 8      1358.711 8        49.128 8                                                                
C01  37492484.277 7 195233203.118 7        17.078 7        44.831 7  37492493.828 7 150966734.585 7        13.057 7        45.443 7  37492502.363 7 158643047.148 7        13.967 7        42.117 7
C02  37676360.652 7 196190692.238 7        35.691 7        42.251 7  37676366.699 7 151707113.706 7        27.959 7        44.319 7  37676377.121 7 159421083.867 7        29.084 7        42.728 7
C03  36885191.180 7 192070873.988 7        37.859 7        46.557 7  36885198.371 7 148521409.840 7        29.268 7        47.255 7  36885207.336 7 156073383.863 7        30.490 7        45.469 7
C04  38556367.422 6 200773117.869 6        -1.223 6        39.645 6  38556376.258 7 155250544.771 7        -0.732 7        43.586 7  38556383.051 6 163144674.311 6        -0.916 6        40.822 6
C05  39357909.883 6 204946967.709 6        39.598 6        40.146 6  39357923.688 7 158478051.046 7        30.557 7        42.775 7  39357929.234 6 166536276.636 6        32.209 6        40.146 6
C07  36136031.883 8 188169805.229 8      -648.393 8        48.041 8  36136038.859 8 145504846.970 8      -501.299 8        50.748 8  36136043.719 7 152903426.452 7      -526.678 7        47.789 7
C08  36286351.773 8 188952556.445 8      -235.285 8        48.027 8  36286358.605 8 146110129.031 8      -182.100 8        49.660 8  36286364.750 7 153539483.628 7      -191.287 7        47.863 7
C10  35813810.590 8 186491908.534 8      -299.641 8        48.940 8  35813819.141 8 144207406.851 8      -231.592 8        48.504 8  35813825.012 7 151540012.172 7      -243.279 7        47.775 7
C13  36852371.543 8 191899967.563 8       -93.078 8        49.397 8  36852385.246 7 148389283.814 7       -72.061 7        47.797 7  36852390.316 7 155934524.531 7       -75.506 7        46.616 7
S37  36956209.703 7 194206188.148 7         2.002 7        43.959 7
> 2022 06 21 05 11 10.0000000  0 24       0.000000000000
G02  22994328.293 7 120836018.918 7      1234.342 7        45.314 7  22994340.172 7  94157992.410 7       961.861 7        47.059 7
G04  24327071.000 6 127839624.666 6       114.498 6        37.585 6  24327088.785 5  99615300.770 5        89.225 5        35.209 5
G06  20848178.125 8 109557915.349 8      -256.537 8        49.204 8  20848194.309 8  85369869.789 8      -199.877 8        50.226 8
G11  22147640.801 7 116386634.490 7      1508.170 7        47.127 7  22147654.766 8  90690951.489 8      1175.240 8        49.393 8
G12  23113316.238 6 121461314.331 6      2358.170 6        40.273 6  23113330.547 8  94645201.847 8      1837.857 8        50.226 8
G17  21134265.668 8 111061312.187 8      -844.096 8        48.628 8  21134279.176 8  86541318.810 8      -657.670 8        50.226 8
G19  20256630.539 8 106449309.160 8       100.943 8        48.979 8  20256640.887 8  82947561.114 8        78.658 8        50.226 8
G20  22529066.484 7 118391056.346 7      2903.990 7        46.220 7  22529082.254 8  92252779.983 8      2262.818 8        49.325 8
R07  20846151.117 8 111591088.961 8      -885.521 8        52.805 8  20846156.848 7  86793075.679 7      -688.518 7        47.692 7
R08  20581673.926 8 110213926.985 8      2719.918 8        52.720 8  20581680.227 8  85721976.260 8      2115.371 8        48.312 8
R12  22557802.086 7 120499699.290 7     -3688.787 7        42.144 7  22557812.543 6  93722021.052 6     -2868.957 6        37.956 6
R13  21604289.633 6 115365707.906 6     -1446.316 6        38.165 6  21604296.363 6  89728914.146 6     -1125.209 6        38.854 6
R14  23587752.844 5                      1993.279 5        31.864 5                                                                
R23  21236536.629 7 113601158.977 7      1358.715 7        47.067 7                                                                
C01  37492451.977 7 195233030.414 7        17.760 7        45.702 7  37492460.922 7 150966601.026 7        14.027 7        45.418 7  37492469.449 7 158642906.798 7        14.445 7        42.728 7
C02  37676291.469 7 196190333.314 7        36.549 7        42.062 7  37676298.305 7 151706836.182 7        28.207 7        44.496 7  37676307.953 7 159420792.199 7        29.719 7        42.483 7
C03  36885118.313 7 192070494.671 7        38.775 7        46.635 7  36885126.109 7 148521116.521 7        29.906 7        47.507 7  36885134.480 7 156073075.632 7        31.418 7        45.405 7
C04  38556368.965 6 200773129.858 6        -0.678 6        39.448 6  38556378.121 7 155250554.056 7        -0.465 7        44.117 7  38556385.020 6 163144684.071 6        -0.281 6        40.189 6
C05  39357833.758 6 204946571.758 6        40.279 6        39.548 6  39357847.637 7 158477744.912 7        30.688 7        43.003 7  39357853.527 6 166535954.927 6        32.609 6        40.315 6
C07  36137278.359 8 188176294.931 8      -648.900 8        48.338 8  36137284.582 8 145509865.219 8      -501.969 8        50.803 8  36137290.027 7 152908699.865 7      -527.137 7        47.892 7
C08  36286805.090 8 188954913.475 8      -235.561 8        48.034 8  36286811.277 8 146111951.619 8      -181.852 8        49.607 8  36286817.211 7 153541398.908 7      -191.297 7        47.600 7
C10  35814386.824 8 186494908.832 8      -300.248 8        49.002 8  35814394.691 8 144209726.871 8      -231.832 8        48.272 8  35814401.098 7 151542450.160 7      -243.875 7        47.935 7
C13  36852550.660 8 191900901.034 8       -92.768 8        49.289 8  36852564.398 7 148390005.647 7       -72.027 7        47.978 7  36852569.441 7 155935283.067 7       -75.594 7        46.942 7
S37  36956206.055 7 194206168.897 7         2.545 7        43.547 7
> 2022 06 21 05 11 20.0000000  0 25       0.000000000000
G02  22991982.609 7 120823688.515 7      1232.090 7        46.448 7  22991994.527 7  94148384.320 7       959.922 7        47.366 7
G04  24326861.820 6 127838524.120 6       106.660 6        37.585 6  24326879.309 6  99614443.251 6        83.105 6        36.382 6
G06  20848669.809 8 109560498.308 8      -259.434 8        48.962 8                                                                
G09  23363468.414 5 122775852.202 5      1446.953 5        31.564 5                                                                
G11  22144773.117 7 116371569.796 7      1505.098 7        45.654 7  22144788.754 8  90679212.777 8      1172.852 8        50.071 8
G12  23108835.336 6 121437763.618 6      2352.520 6        40.672 6  23108848.715 8  94626850.679 8      1833.125 8        50.226 8
G17  21135876.762 8 111069778.697 8      -848.633 8        48.542 8  21135890.082 8  86547916.096 8      -661.152 8        50.226 8
G19  20256443.398 8 106448326.234 8        96.172 8        49.057 8  20256453.699 8  82946795.197 8        75.020 8        50.226 8
G20  22523544.730 7 118362038.827 7      2899.902 7        46.283 7  22523560.383 8  92230168.994 8      2259.727 8        48.959 8
R07  20847814.492 8 111599995.682 8      -895.016 8        51.930 8  20847821.656 7  86800003.151 7      -696.172 7        46.625 7
R08  20576601.105 8 110186767.827 8      2712.537 8        52.805 8  20576606.832 8  85700852.495 8      2109.984 8        48.239 8
R12  22564706.031 6 120536600.271 6     -3691.160 6        40.858 6  22564719.211 6  93750721.675 6     -2870.719 6        38.491 6
R13  21607009.199 6 115380215.592 6     -1454.354 6        40.059 6  21607011.922 6  89740197.896 6     -1131.150 6        37.179 6
R14  23583958.508 6 125716107.092 6      1985.314 6        36.014 6  23583963.809 5  97779046.001 5      1543.682 5        33.527 5
R23  21233997.293 7 113587578.126 7      1357.521 7        45.301 7                                                                
C01  37492418.766 7 195232857.839 7        17.248 7        45.469 7  37492427.457 7 150966467.582 7        13.506 7        45.469 7  37492436.508 7 158642766.576 7        13.693 7        42.751 7
C02  37676221.879 6 196189974.394 6        35.686 6        41.626 6  37676228.207 7 151706558.663 7        27.686 7        43.869 7  37676239.082 7 159420500.562 7        28.967 7        42.458 7
C03  36885045.320 7 192070115.574 7        37.814 7        46.283 7  36885052.477 7 148520823.381 7        29.209 7        46.951 7  36885061.863 7 156072767.576 7        30.861 7        45.288 7
C04  38556370.523 6 200773141.997 6        -1.893 6        38.491 6  38556379.930 7 155250563.447 7        -1.064 7        43.795 7  38556387.316 6 163144693.943 6        -1.268 6        41.175 6
C05  39357758.547 6 204946175.820 6        39.553 6        40.231 6  39357770.781 7 158477438.760 7        30.771 7        42.751 7  39357777.402 6 166535633.224 6        31.643 6        40.315 6
C07  36138528.074 8 188182798.641 8      -651.424 8        48.718 8  36138533.547 8 145514894.299 8      -503.740 8        50.736 8  36138539.000 7 152913984.670 7      -529.197 7        47.971 7
C08  36287258.391 8 188957277.138 8      -236.893 8        48.013 8  36287264.902 8 146113779.354 8      -183.369 8        49.558 8  36287271.316 7 153543319.578 7      -192.693 7        47.707 7
C10  35814966.473 8 186497923.728 8      -302.361 8        49.204 8  35814973.414 8 144212058.185 8      -233.857 8        48.205 8  35814979.969 7 151544900.008 7      -245.623 7        47.841 7
C13  36852731.051 8 191901841.433 8       -94.471 8        49.418 8  36852744.645 7 148390732.826 7       -73.564 7        47.760 7  36852749.797 7 155936047.205 7       -76.775 7        46.693 7
S37  36956202.355 7 194206149.620 7         1.621 7        43.468 7
> 2022 06 21 05 11 30.0000000  0 24       0.000000000000
G02  22989638.664 7 120811370.726 7      1231.508 7        45.855 7  22989651.441 7  94138786.063 7       959.600 7        47.898 7
G04  24326663.539 6 127837476.368 6       101.742 6        39.188 6  24326679.207 5  99613626.805 5        79.229 5        35.921 5
G06  20849164.234 8 109563099.560 8      -261.129 8        48.305 8  20849180.406 8  85373908.424 8      -203.291 8        50.226 8
G11  22141909.891 7 116356525.845 7      1503.227 7        44.974 7  22141925.586 8  90667490.263 8      1171.318 8        49.735 8
G12  23104362.039 6 121414263.919 6      2347.133 6        39.134 6  23104376.793 8  94608539.210 8      1829.172 8        50.226 8
G17  21137494.746 8 111078280.960 8      -852.105 8        48.172 8  21137507.668 8  86554541.227 8      -663.623 8        50.226 8
G19  20256264.574 8 106447384.407 8        92.094 8        48.923 8  20256274.906 8  82946061.300 8        71.689 8        50.226 8
G20  22518028.438 7 118333052.313 7      2897.348 7        46.080 7  22518045.008 8  92207582.138 8      2257.590 8        49.327 8
R07  20849497.656 8 111608989.309 8      -903.613 8        51.601 8  20849499.090 7  86806998.160 7      -702.768 7        46.796 7
R08  20571539.617 8 110159673.243 8      2706.186 8        51.668 8  20571546.781 7  85679778.952 7      2104.656 7        47.855 7
R12  22571617.734 6 120573517.212 6     -3692.881 6        40.858 6  22571628.906 6  93779434.739 6     -2872.041 6        37.263 6
R13  21609737.957 6 115394795.483 6     -1461.994 6        38.911 6  21609745.117 6  89751537.781 6     -1136.945 6        37.346 6
R14  23580251.711 5 125696286.864 5      1979.844 5        33.113 5  23580278.188 5                      1540.484 5        31.242 5
R23  21231460.984 8 113574000.850 8      1357.576 8        49.188 8                                                                
C01  37492385.289 7 195232685.627 7        17.234 7        45.443 7  37492394.660 7 150966334.419 7        13.482 7        45.262 7  37492403.598 7 158642626.628 7        13.988 7        42.407 7
C02  37676153.449 7 196189615.764 7        35.965 7        42.198 7  37676160.105 7 151706281.332 7        27.818 7        44.219 7  37676170.355 7 159420209.129 7        29.203 7        42.891 7
C03  36884972.996 7 192069736.962 7        37.977 7        46.508 7  36884979.898 7 148520530.631 7        29.146 7        47.229 7  36884989.008 7 156072459.926 7        30.609 7        45.353 7
C04  38556373.176 6 200773154.527 6        -1.008 6        38.911 6  38556383.156 7 155250573.122 7        -0.873 7        44.065 7  38556389.984 6 163144704.118 6        -0.836 6        41.175 6
C05  39357681.789 6 204945780.157 6        40.359 6        39.788 6  39357695.488 7 158477132.834 7        30.357 7        43.468 7  39357701.039 6 166535311.719 6        32.445 6        39.645 6
C07  36139779.457 8 188189316.624 8      -652.316 8        48.434 8  36139785.180 8 145519934.410 8      -504.877 8        50.587 8  36139790.805 7 152919281.050 7      -529.996 7        47.906 7
C08  36287713.180 7 188959647.761 7      -236.887 7        47.554 7  36287720.227 8 146115612.475 8      -183.568 8        49.372 8  36287726.707 7 153545245.902 7      -192.828 7        47.855 7
C10  35815548.008 8 186500953.480 8      -303.879 8        49.493 8  35815555.520 8 144214400.980 8      -235.014 8        48.265 8  35815561.879 7 151547361.929 7      -246.422 7        47.913 7
C13  36852913.000 8 191902789.037 8       -95.070 8        49.528 8  36852926.484 7 148391465.553 7       -73.314 7        47.767 7  36852931.652 7 155936817.218 7       -77.066 7        46.498 7
S37  36956199.109 7 194206130.554 7         2.133 7        43.488 7
> 2022 06 21 05 11 40.0000000  0 24       0.000000000000
G02  22987296.324 7 120799065.159 7      1229.623 7        45.379 7  22987309.617 8  94129197.364 8       958.170 8        48.103 8
G04  24326473.016 6 127836481.030 6        96.986 6        38.364 6  24326490.086 6  99612851.288 6        75.592 6        36.034 6
G06  20849663.273 8 109565718.714 8      -262.740 8        49.309 8  20849679.086 8  85375951.327 8      -204.662 8        50.226 8
G11  22139052.277 7 116341502.289 7      1501.205 7        47.084 7  22139066.172 8  90655783.587 8      1169.830 8        49.529 8
G12  23099901.512 6 121390814.862 6      2342.670 6        40.822 6  23099915.074 8  94590267.232 8      1825.260 8        50.226 8
G17  21139119.059 8 111086818.515 8      -855.533 8        48.712 8  21139132.406 8  86561193.876 8      -666.869 8        50.226 8
G19  20256092.652 8 106446483.348 8        88.119 8        49.273 8  20256103.629 8  82945359.168 8        68.717 8        50.226 8
G20  22512518.473 7 118304096.494 7      2893.803 7        46.478 7  22512534.684 8  92185019.220 8      2254.928 8        49.075 8
R07  20851190.156 8 111618068.978 8      -912.188 8        52.617 8  20851196.031 7  86814060.165 7      -709.484 7        47.023 7
R08  20566493.344 8 110132643.055 8      2699.639 8        52.106 8  20566499.645 7  85658755.474 7      2099.580 7        47.804 7
R12  22578532.328 6 120610449.649 6     -3694.943 6        40.710 6  22578540.637 5  93808159.768 5     -2871.270 5        35.418 5
R13  21612479.918 6 115409447.005 6     -1469.037 6        39.788 6  21612489.656 6  89762933.385 6     -1142.482 6        37.885 6
R14  23579823.254 5                      1977.877 5        30.103 5  23579766.188 5                      1540.484 5        31.242 5
R23  21228922.559 8 113560427.089 8      1357.439 8        49.741 8                                                                
C01  37492351.809 7 195232513.396 7        16.951 7        45.506 7  37492361.754 7 150966201.238 7        13.314 7        45.568 7  37492370.359 7 158642486.676 7        14.076 7        42.607 7
C02  37676084.629 7 196189256.978 7        36.092 7        42.171 7  37676091.137 7 151706003.909 7        27.924 7        44.202 7  37676101.547 7 159419917.607 7        29.135 7        42.558 7
C03  36884900.379 7 192069358.414 7        37.713 7        47.023 7  36884907.500 7 148520237.884 7        29.369 7        47.419 7  36884916.313 7 156072152.326 7        30.639 7        45.314 7
C04  38556375.148 6 200773167.061 6        -1.877 6        39.079 6  38556385.953 7 155250582.787 7        -0.904 7        43.527 7  38556392.305 6 163144714.287 6        -1.100 6        41.107 6
C05  39357606.418 6 204945384.412 6        39.334 6        40.231 6  39357618.832 7 158476826.827 7        30.268 7        42.775 7  39357625.477 6 166534990.148 6        31.889 6        40.273 6
C07  36141033.805 8 188195848.491 8      -653.850 8        48.441 8  36141039.457 8 145524985.257 8      -505.572 8        50.537 8  36141045.258 7 152924588.723 7      -531.217 7        47.928 7
C08  36288169.074 7 188962024.863 7      -238.361 7        47.263 7  36288176.910 8 146117450.589 8      -184.049 8        49.468 8  36288183.277 7 153547177.470 7      -193.189 7        47.789 7
C10  35816132.398 8 186503997.774 8      -304.768 8        49.304 8  35816141.090 8 144216755.037 8      -236.061 8        48.646 8  35816146.586 7 151549835.682 7      -247.857 7        47.848 7
C13  36853096.090 8 191903743.291 8       -95.744 8        49.335 8  36853109.398 7 148392203.461 7       -74.244 7        47.101 7  36853115.012 7 155937592.647 7       -78.014 7        46.731 7
S37  36956195.180 7 194206111.290 7         1.889 7        43.527 7
> 2022 06 21 05 11 50.0000000  0 24       0.000000000000
G02  22984957.383 7 120786772.050 7      1228.533 7        46.438 7  22984969.430 8  94119618.314 8       957.357 8        48.046 8
G04  24326294.332 6 127835538.570 6        91.658 6        38.736 6  24326310.629 5  99612116.898 5        71.439 5        35.374 5
G06  20850165.277 8 109568356.007 8      -264.787 8        49.493 8  20850181.230 8  85378006.358 8      -206.295 8        50.226 8
G11  22136196.770 7 116326499.310 7      1499.275 7        47.005 7  22136211.340 8  90644092.985 8      1168.275 8        49.631 8
G12  23095448.098 6 121367416.834 6      2337.186 6        41.175 6  23095462.750 8  94572035.026 8      1821.225 8        50.226 8
G17  21140750.773 8 111095391.806 8      -859.301 8        49.096 8  21140764.250 8  86567874.354 8      -669.480 8        50.226 8
G19  20255928.996 8 106445623.366 8        83.982 8        49.128 8  20255939.883 8  82944689.055 8        65.424 8        50.226 8
G20  22507014.906 7 118275171.623 7      2890.779 7        47.669 7  22507030.289 8  92162480.400 8      2252.533 8        49.120 8
R07  20852902.820 8 111627235.249 8      -920.916 8        50.630 8  20852909.695 8  86821189.497 8      -716.139 8        48.083 8
R08  20561458.063 8 110105677.576 8      2693.141 8        52.675 8  20561464.938 8  85637782.326 8      2094.684 8        49.215 8
R12  22585448.750 6 120647397.641 6     -3696.533 6        41.502 6  22585463.074 6  93836896.954 6     -2874.084 6        36.824 6
R13  21615239.176 6 115424170.347 6     -1475.354 6        40.231 6  21615243.902 6  89774384.865 6     -1147.992 6        37.179 6
R14  23573827.211 5                      1967.268 5        30.103 5  23573878.188 5                      1540.484 5        31.242 5
R23  21226385.816 7 113546856.841 7      1357.012 7        47.554 7                                                                
C01  37492318.828 7 195232341.438 7        17.029 7        45.593 7  37492328.703 7 150966068.242 7        13.148 7        45.678 7  37492337.504 7 158642346.927 7        13.885 7        43.135 7
C02  37676015.660 7 196188898.334 7        36.014 7        42.062 7  37676021.957 7 151705726.598 7        27.328 7        44.352 7  37676032.758 7 159419626.182 7        29.021 7        42.558 7
C03  36884827.617 7 192068980.224 7        37.674 7        47.023 7  36884834.488 7 148519945.455 7        28.813 7        47.255 7  36884843.695 7 156071845.016 7        30.721 7        45.168 7
C04  38556377.441 6 200773179.858 6        -1.877 6        38.795 6  38556387.672 7 155250592.729 7        -0.992 7        44.219 7  38556394.512 6 163144724.704 6        -1.350 6        41.107 6
C05  39357530.043 6 204944988.843 6        39.451 6        40.556 6  39357542.992 7 158476520.934 7        30.570 7        43.135 7  39357549.668 6 166534668.697 6        32.010 6        40.437 6
C07  36142291.082 8 188202394.504 8      -655.529 8        48.383 8  36142296.805 8 145530047.030 8      -506.793 8        50.525 8  36142302.523 8 152929907.897 8      -532.777 8        48.131 8
C08  36288627.398 7 188964408.644 7      -238.635 7        47.288 7  36288634.695 8 146119293.881 8      -184.449 8        49.741 8  36288641.234 8 153549114.501 8      -194.008 8        48.165 8
C10  35816719.543 8 186507056.892 8      -306.643 8        48.640 8  35816728.770 8 144219120.499 8      -237.262 8        49.002 8  35816734.188 8 151552321.444 8      -249.164 8        48.185 8
C13  36853280.465 8 191904704.615 8       -96.525 8        49.209 8  36853294.094 7 148392946.815 7       -74.547 7        47.491 7  36853299.805 7 155938373.789 7       -78.459 7        46.987 7
S37  36956191.352 7 194206092.154 7         1.971 7        43.887 7
> 2022 06 21 05 12  0.0000000  0 24       0.000000000000
G02  22982620.813 7 120774490.946 7      1227.668 7        46.304 7  22982632.418 7  94110048.645 7       956.660 7        47.872 7
G04  24326124.461 6 127834648.668 6        86.535 6        38.736 6  24326142.293 6  99611423.480 6        67.559 6        36.006 6
G06  20850670.230 8 109571011.089 8      -266.082 8        49.356 8  20850686.441 8  85380076.252 8      -207.129 8        50.226 8
G11  22133344.785 7 116311516.621 7      1497.531 7        45.392 7  22133360.586 8  90632418.167 8      1167.031 8        49.511 8
G12  23091005.219 6 121344069.604 6      2332.414 6        41.175 6  23091020.156 8  94553842.382 8      1817.305 8        50.226 8
G17  21142388.441 8 111104000.463 8      -862.273 8        48.736 8  21142401.977 8  86574582.388 8      -671.699 8        50.226 8
G19  20255773.434 8 106444804.195 8        80.402 8        49.894 8  20255784.066 8  82944050.747 8        62.695 8        50.226 8
G20  22501516.297 7 118246277.478 7      2888.021 7        47.162 7  22501532.094 8  92139965.521 8      2250.391 8        49.230 8
R07  20854633.188 8 111636487.479 8      -929.113 8        52.109 8  20854638.488 8  86828385.648 8      -722.525 8        48.265 8
R08  20556434.188 8 110078776.643 8      2687.344 8        53.298 8  20556439.914 8  85616859.404 8      2090.055 8        48.784 8
R12  22592367.121 6 120684360.633 6     -3696.193 6        38.491 6  22592380.730 5  93865645.736 5     -2873.947 5        35.544 5
R13  21618007.832 6 115438965.192 6     -1481.986 6        39.597 6  21618014.707 6  89785891.891 6     -1154.066 6        37.956 6
R14  23573827.211 5                      1967.268 5        30.103 5  23573878.188 5                      1540.484 5        31.242 5
R23  21223849.449 7 113533289.796 7      1356.881 7        47.427 7                                                                
C01  37492286.113 7 195232169.340 7        17.635 7        45.494 7  37492295.379 7 150965935.196 7        13.414 7        45.208 7  37492304.449 7 158642207.129 7        14.150 7        43.003 7
C02  37675947.133 7 196188539.517 7        35.740 7        42.171 7  37675953.289 7 151705449.115 7        27.789 7        44.449 7  37675963.539 7 159419334.606 7        29.033 7        42.798 7
C03  36884754.371 7 192068602.077 7        38.201 7        46.058 7  36884761.777 7 148519653.040 7        29.410 7        46.969 7  36884771.273 7 156071537.716 7        30.928 7        45.366 7
C04  38556380.391 6 200773192.604 6        -0.939 6        38.616 6  38556389.977 7 155250602.587 7        -0.551 7        43.923 7  38556397.098 6 163144735.078 6        -1.006 6        40.748 6
C05  39357454.043 6 204944593.090 6        39.139 6        40.397 6  39357467.277 7 158476214.915 7        30.582 7        42.913 7  39357473.469 6 166534347.100 6        32.471 6        40.356 6
C07  36143550.773 8 188208954.296 8      -656.193 8        48.048 8  36143556.316 8 145535119.493 8      -507.426 8        50.544 8  36143562.207 7 152935238.257 7      -533.232 7        47.956 7
C08  36289086.598 7 188966798.857 7      -239.201 7        47.585 7  36289094.039 8 146121142.155 8      -184.965 8        49.612 8  36289100.285 8 153551056.728 8      -193.955 8        48.076 8
C10  35817309.707 8 186510130.407 8      -307.756 8        48.259 8  35817318.934 8 144221497.142 8      -237.621 8        48.706 8  35817324.363 8 151554818.931 8      -250.049 8        48.013 8
C13  36853467.074 8 191905672.579 8       -96.545 8        49.392 8  36853480.668 7 148393695.336 7       -75.219 7        47.841 7  36853485.996 7 155939160.350 7       -78.604 7        47.419 7
S37  36956187.613 7 194206072.771 7         2.629 7        43.720 7
> 2022 06 21 05 12 10.0000000  0 24       0.000000000000
G02  22980284.914 7 120762222.188 7      1226.678 7        44.917 7  22980298.691 7  94100488.612 7       955.773 7        47.760 7
G04  24325965.133 6 127833811.653 6        81.248 6        38.165 6  24325983.105 6  99610771.250 6        63.410 6        36.632 6
G06  20851178.711 8 109573684.305 8      -268.244 8        49.156 8  20851194.938 8  85382157.282 8      -208.973 8        50.226 8
G11  22130498.336 7 116296554.535 7      1495.037 7        46.002 7  22130513.289 8  90620759.417 8      1164.934 8        49.671 8
G12  23086572.590 6 121320773.582 6      2327.283 6        41.242 6  23086587.559 8  94535689.678 8      1813.080 8        50.226 8
G17  21144034.215 8 111112644.915 8      -866.311 8        48.830 8  21144047.191 8  86581318.329 8      -674.969 8        50.226 8
G19  20255625.551 8 106444026.286 8        75.857 8        49.498 8  20255635.754 8  82943444.573 8        59.152 8        50.226 8
G20  22496023.359 7 118217414.527 7      2884.295 7        46.178 7  22496039.285 8  92117474.972 8      2247.396 8        48.679 8
R07  20856378.688 8 111645826.062 8      -938.061 8        51.355 8  20856381.984 8  86835649.010 8      -729.666 8        48.807 8
R08  20551423.723 9 110051940.584 9      2680.527 9        54.051 9  20551428.590 8  85595986.930 8      2084.711 8        48.585 8
R12  22599290.602 6 120721338.955 6     -3699.301 6        38.027 6  22599301.773 5  93894406.469 5     -2877.592 5        35.666 5
R13  21620793.480 6 115453831.506 6     -1489.721 6        40.189 6  21620801.789 6  89797454.533 6     -1159.039 6        37.585 6
R14  23565612.430 5 125617975.891 5      1950.672 5        32.144 5  23565686.188 5                      1540.484 5        31.242 5
R23  21221312.887 8 113519726.640 8      1356.293 8        49.257 8                                                                
C01  37492253.277 7 195231997.593 7        17.078 7        45.519 7  37492261.863 7 150965802.377 7        13.451 7        44.816 7  37492271.484 7 158642067.530 7        13.510 7        43.113 7
C02  37675877.918 6 196188180.835 6        36.004 6        41.835 6  37675884.715 7 151705171.761 7        27.787 7        44.368 7  37675894.844 7 159419043.146 7        29.154 7        42.656 7
C03  36884682.328 7 192068224.324 7        37.664 7        46.124 7  36884689.410 7 148519360.930 7        29.369 7        46.906 7  36884698.426 7 156071230.784 7        30.463 7        45.195 7
C04  38556382.719 6 200773205.680 6        -1.164 6        38.232 6  38556393.094 7 155250612.694 7        -1.197 7        44.528 7  38556399.688 6 163144745.713 6        -1.119 6        40.931 6
C05  39357378.531 6 204944197.519 6        39.285 6        40.634 6  39357390.656 7 158475909.057 7        30.209 7        42.458 7  39357396.988 6 166534025.685 6        32.045 6        40.103 6
C07  36144812.953 7 188215528.282 7      -658.176 7        47.848 7  36144818.930 8 145540202.904 8      -508.971 8        50.290 8  36144824.652 7 152940580.145 7      -534.654 7        47.906 7
C08  36289547.105 7 188969195.691 7      -240.168 7        47.631 7  36289554.367 8 146122995.536 8      -185.631 8        50.002 8  36289560.395 8 153553004.354 8      -194.889 8        48.006 8
C10  35817903.145 8 186513218.737 8      -309.582 8        48.597 8  35817911.695 8 144223885.229 8      -239.283 8        48.603 8  35817917.355 8 151557328.453 8      -251.607 8        48.076 8
C13  36853653.918 8 191906647.632 8       -97.941 8        48.962 8  36853668.691 7 148394449.294 7       -75.709 7        47.913 7  36853673.578 7 155939952.650 7       -79.303 7        47.119 7
S37  36956183.395 7 194206053.536 7         1.971 7        43.605 7
> 2022 06 21 05 12 20.0000000  0 24       0.000000000000
G02  22977953.477 7 120749965.729 7      1225.207 7        46.188 7  22977966.742 7  94090938.133 7       954.863 7        47.690 7
G04  24325816.137 6 127833027.475 6        75.539 6        39.188 6  24325833.977 6  99610160.227 6        58.848 6        37.366 6
G06  20851691.656 8 109576375.410 8      -270.105 8        49.572 8  20851706.980 8  85384247.248 8      -210.508 8        50.226 8
G11  22127655.059 7 116281612.868 7      1492.883 7        46.587 7  22127670.211 8  90609116.563 8      1163.242 8        48.844 8
G12  23082148.578 6 121297528.720 6      2322.160 6        40.556 6  23082164.148 8  94517576.788 8      1808.984 8        50.226 8
G17  21145685.742 8 111121324.957 8      -869.734 8        48.535 8  21145699.508 8  86588081.996 8      -677.754 8        50.226 8
G19  20255485.141 8 106443289.605 8        71.398 8        49.708 8  20255495.484 8  82942870.535 8        55.586 8        50.226 8
G20  22490536.316 7 118188582.586 7      2881.730 7        46.002 7  22490552.758 8  92095008.561 8      2245.410 8        48.518 8
R07  20858138.820 8 111655250.889 8      -946.830 8        51.913 8  20858142.402 8  86842979.418 8      -736.256 8        48.848 8
R08  20546424.313 8 110025169.559 8      2673.512 8        53.480 8  20546428.750 8  85575165.011 8      2079.721 8        48.466 8
R12  22606218.828 6 120758332.078 6     -3699.799 6        37.427 6  22606226.992 5  93923178.759 5     -2878.314 5        34.253 5
R13  21623592.906 6 115468769.164 6     -1497.564 6        38.491 6  21623597.059 6  89809072.675 6     -1164.467 6        37.507 6
R14  23563046.824 5                      1946.863 5        30.103 5  23563126.188 5                      1540.484 5        31.242 5
R23  21218780.645 8 113506167.002 8      1356.000 8        48.428 8                                                                
C01  37492220.324 7 195231825.938 7        17.387 7        45.702 7  37492228.910 7 150965669.657 7        13.297 7        45.222 7  37492238.434 7 158641928.072 7        13.799 7        43.178 7
C02  37675808.871 6 196187822.155 6        35.941 6        41.626 6  37675815.133 7 151704894.419 7        27.379 7        43.923 7  37675826.121 7 159418751.653 7        28.936 7        43.113 7
C03  36884610.457 7 192067846.808 7        37.855 7        46.852 7  36884617.148 7 148519069.016 7        29.215 7        47.722 7  36884626.133 7 156070924.011 7        30.557 7        45.726 7
C04  38556386.578 6 200773218.918 6        -1.480 6        38.298 6  38556395.379 7 155250622.930 7        -0.941 7        43.701 7  38556402.211 6 163144756.435 6        -0.674 6        40.595 6
C05  39357302.578 6 204943802.029 6        39.418 6        40.015 6  39357314.992 7 158475603.223 7        30.797 7        42.751 7  39357321.270 6 166533704.328 6        32.354 6        40.356 6
C07  36146078.133 7 188222116.278 7      -659.488 7        47.804 7  36146084.324 8 145545297.157 8      -510.082 8        50.634 8  36146089.875 8 152945933.430 8      -535.674 8        48.144 8
C08  36290008.934 7 188971599.156 7      -240.484 7        47.662 7  36290016.195 8 146124854.051 8      -186.234 8        49.989 8  36290021.840 7 153554957.382 7      -195.576 7        47.906 7
C10  35818499.191 8 186516321.692 8      -311.207 8        48.819 8  35818507.492 8 144226284.619 8      -240.277 8        48.658 8  35818513.230 8 151559849.864 8      -252.979 8        48.178 8
C13  36853842.941 8 191907629.521 8       -98.707 8        49.002 8  36853857.141 7 148395208.539 7       -76.234 7        47.935 7  36853862.551 7 155940750.512 7       -79.893 7        47.593 7
S37  36956179.922 7 194206034.301 7         1.965 7        43.605 7
> 2022 06 21 05 12 30.0000000  0 24       0.000000000000
G02  22975623.313 7 120737721.648 7      1223.619 7        46.124 7  22975635.617 7  94081397.335 7       953.473 7        47.673 7
G04  24325676.133 6 127832296.304 6        69.264 6        38.364 6  24325694.379 6  99609590.530 6        53.941 6        37.814 6
G06  20852206.871 8 109579084.614 8      -272.201 8        49.503 8  20852222.613 8  85386365.308 8      -212.152 8        50.226 8
G11  22124815.199 7 116266691.786 7      1490.885 7        45.100 7  22124830.840 8  90597489.781 8      1161.695 8        48.817 8
G12  23077736.855 7 121274335.304 7      2316.510 7        42.821 7  23077750.191 8  94499504.009 8      1804.859 8        50.226 8
G17  21147344.406 8 111130040.901 8      -873.861 8        48.473 8  21147358.246 8  86594873.623 8      -680.648 8        50.226 8
G19  20255352.867 8 106442594.396 8        67.428 8        49.636 8  20255363.297 8  82942328.802 8        52.555 8        50.226 8
G20  22485056.125 7 118159781.996 7      2878.404 7        45.366 7  22485071.965 7  92072566.566 7      2242.945 7        47.963 7
R07  20859915.703 8 111664762.110 8      -955.816 8        52.742 8  20859920.719 8  86850377.041 8      -743.344 8        49.013 8
R08  20541437.066 8 109998463.911 8      2666.891 8        52.511 8  20541440.934 8  85554393.978 8      2074.453 8        48.529 8
R12  22613143.035 6 120795340.209 6     -3702.428 6        38.968 6  22613152.633 5  93951962.749 5     -2879.605 5        35.785 5
R13  21626400.914 6 115483778.364 6     -1505.270 6        37.885 6  21626407.504 6  89820746.456 6     -1170.447 6        37.179 6
R14  23558241.191 5                      1936.531 5        35.666 5  23558262.188 5                      1540.484 5        31.242 5
R23  21216244.957 7 113492610.902 7      1354.826 7        46.842 7                                                                
C01  37492186.930 7 195231654.649 7        16.291 7        45.031 7  37492196.086 7 150965537.190 7        12.916 7        45.072 7  37492205.609 7 158641788.874 7        13.379 7        42.891 7
C02  37675740.813 7 196187463.726 7        35.275 7        42.533 7  37675746.535 7 151704617.241 7        27.467 7        44.082 7  37675757.188 7 159418460.400 7        28.555 7        42.868 7
C03  36884537.816 7 192067469.695 7        37.482 7        46.645 7  36884544.723 7 148518777.420 7        28.932 7        47.187 7  36884553.629 7 156070617.586 7        30.430 7        45.248 7
C04  38556388.883 6 200773232.522 6        -1.951 6        38.968 6  38556397.789 7 155250633.435 7        -1.479 7        43.701 7  38556405.137 6 163144767.490 6        -1.387 6        41.175 6
C05  39357227.328 6 204943406.737 6        39.318 6        40.356 6  39357238.813 7 158475297.580 7        30.162 7        42.656 7  39357245.145 6 166533383.133 6        31.758 6        39.788 6
C07  36147345.621 7 188228718.484 7      -661.561 7        47.834 7  36147351.918 8 145550402.384 8      -511.107 8        50.413 8  36147357.770 7 152951298.261 7      -537.246 7        47.515 7
C08  36290472.172 8 188974009.297 8      -241.502 8        48.006 8  36290478.684 8 146126717.721 8      -186.752 8        49.816 8  36290484.590 7 153556915.813 7      -196.289 7        47.949 7
C10  35819098.477 8 186519439.511 8      -312.830 8        49.199 8  35819105.883 8 144228695.527 8      -241.830 8        48.491 8  35819111.918 7 151562383.337 7      -253.887 7        47.855 7
C13  36854032.980 8 191908618.504 8       -99.451 8        49.626 8  36854047.004 8 148395973.290 8       -76.967 8        48.298 8  36854052.477 7 155941554.149 7       -80.840 7        47.213 7
S37  36956176.574 7 194206015.228 7         1.432 7        43.720 7
> 2022 06 21 05 12 40.0000000  0 24       0.000000000000
G02  22973295.676 7 120725489.814 7      1222.523 7        46.014 7  22973307.555 7  94071866.045 7       952.650 7        47.462 7
G04  24325548.254 6 127831618.009 6        64.924 6        39.294 6  24325563.891 6  99609062.005 6        50.695 6        37.905 6
G06  20852725.195 8 109581811.724 8      -273.533 8        48.742 8  20852741.621 8  85388491.331 8      -213.035 8        50.226 8
G11  22121979.875 7 116251791.209 7      1489.145 7        45.314 7  22121995.516 8  90585878.952 8      1160.404 8        48.972 8
G12  23073331.527 6 121251193.296 6      2311.723 6        40.967 6  23073346.395 8  94481471.242 8      1801.518 8        50.226 8
G17  21149009.609 8 111138792.611 8      -876.932 8        48.473 8  21149023.348 8  86601693.135 8      -683.406 8        50.226 8
G19  20255228.848 8 106441940.457 8        63.068 8        49.412 8  20255239.406 8  82941819.224 8        49.211 8        50.226 8
G20  22479582.043 7 118131012.610 7      2875.219 7        45.866 7  22479597.566 7  92050148.923 7      2240.502 7        47.863 7
R07  20861707.293 8 111674359.546 8      -964.184 8        52.546 8  20861713.164 8  86857841.714 8      -749.754 8        48.212 8
R08  20536462.660 8 109971823.601 8      2660.711 8        52.374 8  20536467.531 8  85533673.756 8      2069.369 8        48.466 8
R12  22620074.215 5 120832362.915 5     -3702.277 5        35.418 5  22620088.250 5  93980758.042 5     -2879.533 5        33.113 5
R13  21629225.633 6 115498858.613 6     -1512.229 6        37.005 6  21629231.793 6  89832475.497 6     -1174.945 6        36.124 6
R14  23554573.777 5 125559345.067 5      1929.104 5        35.666 5  23554678.188 5                      1540.484 5        31.242 5
R23  21213711.656 8 113479058.417 8      1355.189 8        49.402 8                                                                
C01  37492154.918 7 195231483.551 7        16.992 7        45.154 7  37492163.719 7 150965404.871 7        13.033 7        45.086 7  37492172.598 7 158641649.840 7        13.684 7        42.751 7
C02  37675671.418 6 196187105.365 6        35.898 6        41.564 6  37675677.965 7 151704340.129 7        27.955 7        43.507 7  37675688.340 7 159418169.193 7        29.172 7        42.483 7
C03  36884465.063 7 192067092.927 7        37.656 7        46.263 7  36884472.074 7 148518486.063 7        29.166 7        47.403 7  36884481.281 7 156070311.407 7        30.734 7        45.208 7
C04  38556391.070 6 200773246.326 6        -1.523 6        38.428 6  38556400.766 7 155250644.102 7        -1.068 7        43.814 7  38556407.707 6 163144778.692 6        -0.887 6        41.072 6
C05  39357150.352 6 204943011.616 6        39.473 6        39.834 6  39357163.516 7 158474992.050 7        30.924 7        42.656 7  39357169.227 6 166533062.055 6        31.926 6        39.834 6
C07  36148616.570 7 188235334.814 7      -662.520 7        47.685 7  36148622.832 8 145555518.545 8      -512.104 8        50.630 8  36148628.176 7 152956674.571 7      -538.289 7        47.522 7
C08  36290936.332 7 188976426.058 7      -242.207 7        47.870 7  36290942.809 8 146128586.515 8      -186.986 8        50.172 8  36290948.695 7 153558879.638 7      -196.688 7        47.722 7
C10  35819699.684 8 186522572.105 8      -314.082 8        48.905 8  35819707.695 8 144231117.846 8      -242.670 8        48.724 8  35819713.633 7 151564928.825 7      -254.813 7        47.841 7
C13  36854224.586 8 191909614.279 8       -99.863 8        49.616 8  36854238.145 8 148396743.273 8       -77.260 8        48.232 8  36854243.746 7 155942363.285 7       -81.180 7        47.313 7
S37  36956173.754 7 194205996.187 7         2.033 7        43.644 7
> 2022 06 21 05 12 50.0000000  0 24       0.000000000000
G02  22970970.438 7 120713270.166 7      1221.482 7        45.556 7  22970982.398 7  94062344.244 7       951.744 7        47.619 7
G04  24325428.488 6 127830992.761 6        61.229 6        37.662 6  24325445.129 6  99608574.835 6        47.799 6        36.981 6
G06  20853247.766 8 109584556.786 8      -275.217 8        48.700 8  20853263.234 8  85390626.338 8      -214.564 8        50.226 8
G11  22119149.234 7 116236911.100 7      1486.932 7        47.049 7  22119163.973 8  90574284.085 8      1158.619 8        49.536 8
G12  23068939.465 7 121228102.898 7      2306.561 7        42.936 7  23068951.984 8  94463478.742 8      1797.371 8        50.226 8
G17  21150681.500 8 111147580.172 8      -880.549 8        48.165 8  21150695.180 8  86608540.586 8      -686.205 8        50.226 8
G19  20255112.086 8 106441327.769 8        58.807 8        49.134 8  20255122.762 8  82941341.812 8        45.787 8        50.226 8
G20  22474113.645 7 118102274.552 7      2872.049 7        46.263 7  22474128.266 7  92027755.675 7      2237.938 7        47.535 7
R07  20863513.875 8 111684043.152 8      -972.627 8        51.134 8  20863521.898 8  86865373.440 8      -756.773 8        48.083 8
R08  20531498.672 8 109945248.728 8      2654.143 8        52.286 8  20531503.688 8  85513004.422 8      2064.381 8        48.390 8
R12  22627007.789 6 120869400.180 6     -3703.963 6        37.585 6  22627020.391 5  94009564.614 5     -2880.967 5        33.720 5
R13  21632063.348 6 115514010.097 6     -1519.404 6        38.854 6  21632069.793 5  89844259.992 5     -1181.689 5        35.017 5
R14  23550955.883 5 125540077.893 5      1925.035 5        30.895 5  23550838.188 5                      1540.484 5        31.242 5
R23  21211178.887 8 113465509.841 8      1354.480 8        50.172 8                                                                
C01  37492121.117 7 195231312.702 7        16.910 7        44.651 7  37492130.668 7 150965272.758 7        13.301 7        45.141 7  37492139.719 7 158641510.986 7        13.930 7        42.632 7
C02  37675601.805 6 196186747.165 6        35.855 6        41.309 6  37675609.281 7 151704063.141 7        27.578 7        44.303 7  37675619.535 7 159417878.142 7        29.047 7        42.533 7
C03  36884392.840 7 192066716.464 7        37.789 7        46.528 7  36884400.457 7 148518194.971 7        28.945 7        47.826 7  36884409.000 7 156070005.519 7        30.629 7        45.469 7
C04  38556393.648 6 200773260.358 6        -1.234 6        38.298 6  38556403.703 7 155250654.972 7        -1.270 7        44.065 7  38556410.469 6 163144790.127 6        -1.266 6        41.502 6
C05  39357073.941 6 204942616.607 6        39.762 6        39.397 6  39357087.570 7 158474686.645 7        30.508 7        42.356 7  39357093.324 6 166532741.089 6        32.055 6        40.103 6
C07  36149889.949 7 188241965.294 7      -664.008 7        47.685 7  36149896.242 8 145560645.650 8      -513.301 8        50.725 8  36149901.379 7 152962062.376 7      -539.449 7        47.499 7
C08  36291401.277 7 188978849.335 7      -242.465 7        47.585 7  36291408.035 8 146130460.363 8      -187.656 8        49.866 8  36291414.047 7 153560848.768 7      -197.301 7        47.892 7
C10  35820304.070 8 186525719.497 8      -315.648 8        48.754 8  35820312.547 8 144233551.610 8      -244.141 8        49.161 8  35820318.094 7 151567486.333 7      -256.441 7        47.841 7
C13  36854417.227 8 191910616.946 8      -100.609 8        49.392 8  36854430.426 8 148397518.607 8       -78.047 8        48.138 8  36854436.238 7 155943178.037 7       -81.656 7        47.419 7
S37  36956169.465 7 194205977.244 7         1.854 7        43.777 7
> 2022 06 21 05 13  0.0000000  0 24       0.000000000000
G02  22968647.301 7 120701062.271 7      1220.326 7        45.353 7  22968659.250 7  94052831.638 7       950.850 7        46.770 7
G04  24325319.414 6 127830420.212 6        54.994 6        38.364 6  24325337.430 5  99608128.635 5        42.979 5        35.342 5
G06  20853773.449 8 109587319.384 8      -277.115 8        48.670 8  20853789.617 8  85392783.008 8      -215.771 8        50.226 8
G11  22116320.410 7 116222051.075 7      1485.053 7        45.785 7  22116336.207 8  90562704.881 8      1157.217 8        49.237 8
G12  23064552.656 6 121205063.718 6      2301.283 6        40.437 6  23064567.711 8  94445526.121 8      1793.857 8        50.226 8
G17  21152360.930 8 111156403.381 8      -884.264 8        48.212 8  21152373.809 8  86615415.809 8      -689.209 8        50.226 8
G19  20255003.012 8 106440756.127 8        54.975 8        48.990 8  20255013.945 8  82940896.374 8        42.803 8        50.226 8
G20  22468650.500 7 118073567.512 7      2868.939 7        46.468 7  22468665.352 7  92005386.605 7      2235.498 7        47.541 7
R07  20865340.473 8 111693812.664 8      -981.277 8        51.312 8  20865345.629 7  86872971.907 7      -763.033 7        47.280 7
R08  20526548.109 8 109918739.459 8      2647.598 8        53.126 8  20526553.551 8  85492386.132 8      2059.213 8        48.945 8
R12  22633942.609 6 120906451.549 6     -3705.611 6        39.346 6  22633955.785 5  94038382.085 5     -2881.301 5        35.154 5
R13  21634913.191 6 115529232.197 6     -1525.465 6        39.397 6  21634919.781 6  89856099.367 6     -1185.969 6        36.231 6
R14  23548533.223 5                      1919.689 5        30.517 5  23548534.188 5                      1540.484 5        31.242 5
R23  21208644.645 7 113451964.526 7      1354.387 7        46.960 7                                                                
C01  37492088.523 7 195231141.737 7        17.260 7        44.831 7  37492097.969 7 150965140.556 7        13.047 7        45.288 7  37492106.848 7 158641372.084 7        13.709 7        42.845 7
C02  37675533.082 6 196186388.690 6        35.951 6        41.533 6  37675540.668 7 151703785.939 7        27.871 7        44.269 7  37675550.848 7 159417586.833 7        29.119 7        42.751 7
C03  36884320.824 7 192066340.019 7        37.611 7        46.478 7  36884328.195 7 148517903.873 7        29.121 7        47.593 7  36884336.785 7 156069699.626 7        30.467 7        45.288 7
C04  38556396.152 6 200773274.336 6        -1.178 6        39.241 6  38556405.633 7 155250665.759 7        -0.938 7        44.168 7  38556413.199 6 163144801.477 6        -1.193 6        41.175 6
C05  39356998.387 6 204942221.415 6        39.389 6        39.741 6  39357011.625 7 158474381.054 7        30.254 7        42.483 7  39357017.191 6 166532419.970 6        31.990 6        39.693 6
C07  36151165.645 7 188248609.575 7      -665.123 7        47.593 7  36151172.371 8 145565783.424 8      -514.160 8        50.626 8  36151177.230 7 152967461.393 7      -540.451 7        47.530 7
C08  36291867.324 7 188981278.860 7      -243.365 7        47.362 7  36291874.766 8 146132339.019 8      -187.832 8        49.820 8  36291880.797 7 153562822.938 7      -197.482 7        47.804 7
C10  35820911.207 8 186528881.323 8      -316.842 8        48.658 8  35820919.254 8 144235996.528 8      -245.371 8        48.917 8  35820925.328 7 151570055.571 7      -257.561 7        47.921 7
C13  36854610.469 8 191911626.233 8      -101.471 8        49.177 8  36854624.277 7 148398299.043 7       -78.320 7        47.863 7  36854629.953 7 155943998.171 7       -82.385 7        47.246 7
S37  36956165.703 7 194205958.023 7         1.869 7        43.488 7
> 2022 06 21 05 13 10.0000000  0 24       0.000000000000
G02  22966326.641 7 120688866.577 7      1219.027 7        45.690 7  22966337.832 7  94043328.532 7       949.975 7        46.291 7
G04  24325220.828 6 127829900.855 6        50.375 6        37.179 6  24325238.387 6  99607723.971 6        39.252 6        36.062 6
G06  20854302.754 8 109590099.928 8      -278.707 8        48.718 8  20854318.723 8  85394949.667 8      -217.232 8        50.226 8
G11  22113496.500 7 116207211.641 7      1482.719 7        45.581 7  22113511.809 8  90551141.694 8      1155.326 8        48.789 8
G12  23060180.922 7 121182076.330 7      2296.254 7        42.607 7  23060193.285 8  94427613.861 8      1789.311 8        50.226 8
G17  21154046.703 8 111165262.642 8      -887.301 8        48.585 8  21154059.594 8  86622319.105 8      -691.764 8        50.226 8
G19  20254901.996 8 106440226.008 8        51.117 8        48.778 8  20254913.242 8  82940483.291 8        39.877 8        50.226 8
G20  22463193.410 7 118044892.067 7      2866.137 7        45.666 7  22463208.074 7  91983042.133 7      2233.412 7        47.470 7
R07  20867183.020 8 111703668.326 8      -989.668 8        52.749 8  20867187.316 7  86880637.414 7      -769.752 7        47.246 7
R08  20521609.910 8 109892296.016 8      2641.203 8        52.938 8  20521617.934 8  85471819.037 8      2054.256 8        49.289 8
R12  22640886.359 6 120943517.081 6     -3706.688 6        39.397 6  22640900.395 6  94067210.687 6     -2882.734 6        36.124 6
R13  21637778.270 6 115544525.247 6     -1532.578 6        40.517 6  21637782.996 6  89867993.944 6     -1192.578 6        37.179 6
R14  23543775.492 6 125501731.394 6      1909.379 6        40.103 6  23543670.188 5                      1540.484 5        31.242 5
R23  21206113.746 8 113438422.950 8      1354.100 8        49.030 8                                                                
C01  37492055.621 7 195230971.106 7        17.029 7        45.301 7  37492065.207 7 150965008.612 7        13.578 7        44.831 7  37492073.801 7 158641233.430 7        13.729 7        42.171 7
C02  37675465.121 7 196186030.416 7        35.877 7        42.278 7  37675472.418 7 151703508.914 7        27.348 7        44.253 7  37675481.934 7 159417295.700 7        29.588 7        42.775 7
C03  36884248.320 7 192065963.977 7        38.045 7        46.387 7  36884255.977 7 148517613.099 7        29.184 7        47.530 7  36884264.539 7 156069394.066 7        30.701 7        45.288 7
C04  38556399.594 6 200773288.682 6        -1.467 6        39.971 6  38556408.250 7 155250676.844 7        -1.031 7        44.048 7  38556415.996 6 163144813.109 6        -0.900 6        41.175 6
C05  39356922.270 6 204941826.457 6        39.393 6        39.645 6  39356935.898 7 158474075.646 7        30.297 7        42.144 7  39356941.445 6 166532099.052 6        32.107 6        39.880 6
C07  36152443.930 7 188255268.096 7      -666.467 7        47.855 7  36152450.867 8 145570932.208 8      -515.152 8        50.661 8  36152456.027 7 152972871.986 7      -541.877 7        47.737 7
C08  36292335.813 7 188983714.961 7      -243.732 7        47.608 7  36292342.074 8 146134222.771 8      -188.492 8        49.641 8  36292348.578 7 153564802.478 7      -198.107 7        47.280 7
C10  35821520.965 8 186532058.066 8      -318.107 8        48.682 8  35821529.477 8 144238452.967 8      -246.148 8        48.825 8  35821535.445 7 151572636.914 7      -258.225 7        47.782 7
C13  36854805.512 8 191912642.405 8      -101.682 8        49.209 8  36854819.211 7 148399084.823 7       -78.551 7        47.700 7  36854825.016 7 155944823.901 7       -82.775 7        47.313 7
S37  36956162.277 7 194205938.978 7         1.723 7        43.527 7
> 2022 06 21 05 13 20.0000000  0 24       0.000000000000
G02  22964007.898 7 120676682.809 7      1217.600 7        46.091 7  22964019.203 7  94033834.688 7       948.752 7        45.941 7
G04  24325130.742 6 127829434.300 6        43.674 6        36.731 6  24325148.242 5  99607360.421 5        34.064 5        34.356 5
G06  20854835.402 8 109592898.012 8      -280.838 8        49.377 8  20854849.582 8  85397123.001 8      -218.787 8        49.838 8
G11  22110677.074 7 116192392.336 7      1480.666 7        46.547 7  22110691.426 8  90539594.204 8      1153.713 8        48.813 8
G12  23055814.531 7 121159140.375 7      2290.197 7        42.251 7  23055828.898 8  94409741.705 8      1785.197 8        50.226 8
G17  21155739.398 8 111174157.482 8      -891.541 8        48.165 8  21155752.418 8  86629250.145 8      -694.842 8        50.226 8
G19  20254808.902 8 106439737.154 8        46.662 8        49.188 8  20254820.379 8  82940102.353 8        36.408 8        50.226 8
G20  22457741.953 7 118016247.861 7      2862.502 7        45.666 7  22457757.352 7  91960722.019 7      2230.529 7        47.850 7
R07  20869040.367 8 111713609.763 8      -998.428 8        52.415 8  20869042.516 7  86888369.682 7      -776.605 7        46.852 7
R08  20516683.797 8 109865918.288 8      2634.416 8        52.278 8  20516691.672 8  85451303.026 8      2048.789 8        49.669 8
R12  22647824.289 6 120980596.371 6     -3708.182 6        36.824 6  22647841.906 6  94096049.996 6     -2885.172 6        36.635 6
R13  21640655.285 6 115559888.824 6     -1540.264 6        40.931 6  21640657.723 6  89879943.321 6     -1197.557 6        36.538 6
R14  23540180.145 5 125482672.751 5      1901.910 5        31.242 5  23540086.188 5                      1540.484 5        31.242 5
R23  21203584.043 8 113424884.838 8      1353.289 8        50.634 8                                                                
C01  37492022.125 7 195230800.396 7        16.643 7        45.222 7  37492032.000 7 150964876.615 7        13.338 7        44.801 7  37492041.000 7 158641094.716 7        13.803 7        42.407 7
C02  37675396.641 7 196185671.992 7        35.686 7        42.278 7  37675403.758 7 151703231.729 7        27.771 7        44.946 7  37675413.063 7 159417004.481 7        28.646 7        42.821 7
C03  36884175.867 7 192065588.011 7        37.365 7        46.528 7  36884183.848 7 148517322.363 7        28.943 7        47.546 7  36884192.129 7 156069088.561 7        30.268 7        45.100 7
C04  38556403.195 6 200773302.958 6        -2.166 6        39.741 6  38556411.102 7 155250687.896 7        -1.682 7        43.795 7  38556418.621 6 163144824.712 6        -1.275 6        41.533 6
C05  39356846.742 6 204941431.377 6        39.357 6        39.741 6  39356859.727 7 158473770.164 7        30.330 7        42.006 7  39356865.965 6 166531778.027 6        31.674 6        40.059 6
C07  36153725.555 7 188261940.408 7      -668.162 7        47.992 7  36153732.387 8 145576091.665 8      -516.799 8        50.556 8  36153737.391 7 152978293.768 7      -542.486 7        47.685 7
C08  36292804.785 7 188986157.350 7      -244.744 7        47.848 7  36292810.762 8 146136111.371 8      -189.123 8        49.453 8  36292817.793 7 153566787.120 7      -199.088 7        47.669 7
C10  35822134.066 8 186535249.364 8      -320.096 8        49.052 8  35822142.188 8 144240920.695 8      -247.678 8        48.900 8  35822148.305 8 151575230.119 8      -260.084 8        48.048 8
C13  36855002.180 8 191913665.098 8      -103.006 8        49.631 8  36855015.418 7 148399875.640 7       -79.729 7        47.467 7  36855021.246 7 155945654.907 7       -83.658 7        46.951 7
S37  36956158.762 7 194205919.717 7         1.721 7        43.850 7
> 2022 06 21 05 13 30.0000000  0 24       0.000000000000
G02  22961691.074 7 120664511.087 7      1216.635 7        45.248 7  22961703.141 7  94024350.231 7       948.004 7        45.832 7
G04  24325053.738 6 127829020.782 6        38.666 6        38.165 6  24325069.648 5  99607038.221 5        30.270 5        34.103 5
G06  20855370.402 8 109595713.777 8      -282.408 8        48.434 8  20855387.043 8  85399324.101 8      -219.965 8        50.226 8
G11  22107861.004 7 116177593.303 7      1479.057 7        46.960 7  22107875.102 8  90528062.511 8      1152.555 8        48.746 8
G12  23051460.938 7 121136256.211 7      2285.463 7        42.251 7  23051473.844 8  94391909.923 8      1781.285 8        50.226 8
G17  21157438.738 8 111183088.200 8      -894.752 8        48.338 8  21157452.117 8  86636209.131 8      -697.230 8        50.226 8
G19  20254723.887 8 106439289.743 8        42.963 8        49.225 8  20254735.320 8  82939753.706 8        33.512 8        50.226 8
G20  22452297.570 7 117987635.050 7      2859.701 7        45.702 7  22452312.895 7  91938426.367 7      2228.375 7        47.539 7
R07  20870914.820 8 111723637.068 8     -1007.084 8        52.322 8  20870918.832 7  86896168.712 7      -783.188 7        46.577 7
R08  20511771.348 8 109839606.674 8      2627.748 8        52.668 8  20511777.219 8  85430838.447 8      2044.020 8        49.052 8
R12  22654770.582 6 121017689.446 6     -3710.207 6        40.822 6  22654786.910 6  94124899.940 6     -2885.674 6        36.915 6
R13  21643549.121 6 115575322.996 6     -1546.955 6        39.548 6  21643553.563 6  89891947.632 6     -1202.002 6        38.027 6
R14  23540019.320 5                      1901.686 5        30.103 5  23540086.188 5                      1540.484 5        31.242 5
R23  21201054.402 8 113411350.259 8      1353.170 8        49.741 8                                                                
C01  37491989.871 7 195230629.856 7        17.359 7        45.275 7  37491999.637 7 150964744.759 7        13.016 7        44.989 7  37492008.281 7 158640956.139 7        13.824 7        42.171 7
C02  37675327.258 7 196185313.540 7        35.387 7        42.632 7  37675334.734 7 151702954.565 7        27.977 7        45.141 7  37675344.406 7 159416713.194 7        29.059 7        42.533 7
C03  36884104.160 7 192065212.275 7        37.555 7        46.625 7  36884111.637 7 148517031.826 7        28.875 7        47.685 7  36884120.129 7 156068783.232 7        30.621 7        45.127 7
C04  38556405.676 6 200773317.353 6        -0.961 6        40.015 6  38556413.941 7 155250699.052 7        -0.852 7        43.625 7  38556421.418 6 163144836.438 6        -1.352 6        41.276 6
C05  39356770.773 6 204941036.330 6        39.020 6        40.015 6  39356783.762 7 158473464.684 7        30.223 7        42.171 7  39356790.309 6 166531456.994 6        32.301 6        40.059 6
C07  36155008.961 7 188268626.740 7      -669.164 7        47.834 7  36155015.938 8 145581261.963 8      -517.727 8        50.129 8  36155021.520 7 152983726.970 7      -543.852 7        47.562 7
C08  36293275.074 7 188988606.062 7      -245.277 7        47.906 7  36293281.332 8 146138004.884 8      -189.504 8        49.463 8  36293288.066 7 153568776.899 7      -199.262 7        47.616 7
C10  35822749.410 8 186538455.310 8      -321.234 8        48.940 8  35822758.105 8 144243399.724 8      -248.352 8        48.585 8  35822764.156 8 151577835.208 8      -261.059 8        48.117 8
C13  36855199.805 8 191914694.498 8      -103.051 8        49.876 8  36855213.113 7 148400671.641 7       -79.836 7        47.213 7  36855218.836 7 155946491.389 7       -83.871 7        47.204 7
S37  36956154.445 7 194205900.435 7         1.771 7        43.887 7
> 2022 06 21 05 13 40.0000000  0 24       0.000000000000
G02  22959377.445 7 120652351.337 7      1215.922 7        45.456 7  22959389.105 7  94014875.140 7       947.568 7        45.729 7
G04  24324983.645 6 127828660.484 6        33.363 6        37.093 6  24325001.516 5  99606757.471 5        26.084 5        35.595 5
G06  20855910.023 8 109598547.289 8      -283.668 8        49.225 8  20855926.078 8  85401530.030 8      -220.986 8        50.226 8
G11  22105047.840 7 116162814.689 7      1477.230 7        45.750 7  22105062.609 8  90516546.739 8      1151.162 8        48.492 8
G12  23047116.402 7 121113423.941 7      2281.117 7        42.251 7  23047128.980 8  94374118.582 8      1777.432 8        50.226 8
G17  21159145.273 8 111192054.940 8      -897.926 8        48.083 8  21159158.680 8  86643196.200 8      -699.795 8        50.226 8
G19  20254646.926 8 106438883.990 8        39.105 8        49.304 8  20254657.828 8  82939437.533 8        30.459 8        50.226 8
G20  22446858.668 7 117959053.796 7      2856.879 7        45.494 7  22446873.793 7  91916155.290 7      2226.240 7        47.277 7
R07  20872801.496 8 111733750.440 8     -1015.098 8        52.283 8  20872807.082 8  86904034.672 8      -789.516 8        48.428 8
R08  20506870.547 8 109813361.232 8      2621.787 8        52.251 8  20506876.992 8  85410425.349 8      2039.061 8        48.928 8
R12  22661720.652 7 121054796.221 7     -3710.750 7        42.607 7  22661732.969 5  94153760.602 5     -2885.328 5        35.154 5
R13  21646449.020 6 115590827.622 6     -1553.494 6        39.834 6  21646455.180 6  89904006.789 6     -1208.299 6        37.427 6
R14  23535189.164 5                      1894.600 5        30.103 5  23535222.188 5                      1540.484 5        31.242 5
R23  21198524.809 7 113397819.288 7      1353.514 7        47.885 7                                                                
C01  37491957.699 7 195230459.546 7        17.432 7        45.327 7  37491966.895 7 150964613.042 7        13.744 7        44.889 7  37491975.535 6 158640817.734 6        14.184 6        41.893 6
C02  37675258.918 7 196184955.252 7        36.143 7        42.508 7  37675265.820 7 151702677.506 7        28.432 7        44.917 7  37675275.309 7 159416422.054 7        29.418 7        42.704 7
C03  36884031.813 7 192064836.843 7        38.174 7        46.428 7  36884039.609 7 148516741.523 7        29.330 7        47.971 7  36884048.059 7 156068478.179 7        30.668 7        45.340 7
C04  38556408.168 6 200773332.052 6        -1.064 6        39.498 6  38556416.719 7 155250710.387 7        -0.729 7        43.325 7  38556424.195 6 163144848.368 6        -1.012 6        40.858 6
C05  39356694.781 6 204940641.443 6        39.951 6        39.788 6  39356708.301 7 158473159.338 7        30.854 7        42.775 7  39356714.063 6 166531136.129 6        32.738 6        39.741 6
C07  36156296.098 8 188275327.247 8      -669.834 8        48.048 8  36156302.426 8 145586443.216 8      -518.268 8        50.090 8  36156308.367 7 152989171.675 7      -544.332 7        47.956 7
C08  36293746.617 7 188991061.192 7      -245.342 7        47.971 7  36293753.273 8 146139903.359 8      -189.771 8        49.602 8  36293759.074 7 153570771.903 7      -199.215 7        47.475 7
C10  35823368.020 8 186541676.022 8      -322.158 8        48.928 8  35823376.570 8 144245890.179 8      -249.068 8        48.724 8  35823382.629 7 151580452.303 7      -262.105 7        47.992 7
C13  36855399.152 8 191915730.756 8      -103.506 8        49.825 8  36855412.281 7 148401472.937 7       -79.850 7        47.760 7  36855417.656 7 155947333.438 7       -84.176 7        46.924 7
S37  36956151.180 7 194205881.244 7         2.543 7        43.777 7
> 2022 06 21 05 13 50.0000000  0 24       0.000000000000
G02  22957065.570 7 120640203.596 7      1213.744 7        45.379 7  22957077.789 7  94005409.399 7       945.713 7        45.975 7
G04  24324926.324 6 127828353.332 6        26.146 6        39.346 6  24324943.910 6  99606518.123 6        20.400 6        36.198 6
G06  20856452.832 8 109601398.487 8      -286.568 8        49.139 8  20856468.617 8  85403744.747 8      -223.193 8        50.226 8
G11  22102239.867 7 116148056.378 7      1474.408 7        45.924 7  22102254.477 8  90505046.765 8      1148.936 8        48.381 8
G12  23042780.207 6 121090643.639 6      2274.877 6        41.309 6  23042793.914 8  94356367.700 8      1772.920 8        50.226 8
G17  21160858.000 7 111201057.766 7      -902.760 7        47.834 7  21160871.652 8  86650211.376 8      -703.428 8        50.226 8
G19  20254577.301 8 106438519.893 8        33.549 8        48.801 8  20254588.117 8  82939153.811 8        25.986 8        50.226 8
G20  22441426.102 7 117930504.151 7      2853.139 7        45.690 7  22441440.453 7  91893908.890 7      2223.096 7        46.636 7
R07  20874707.547 8 111743949.654 8     -1024.811 8        52.249 8  20874711.414 8  86911967.363 8      -797.299 8        48.312 8
R08  20501981.816 8 109787182.149 8      2613.912 8        52.516 8  20501986.113 8  85390063.851 8      2033.035 8        48.990 8
R12  22668667.605 6 121091916.483 6     -3713.525 6        41.533 6  22668678.633 5  94182631.708 5     -2887.953 5        34.253 5
R13  21649365.285 6 115606402.631 6     -1562.695 6        38.027 6  21649371.871 6  89916120.660 6     -1214.186 6        37.885 6
R14  23535189.164 5                      1894.600 5        30.103 5  23535222.188 5                      1540.484 5        31.242 5
R23  21195996.254 8 113384292.088 8      1351.732 8        48.013 8                                                                
C01  37491924.992 7 195230289.434 7        16.432 7        45.275 7  37491934.223 7 150964481.498 7        12.797 7        44.874 7  37491943.059 7 158640679.506 7        13.129 7        42.304 7
C02  37675189.828 7 196184597.043 7        35.377 7        42.304 7  37675197.125 7 151702400.527 7        27.152 7        44.801 7  37675206.504 7 159416130.979 7        28.813 7        42.433 7
C03  36883960.004 7 192064461.727 7        37.135 7        46.315 7  36883967.480 7 148516451.449 7        28.480 7        47.530 7  36883976.039 7 156068173.357 7        30.102 7        45.195 7
C04  38556411.055 6 200773346.927 6        -1.869 6        39.693 6  38556419.496 7 155250721.908 7        -1.793 7        43.468 7  38556426.980 6 163144860.446 6        -1.813 6        41.175 6
C05  39356618.789 6 204940246.644 6        39.186 6        39.397 6  39356633.418 7 158472854.073 7        30.219 7        43.346 7  39356638.020 6 166530815.335 6        31.801 6        39.788 6
C07  36157585.953 8 188282041.843 8      -672.533 8        48.069 8  36157591.391 8 145591635.351 8      -520.270 8        49.674 8  36157597.879 7 152994627.831 7      -546.773 7        47.752 7
C08  36294219.348 8 188993522.851 8      -247.182 8        48.090 8  36294226.004 8 146141806.878 8      -191.207 8        49.834 8  36294231.699 7 153572772.206 7      -200.875 7        47.538 7
C10  35823989.352 8 186544911.596 8      -324.975 8        48.603 8  35823998.223 8 144248392.120 8      -251.129 8        48.825 8  35824004.031 8 151583081.462 8      -264.117 8        48.124 8
C13  36855599.438 8 191916773.726 8      -105.346 8        49.674 8  36855613.031 7 148402279.431 7       -81.500 7        47.870 7  36855617.832 7 155948180.913 7       -85.367 7        46.778 7
S37  36956147.805 7 194205862.091 7         1.557 7        44.048 7
> 2022 06 21 05 14  0.0000000  0 24       0.000000000000
G02  22954756.129 7 120628067.889 7      1212.738 7        45.235 7  22954769.063 7  93995953.022 7       945.045 7        46.920 7
G04  24324878.309 6 127828099.396 6        23.324 6        39.834 6  24324895.164 6  99606320.256 6        18.168 6        37.869 6
G06  20856998.074 8 109604267.354 8      -288.258 8        48.351 8  20857014.773 8  85405988.240 8      -224.645 8        50.226 8
G11  22099435.039 7 116133318.414 7      1472.738 7        45.581 7  22099449.820 8  90493562.660 8      1147.584 8        48.179 8
G12  23038455.027 6 121067915.437 6      2269.652 6        41.141 6  23038469.336 8  94338657.432 8      1768.775 8        50.226 8
G17  21162578.313 7 111210096.739 7      -905.797 7        47.403 7  21162591.637 8  86657254.710 8      -705.777 8        50.226 8
G19  20254515.402 8 106438197.531 8        29.691 8        48.460 8  20254526.594 8  82938902.611 8        23.188 8        50.226 8
G20  22435999.258 7 117901986.220 7      2849.867 7        45.924 7  22436013.813 7  91871687.194 7      2220.670 7        47.240 7
R07  20876630.066 8 111754234.705 8     -1033.115 8        52.961 8  20876634.508 8  86919966.835 8      -803.453 8        48.784 8
R08  20497104.973 8 109761069.703 8      2607.482 8        51.809 8  20497110.988 8  85369754.180 8      2028.131 8        49.090 8
R12  22675617.566 6 121129049.978 6     -3714.195 6        40.967 6  22675629.598 5  94211513.150 5     -2888.895 5        33.527 5
R13  21652298.449 6 115622047.962 6     -1568.346 6        40.437 6  21652303.750 6  89928289.270 6     -1220.633 6        39.741 6
R14  23527404.848 5                      1877.965 5        30.103 5  23527286.188 5                      1540.484 5        31.242 5
R23  21193467.555 8 113370768.624 8      1351.922 8        49.493 8                                                                
C01  37491891.676 7 195230119.536 7        16.518 7        45.086 7  37491901.836 7 150964350.145 7        12.730 7        45.340 7  37491910.430 7 158640541.459 7        13.521 7        42.144 7
C02  37675121.453 7 196184238.959 7        35.600 7        42.433 7  37675128.180 7 151702123.634 7        27.359 7        44.335 7  37675137.816 7 159415840.002 7        29.068 7        42.607 7
C03  36883887.410 7 192064086.940 7        37.299 7        46.220 7  36883895.637 7 148516161.636 7        28.785 7        47.459 7  36883904.168 7 156067868.808 7        30.494 7        45.222 7
C04  38556413.512 6 200773362.088 6        -1.471 6        39.448 6  38556422.168 7 155250733.631 7        -1.488 7        43.387 7  38556430.020 6 163144872.771 6        -1.479 6        41.072 6
C05  39356543.008 6 204939852.008 6        39.330 6        40.189 6  39356556.711 7 158472548.924 7        30.191 7        42.728 7  39356562.355 6 166530494.679 6        31.881 6        40.146 6
C07  36158877.883 8 188288770.543 8      -674.088 8        48.117 8  36158883.785 8 145596838.397 8      -520.961 8        50.168 8  36158890.016 7 153000095.445 7      -547.611 7        47.491 7
C08  36294693.188 8 188995990.963 8      -247.506 8        48.020 8  36294700.020 8 146143715.391 8      -191.273 8        49.939 8  36294705.684 7 153574777.765 7      -201.244 7        47.562 7
C10  35824613.258 8 186548161.916 8      -326.041 8        48.279 8  35824622.309 8 144250905.489 8      -252.055 8        49.046 8  35824628.176 7 151585722.627 7      -264.994 7        47.841 7
C13  36855801.223 8 191917823.379 8      -105.748 8        49.853 8  36855814.707 8 148403091.085 8       -81.781 8        48.131 8  36855819.328 7 155949033.859 7       -85.658 7        47.110 7
S37  36956143.715 7 194205843.006 7         1.742 7        43.663 7
> 2022 06 21 05 14 10.0000000  0 24       0.000000000000
G02  22952450.277 7 120615944.077 7      1211.938 7        45.878 7  22952462.055 7  93986505.911 7       944.283 7        47.003 7
G04  24324839.180 6 127827898.714 6        17.211 6        38.676 6  24324856.508 6  99606163.900 6        13.482 6        37.663 6
G06  20857547.910 8 109607153.823 8      -289.781 8        48.700 8  20857564.121 8  85408208.430 8      -225.697 8        50.226 8
G11  22096634.094 7 116118600.703 7      1470.727 7        45.262 7  22096648.758 7  90482094.353 7      1146.002 7        47.889 7
G12  23034140.883 7 121045239.175 7      2265.121 7        42.483 7  23034153.922 8  94320987.650 8      1765.494 8        50.226 8
G17  21164305.223 7 111219171.658 7      -909.217 7        47.119 7  21164318.918 8  86664326.061 8      -708.588 8        50.226 8
G19  20254462.395 8 106437916.824 8        25.980 8        48.434 8  20254473.297 8  82938683.890 8        20.162 8        50.226 8
G20  22430578.586 7 117873499.975 7      2846.820 7        45.031 7  22430593.469 7  91849490.153 7      2218.229 7        46.807 7
R07  20878567.211 8 111764605.590 8     -1041.641 8        52.471 8  20878571.652 7  86928033.102 7      -809.768 7        47.554 7
R08  20492241.613 8 109735023.957 8      2600.930 8        52.689 8  20492247.914 8  85349496.400 8      2023.164 8        48.801 8
R12  22682569.691 6 121166196.697 6     -3716.234 6        37.427 6  22682583.586 5  94240404.825 5     -2890.129 5        34.082 5
R13  21655238.793 6 115637763.388 6     -1575.443 6        40.437 6  21655249.391 6  89940512.374 6     -1224.855 6        39.134 6
R14  23522517.988 6 125388257.127 6      1868.568 6        36.538 6  23522533.887 5  97524265.567 5      1451.074 5        34.575 5
R23  21190941.449 8 113357249.029 8      1351.465 8        49.468 8                                                                
C01  37491859.559 7 195229949.834 7        16.756 7        44.786 7  37491869.539 7 150964218.894 7        13.422 7        45.443 7  37491877.719 7 158640403.569 7        13.236 7        42.144 7
C02  37675052.492 7 196183880.912 7        35.701 7        42.198 7  37675059.824 7 151701846.775 7        27.230 7        44.946 7  37675068.953 7 159415549.067 7        29.076 7        42.278 7
C03  36883815.727 7 192063712.424 7        37.498 7        46.113 7  36883823.563 7 148515872.048 7        28.852 7        47.378 7  36883832.211 7 156067564.485 7        30.424 7        45.353 7
C04  38556416.094 6 200773377.438 6        -1.428 6        39.294 6  38556425.895 7 155250745.514 7        -1.441 7        43.795 7  38556432.793 6 163144885.259 6        -1.275 6        41.342 6
C05  39356467.785 6 204939457.441 6        39.314 6        39.645 6  39356480.734 7 158472243.804 7        30.512 7        42.356 7  39356486.543 6 166530174.053 6        32.104 6        39.788 6
C07  36160172.656 7 188295513.335 7      -675.607 7        47.677 7  36160178.918 8 145602052.337 8      -522.164 8        50.133 8  36160184.824 7 153005574.505 7      -548.619 7        47.370 7
C08  36295168.078 7 188998465.378 7      -247.932 7        47.530 7  36295174.949 8 146145628.764 8      -191.891 8        49.898 8  36295180.895 7 153576788.425 7      -201.568 7        47.530 7
C10  35825239.898 8 186551427.050 8      -327.600 8        48.117 8  35825248.840 8 144253430.291 8      -253.199 8        48.859 8  35825255.254 8 151588375.811 8      -266.217 8        48.117 8
C13  36856003.883 8 191918879.837 8      -106.193 8        49.463 8  36856016.797 7 148403908.012 7       -82.340 7        47.963 7  36856022.020 7 155949892.328 7       -86.334 7        46.796 7
S37  36956140.215 7 194205823.904 7         1.781 7        43.527 7
> 2022 06 21 05 14 20.0000000  0 24       0.000000000000
G02  22950145.086 7 120603832.132 7      1210.955 7        46.220 7  22950157.191 7  93977068.078 7       943.516 7        47.321 7
G04  24324811.863 6 127827751.300 6        12.576 6        40.189 6  24324828.035 6  99606049.055 6         9.844 6        37.605 6
G06  20858101.406 8 109610057.844 8      -290.861 8        49.558 8  20858116.805 8  85410501.298 8      -226.682 8        50.226 8
G11  22093837.664 7 116103903.217 7      1469.236 7        45.605 7  22093852.430 8  90470641.798 8      1144.824 8        48.163 8
G12  23029835.980 7 121022615.132 7      2260.076 7        43.905 7  23029848.832 8  94303358.544 8      1761.758 8        50.226 8
G17  21166038.801 7 111228282.562 7      -912.150 7        46.870 7  21166052.695 8  86671425.445 8      -710.783 8        50.226 8
G19  20254417.051 8 106437678.006 8        22.537 8        48.634 8  20254428.070 8  82938497.794 8        17.461 8        50.226 8
G20  22425163.574 7 117845045.501 7      2844.725 7        45.072 7  22425178.559 7  91827317.882 7      2216.543 7        46.840 7
R07  20880517.906 8 111775062.230 8     -1049.369 8        51.371 8  20880525.641 7  86936166.059 7      -816.361 7        47.999 7
R08  20487388.930 8 109709044.684 8      2594.998 8        52.415 8  20487395.375 8  85329290.313 8      2018.465 8        49.215 8
R12  22689527.488 6 121203356.472 6     -3715.875 6        37.885 6  22689544.246 5  94269306.737 5     -2890.199 5        35.418 5
R13  21658198.266 6 115653548.745 6     -1581.529 6        41.242 6  21658200.559 6  89952789.818 6     -1230.336 6        38.676 6
R14  23520802.473 5                      1864.281 5        30.103 5  23520821.379 5                      1449.418 5        30.895 5
R23  21188412.992 7 113343732.868 7      1351.842 7        45.531 7                                                                
C01  37491826.664 7 195229780.262 7        17.398 7        44.742 7  37491836.789 7 150964087.785 7        13.596 7        45.617 7  37491845.340 6 158640265.770 6        14.273 6        41.921 6
C02  37674983.934 7 196183522.929 7        36.227 7        42.483 7  37674990.336 7 151701569.919 7        28.381 7        44.651 7  37675000.281 7 159415258.134 7        29.977 7        42.845 7
C03  36883744.379 7 192063338.200 7        37.770 7        46.538 7  36883751.641 7 148515582.666 7        29.279 7        47.229 7  36883760.340 7 156067260.393 7        30.699 7        45.506 7
C04  38556419.688 6 200773392.985 6        -0.727 6        39.346 6  38556428.168 7 155250757.522 7        -0.564 7        43.869 7  38556435.715 6 163144897.898 6        -0.629 6        40.748 6
C05  39356391.605 6 204939062.903 6        40.113 6        39.741 6  39356405.664 7 158471938.775 7        30.568 7        42.458 7  39356410.637 6 166529853.463 6        32.809 6        39.498 6
C07  36161470.910 7 188302270.173 7      -675.707 7        47.730 7  36161476.133 8 145607277.159 8      -522.693 8        50.125 8  36161482.215 7 153011064.986 7      -548.949 7        47.229 7
C08  36295644.414 7 189000946.089 7      -247.816 7        47.499 7  36295650.926 8 146147547.017 8      -191.619 8        49.503 8  36295657.637 7 153578804.225 7      -201.371 7        47.737 7
C10  35825870.129 8 186554706.928 8      -327.914 8        48.573 8  35825879.359 8 144255966.506 8      -253.768 8        48.985 8  35825884.988 7 151591040.962 7      -266.488 7        47.949 7
C13  36856207.910 8 191919942.888 8      -106.215 8        49.361 8  36856220.613 7 148404730.018 7       -81.932 7        47.346 7  36856226.262 7 155950756.132 7       -86.078 7        47.005 7
S37  36956136.656 7 194205804.811 7         2.459 7        43.663 7
> 2022 06 21 05 14 30.0000000  0 24       0.000000000000
G02  22947842.012 7 120591732.141 7      1209.609 7        45.568 7  22947854.488 7  93967639.534 7       942.578 7        47.399 7
G04  24324793.824 6 127827657.339 6         5.273 6        39.346 6  24324810.797 6  99605975.831 6         3.926 6        36.821 6
G06  20858657.023 8 109612979.497 8      -292.852 8        49.018 8  20858672.922 8  85412778.916 8      -228.672 8        50.226 8
G11  22091044.645 7 116089226.077 7      1466.895 7        45.832 7  22091059.496 8  90459205.085 8      1143.125 8        48.212 8
G12  23025540.781 7 121000043.539 7      2254.883 7        44.401 7  23025553.000 8  94285770.326 8      1757.090 8        50.226 8
G17  21167779.504 7 111237429.731 7      -916.504 7        47.084 7  21167793.398 8  86678553.104 8      -713.926 8        50.226 8
G19  20254379.695 8 106437481.070 8        17.773 8        48.945 8  20254390.496 8  82938344.315 8        13.809 8        50.226 8
G20  22419754.977 7 117816622.915 7      2841.055 7        45.208 7  22419769.914 7  91805170.454 7      2213.770 7        46.779 7
R07  20882488.766 8 111785604.688 8     -1058.514 8        50.214 8  20882495.066 7  86944365.759 7      -823.260 7        47.387 7
R08  20482550.402 8 109683132.789 8      2587.689 8        52.166 8  20482556.129 8  85309136.626 8      2012.992 8        48.807 8
R12  22696488.691 6 121240529.067 6     -3717.266 6        40.103 6  22696497.000 5  94298218.593 5     -2892.408 5        31.564 5
R13  21661166.020 6 115669404.114 6     -1589.150 6        40.146 6  21661170.461 6  89965121.753 6     -1236.531 6        36.335 6
R14  23516412.961 5                      1857.504 5        30.103 5  23516461.516 5                      1443.123 5        33.113 5
R23  21185885.367 8 113330220.596 8      1351.057 8        49.046 8                                                                
C01  37491794.316 7 195229610.961 7        17.131 7        45.031 7  37491804.047 7 150963956.876 7        13.055 7        45.443 7  37491812.934 7 158640128.189 7        13.855 7        42.458 7
C02  37674915.059 7 196183165.081 7        36.037 7        42.483 7  37674922.105 7 151701293.225 7        27.820 7        44.974 7  37674931.566 7 159414967.396 7        29.031 7        42.607 7
C03  36883672.320 7 192062964.330 7        37.209 7        46.335 7  36883679.836 7 148515293.556 7        28.973 7        47.329 7  36883688.477 7 156066956.598 7        30.301 7        45.327 7
C04  38556422.219 6 200773408.836 6        -1.365 6        40.015 6  38556431.949 7 155250769.788 7        -1.242 7        44.286 7  38556438.848 6                        -1.184 6        40.556 6
C05  39356315.508 6 204938668.611 6        39.221 6        39.134 6  39356329.172 6 158471633.860 6        30.633 6        41.776 6  39356334.953 6 166529533.082 6        32.195 6        39.079 6
C07  36162771.105 8 188309041.222 8      -678.104 8        48.034 8  36162776.328 8 145612512.957 8      -523.996 8        50.081 8  36162782.633 7 153016567.00217      -550.578 7        47.229 7
C08  36296122.297 7 189003433.158 7      -248.729 7        47.885 7  36296128.020 8 146149470.182 8      -192.707 8        49.177 8  36296135.324 7 153580825.181 7      -202.180 7        47.812 7
C10  35826503.371 8 186558001.671 8      -329.959 8        48.968 8  35826512.277 8 144258514.192 8      -255.207 8        49.090 8  35826517.617 7 151593718.216 7      -268.215 7        47.949 7
C13  36856412.844 8 191921012.673 8      -107.459 8        49.182 8  36856426.402 7 148405557.256 7       -82.980 7        47.288 7  36856431.813 7 155951625.424 7       -87.160 7        46.768 7
S37  36956133.500 7 194205785.839 7         2.109 7        43.758 7
> 2022 06 21 05 14 40.0000000  0 24       0.000000000000
G02  22945541.676 7 120579643.887 7      1208.051 7        46.036 7  22945554.598 7  93958220.128 7       941.346 7        47.407 7
G04  24324786.254 6 127827616.551 6         1.723 6        40.356 6  24324803.582 6  99605944.039 6         1.346 6        37.777 6
G06  20859215.668 8 109615918.554 8      -294.762 8        49.052 8                                                                
G11  22088256.367 7 116074569.064 7      1464.789 7        46.906 7  22088270.617 8  90447784.054 8      1141.404 8        48.695 8
G12  23021254.762 7 120977524.266 7      2249.398 7        43.959 7  23021267.969 8  94268222.862 8      1751.854 8        50.226 8
G17  21169527.242 7 111246612.895 7      -919.957 7        47.362 7  21169540.965 8  86685708.823 8      -717.014 8        50.226 8
G19  20254350.230 8 106437325.802 8        13.617 8        48.784 8  20254361.090 8  82938223.330 8        10.564 8        50.226 8
G20  22414352.555 7 117788232.091 7      2837.387 7        44.712 7  22414367.594 7  91783047.783 7      2211.033 7        46.471 7
R07  20884474.828 8 111796232.751 8     -1066.914 8        50.891 8  20884479.125 8  86952632.016 8      -829.846 8        48.760 8
R08  20477724.641 8 109657287.833 8      2581.063 8        53.165 8  20477728.938 8  85289035.021 8      2007.850 8        48.830 8
R12  22703449.914 6 121277714.206 6     -3718.723 6        40.315 6  22703498.773 5                     -2891.061 5        31.242 5
R13  21664147.832 6 115685329.146 6     -1596.230 6        38.968 6  21664150.984 5  89977507.837 5     -1241.818 5        34.417 5
R14  23512100.891 5 125332728.137 5      1846.793 5        30.517 5  23512109.516 5                      1443.123 5        33.113 5
R23  21183361.918 8 113316712.091 8      1350.744 8        49.953 8                                                                
C01  37491762.133 7 195229441.762 7        16.809 7        44.757 7  37491771.434 7 150963826.034 7        12.898 7        45.275 7  37491780.199 7 158639990.688 7        13.967 7        42.508 7
C02  37674845.527 6 196182807.232 6        35.227 6        41.978 6  37674853.434 7 151701016.504 7        27.762 7        45.045 7  37674862.691 7 159414676.595 7        29.475 7        42.607 7
C03  36883600.289 7 192062590.644 7        37.414 7        46.283 7  36883608.086 7 148515004.604 7        28.914 7        47.346 7  36883616.766 7 156066652.951 7        30.236 7        45.379 7
C04  38556426.309 6 200773424.804 6        -2.020 6        40.015 6  38556434.430 7 155250782.116 7        -1.203 7        44.012 7  38556442.250 6 163144923.72916        -1.033 6        41.406 6
C05  39356240.254 6 204938274.318 6        39.289 6        39.448 6  39356253.453 7 158471328.998 7        30.730 7        42.225 7  39356259.434 6 166529212.709 6        31.916 6        40.273 6
C07  36164074.254 8 188315826.243 8      -679.051 8        48.055 8  36164079.691 8 145617759.570 8      -525.324 8        50.261 8  36164085.512 7 153022080.403 7      -552.029 7        47.387 7
C08  36296601.699 8 189005926.455 8      -249.461 8        48.185 8  36296606.316 8 146151398.170 8      -193.039 8        49.030 8  36296614.164 7 153582851.192 7      -202.850 7        47.715 7
C10  35827139.070 8 186561311.183 8      -331.473 8        49.118 8  35827147.406 8 144261073.315 8      -256.496 8        48.900 8  35827153.148 8 151596407.461 8      -269.373 8        48.117 8
C13  36856619.625 8 191922089.104 8      -108.055 8        49.387 8  36856633.293 7 148406389.613 7       -83.449 7        47.600 7  36856638.602 7 155952500.112 7       -87.557 7        47.179 7
S37  36956129.648 7 194205766.813 7         1.938 7        43.887 7
> 2022 06 21 05 14 50.0000000  0 24       0.000000000000
G02  22943243.875 7 120567567.430 7      1207.184 7        45.946 7  22943256.352 7  93948809.912 7       940.672 7        47.319 7
G04  24324789.941 6 127827629.179 6        -4.145 6        41.950 6  24324806.180 6  99605953.907 6        -3.195 6        38.831 6
G06  20859778.984 8 109618875.068 8      -296.371 8        49.587 8  20859794.969 8  85417373.856 8      -230.793 8        50.226 8
G11  22085470.617 7 116059932.258 7      1462.633 7        46.852 7  22085485.102 8  90436378.765 8      1139.715 8        48.388 8
G12  23016979.426 7 120955057.387 7      2244.391 7        43.221 7  23016992.547 8  94250716.202 8      1749.246 8        50.226 8
G17  21171281.656 7 111255832.178 7      -923.676 7        47.775 7  21171295.320 8  86692892.655 8      -719.445 8        50.226 8
G19  20254328.590 8 106437212.439 8         9.352 8        48.688 8  20254339.320 8  82938134.985 8         7.195 8        50.226 8
G20  22408955.379 7 117759873.223 7      2834.215 7        44.903 7  22408971.090 7  91760950.011 7      2208.484 7        46.400 7
R07  20886475.605 8 111806946.303 8     -1075.496 8        51.348 8  20886480.473 8  86960964.792 8      -836.418 8        48.034 8
R08  20472911.156 8 109631509.898 8      2574.395 8        52.706 8  20472915.023 8  85268985.530 8      2002.508 8        48.754 8
R12  22710413.246 6 121314911.898 6     -3720.193 6        38.854 6  22710410.773 5                     -2891.061 5        31.242 5
R13  21667139.773 6 115701323.863 6     -1602.898 6        38.298 6  21667148.512 6  89989948.146 6     -1247.258 6        36.438 6
R14  23508650.254 6                      1839.422 6        38.298 6  23508621.754 5  97466586.290 5      1430.965 5        33.325 5
R23  21180837.996 7 113303207.255 7      1350.563 7        47.662 7                                                                
C01  37491729.902 7 195229272.727 7        17.230 7        45.100 7  37491739.027 7 150963695.312 7        13.377 7        44.974 7  37491747.754 7 158639853.332 7        13.898 7        42.034 7
C02  37674777.598 7 196182449.401 7        36.059 7        42.006 7  37674784.645 7 151700739.822 7        28.064 7        44.727 7  37674794.289 7 159414385.836 7        29.250 7        42.913 7
C03  36883529.031 7 192062217.262 7        37.367 7        46.188 7  36883536.254 7 148514715.874 7        28.807 7        47.499 7  36883545.121 7 156066349.531 7        30.500 7        45.418 7
C04  38556428.781 6 200773440.928 6        -1.441 6        39.597 6  38556438.008 7 155250794.599 7        -1.037 7        43.701 7  38556445.129 6                        -1.043 6        40.895 6
C05  39356164.629 6 204937880.127 6        39.730 6        39.134 6  39356178.117 7 158471024.183 7        30.662 7        42.198 7  39356184.043 6 166528892.413 6        31.711 6        40.146 6
C07  36165380.043 7 188322625.370 7      -680.113 7        47.855 7  36165385.695 8 145623017.085 8      -526.486 8        50.227 8  36165391.375 7 153027605.234 7      -552.547 7        47.522 7
C08  36297081.777 7 189008426.107 7      -250.172 7        47.804 7  36297086.246 8 146153331.063 8      -193.361 8        48.609 8  36297094.273 7 153584882.375 7      -203.465 7        47.841 7
C10  35827777.191 8 186564635.455 8      -333.258 8        48.694 8  35827785.738 8 144263643.837 8      -257.365 8        48.934 8  35827791.598 8 151599108.700 8      -270.652 8        48.090 8
C13  36856827.934 8 191923172.074 8      -108.551 8        49.361 8  36856841.422 7 148407227.052 7       -83.771 7        47.562 7  36856846.605 7 155953380.120 7       -87.684 7        46.960 7
S37  36956125.895 7 194205747.819 7         2.125 7        44.082 7
> 2022 06 21 05 15  0.0000000  0 24       0.000000000000
G02  22940947.578 7 120555502.576 7      1205.648 7        45.208 7  22940959.953 7  93939408.772 7       939.459 7        47.509 7
G04  24324801.430 6 127827694.978 6        -9.996 6        40.895 6  24324818.457 6  99606005.195 6        -7.768 6        39.544 6
G06  20860344.672 8 109621848.813 8      -298.063 8        49.356 8  20860360.867 8  85419691.067 8      -231.908 8        50.226 8
G11  22082689.242 7 116045315.436 7      1460.688 7        46.518 7  22082703.234 8  90424989.023 8      1138.150 8        48.694 8
G12  23012714.043 7 120932642.928 7      2239.047 7        43.199 7  23012727.250 8  94233250.407 8      1744.459 8        50.226 8
G17  21173043.449 7 111265087.462 7      -927.477 7        47.646 7  21173056.367 8  86700104.555 8      -722.455 8        50.226 8
G19  20254314.750 8 106437140.764 8         5.375 8        48.795 8  20254325.539 8  82938079.130 8         4.244 8        50.226 8
G20  22403564.863 7 117731546.153 7      2831.508 7        44.134 7  22403580.402 7  91738877.016 7      2206.451 7        46.233 7
R07  20888492.781 8 111817745.149 8     -1083.924 8        50.541 8  20888498.082 8  86969363.899 8      -843.174 8        48.447 8
R08  20468111.355 8 109605799.291 8      2567.863 8        52.291 8  20468114.938 8  85248988.397 8      1997.258 8        48.158 8
R12  22717378.805 6 121352121.650 6     -3720.545 6        38.554 6  22717322.773 5                     -2891.061 5        31.242 5
R13  21670150.551 6 115717387.996 6     -1610.438 6        38.428 6  21670156.566 6  90002442.375 6     -1251.031 6        37.662 6
R14  23505783.121 5                      1833.686 5        30.103 5  23505699.902 5                      1425.467 5        32.144 5
R23  21178313.863 7 113289705.871 7      1350.393 7        46.852 7                                                                
C01  37491696.855 7 195229103.668 7        17.225 7        44.974 7  37491706.480 7 150963564.592 7        12.939 7        44.989 7  37491715.172 7 158639715.955 7        13.945 7        42.171 7
C02  37674708.027 6 196182091.438 6        36.131 6        41.921 6  37674715.645 7 151700463.020 7        28.076 7        44.543 7  37674725.406 7 159414094.956 7        29.473 7        42.728 7
C03  36883457.023 7 192061843.927 7        37.205 7        46.263 7  36883464.539 7 148514427.187 7        28.975 7        47.443 7  36883473.289 7 156066046.175 7        30.078 7        45.392 7
C04  38556431.719 6 200773457.075 6        -1.389 6        40.015 6  38556440.594 7 155250807.071 7        -1.006 7        43.625 7  38556448.047 6 163144949.94716        -1.484 6        40.967 6
C05  39356089.051 6 204937485.791 6        39.803 6        39.597 6  39356101.750 7 158470719.270 7        30.811 7        42.006 7  39356108.188 6 166528571.973 6        31.797 6        39.926 6
C07  36166688.480 8 188329438.351 8      -681.898 8        48.117 8  36166693.957 8 145628285.299 8      -527.275 8        50.081 8  36166699.578 7 153033141.346 7      -554.258 7        47.491 7
C08  36297562.785 8 189010931.697 8      -250.668 8        48.090 8  36297567.543 8 146155268.544 8      -193.838 8        48.742 8  36297575.344 7 153586918.371 7      -203.965 7        47.804 7
C10  35828418.141 8 186567974.350 8      -334.516 8        48.688 8  35828426.797 8 144266225.692 8      -258.623 8        48.911 8  35828432.824 7 151601821.813 7      -271.660 7        47.942 7
C13  36857037.141 8 191924261.426 8      -108.967 8        49.493 8  36857050.484 7 148408069.412 7       -84.463 7        47.427 7  36857055.605 7 155954265.319 7       -88.711 7        46.824 7
S37  36956122.215 7 194205728.628 7         2.113 7        43.941 7
> 2022 06 21 05 15 10.0000000  0 24       0.000000000000
G02  22938654.152 7 120543449.439 7      1204.619 7        45.208 7  22938666.188 7  93930016.748 7       938.693 7        47.317 7
G04  24324823.949 6 127827814.133 6       -13.975 6        39.880 6  24324841.336 6  99606098.039 6       -10.838 6        38.352 6
G06  20860913.371 8 109624839.955 8      -299.912 8        48.985 8  20860930.070 8  85422021.820 8      -233.650 8        50.226 8
G11  22079912.164 7 116030718.722 7      1458.584 7        47.427 7  22079925.488 8  90413614.975 8      1136.564 8        48.605 8
G12  23008459.402 7 120910281.048 7      2233.643 7        43.199 7  23008472.191 8  94215825.591 8      1740.707 8        50.226 8
G17  21174810.543 7 111274379.020 7      -931.025 7        47.110 7  21174824.723 8  86707344.738 8      -725.369 8        50.226 8
G19  20254309.082 8 106437111.036 8         1.084 8        48.848 8  20254320.129 8  82938055.948 8         0.920 8        50.226 8
G20  22398179.938 7 117703251.112 7      2827.686 7        43.221 7  22398195.906 7  91716828.955 7      2203.383 7        45.678 7
R07  20890525.727 8 111828629.505 8     -1092.701 8        50.457 8  20890530.598 8  86977829.511 8      -849.963 8        48.006 8
R08  20463321.016 8 109580156.128 8      2560.941 8        52.929 8  20463327.176 8  85229043.733 8      1991.855 8        48.096 8
R12  22724345.086 6 121389343.583 6     -3722.680 6        40.967 6  22724234.773 5                     -2891.061 5        31.242 5
R13  21673171.367 6 115733521.448 6     -1615.893 6        38.298 6  21673177.238 6  90014990.671 6     -1257.547 6        37.585 6
R14  23501733.828 5 125277510.285 5      1825.195 5        34.874 5  23501832.262 5                      1421.844 5        30.103 5
R23  21175791.891 8 113276208.293 8      1349.566 8        49.079 8                                                                
C01  37491664.641 7 195228934.797 7        16.807 7        44.590 7  37491674.371 7 150963434.011 7        12.928 7        45.431 7  37491682.535 6 158639578.746 6        13.494 6        41.717 6
C02  37674639.859 7 196181733.522 7        35.791 7        42.034 7  37674646.691 7 151700186.258 7        27.732 7        44.528 7  37674656.797 7 159413804.134 7        29.236 7        42.891 7
C03  36883385.102 7 192061470.871 7        37.354 7        46.102 7  36883393.438 7 148514138.714 7        28.963 7        47.899 7  36883401.668 7 156065743.024 7        30.311 7        45.262 7
C04  38556435.102 6 200773473.380 6        -1.982 6        39.241 6  38556443.613 7 155250819.677 7        -1.271 7        44.012 7  38556451.176 6                        -1.486 6        40.822 6
C05  39356013.906 6 204937091.576 6        39.131 6        40.189 6  39356026.000 6 158470414.397 6        30.311 6        41.921 6  39356032.281 6 166528251.633 6        31.873 6        40.103 6
C07  36167998.543 7 188336265.418 7      -683.271 7        47.585 7  36168004.695 8 145633564.419 8      -528.244 8        49.908 8  36168010.762 7 153038688.899 7      -555.490 7        47.296 7
C08  36298045.133 7 189013443.496 7      -251.377 7        47.999 7  36298050.355 8 146157210.857 8      -194.611 8        49.304 8  36298057.438 7 153588959.426 7      -204.299 7        47.530 7
C10  35829062.180 8 186571328.063 8      -336.045 8        48.573 8  35829070.910 8 144268818.970 8      -259.768 8        48.813 8  35829076.961 8 151604546.975 8      -273.127 8        48.090 8
C13  36857248.074 8 191925357.346 8      -109.951 8        49.548 8  36857260.988 7 148408916.835 7       -84.670 7        47.483 7  36857265.875 7 155955155.839 7       -89.260 7        46.842 7
S37  36956118.836 7 194205709.441 7         1.826 7        43.995 7
> 2022 06 21 05 15 20.0000000  0 24       0.000000000000
G02  22936363.016 7 120531408.340 7      1203.129 7        46.102 7  22936374.691 7  93920634.089 7       937.627 7        46.513 7
G04  24324856.480 6 127827987.116 6       -20.271 6        40.397 6  24324873.539 6  99606232.839 6       -15.830 6        38.401 6
G06  20861485.934 8 109627848.764 8      -302.166 8        48.962 8  20861502.488 8  85424339.355 8      -235.303 8        50.226 8
G11  22077137.379 7 116016142.420 7      1456.254 7        46.596 7  22077152.047 8  90402256.854 8      1134.678 8        49.058 8
G12  23004212.914 6 120887972.197 6      2227.738 6        41.564 6  23004226.980 8  94198442.057 8      1736.242 8        50.226 8
G17  21176586.078 7 111283707.173 7      -935.154 7        47.522 7  21176599.715 8  86714613.408 8      -728.408 8        50.226 8
G19  20254311.992 8 106437123.704 8        -3.943 8        49.101 8  20254322.496 8  82938065.826 8        -2.998 8        50.226 8
G20  22392802.309 7 117674988.434 7      2824.320 7        44.449 7  22392817.961 7  91694806.143 7      2200.754 7        45.758 7
R07  20892575.426 8 111839599.714 8     -1101.477 8        50.107 8  20892579.723 7  86986361.873 7      -856.691 7        47.722 7
R08  20458545.000 8 109554580.697 8      2553.730 8        53.642 8  20458549.867 7  85209151.738 7      1986.494 7        47.855 7
R12  22731317.094 6 121426577.802 6     -3724.834 6        37.005 6  22731402.773 5                     -2891.061 5        31.242 5
R13  21676205.500 6 115749724.582 6     -1624.139 6        38.554 6  21676211.945 6  90027593.062 6     -1263.299 6        38.911 6
R14  23498314.645 6 125259240.646 6      1817.689 6        37.093 6  23498324.242 5  97423894.186 5      1413.670 5        34.082 5
R23  21173268.336 7 113262714.848 7      1348.779 7        47.935 7                                                                
C01  37491632.070 7 195228766.406 7        16.174 7        44.651 7  37491641.621 7 150963303.801 7        12.738 7        45.556 7  37491650.563 7 158639441.918 7        13.211 7        42.330 7
C02  37674571.227 7 196181376.014 7        35.178 7        42.090 7  37674578.418 7 151699909.797 7        27.621 7        44.651 7  37674587.891 7 159413513.596 7        29.129 7        42.483 7
C03  36883313.250 7 192061098.385 7        36.721 7        45.797 7  36883321.621 7 148513850.690 7        28.422 7        47.631 7  36883330.199 7 156065440.354 7        29.813 7        45.141 7
C04  38556438.586 6 200773490.221 6        -2.049 6        39.788 6  38556447.313 7 155250832.697 7        -1.813 7        43.995 7  38556454.789 6 163144976.88416        -1.887 6        41.037 6
C05  39355938.621 6 204936697.702 6        39.396 6        40.315 6  39355950.426 7 158470109.871 7        30.102 7        42.607 7  39355956.336 6 166527931.609 6        31.395 6        39.548 6
C07  36169312.715 7 188343106.862 7      -685.213 7        47.737 7  36169318.258 8 145638854.644 8      -529.879 8        49.816 8  36169324.570 7 153044248.111 7      -556.652 7        47.554 7
C08  36298528.477 7 189015961.914 7      -252.479 7        47.963 7  36298534.629 8 146159158.239 8      -195.348 8        49.548 8  36298540.895 7 153591005.855 7      -205.227 7        47.467 7
C10  35829709.508 8 186574696.863 8      -337.986 8        48.634 8  35829718.020 8 144271423.954 8      -261.500 8        49.018 8  35829723.945 8 151607284.408 8      -274.934 8        48.252 8
C13  36857459.762 8 191926460.177 8      -111.248 8        49.568 8  36857472.961 7 148409769.625 7       -85.992 7        47.491 7  36857477.813 7 155956051.979 7       -90.012 7        47.049 7
S37  36956114.594 7 194205690.574 7         1.760 7        43.644 7
> 2022 06 21 05 15 30.0000000  0 24       0.000000000000
G02  22934073.852 7 120519378.463 7      1202.076 7        45.843 7  22934085.570 7  93911260.174 7       936.701 7        47.061 7
G04  24324900.863 6 127828213.150 6       -25.971 6        41.747 6  24324916.902 6  99606408.969 6       -20.291 6        39.366 6
G06  20862061.324 8 109630874.487 8      -303.744 8        48.076 8  20862078.023 8  85426721.069 8      -236.795 8        50.226 8
G11  22074366.711 7 116001585.822 7      1454.479 7        45.405 7  22074382.707 8  90390914.062 8      1133.459 8        49.310 8
G12  22999976.555 6 120865715.663 6      2222.896 6        40.517 6  22999991.465 8  94181099.318 8      1731.760 8        49.799 8
G17  21178368.453 7 111293071.167 7      -938.490 7        47.789 7  21178381.418 8  86721910.016 8      -731.092 8        50.226 8
G19  20254322.172 8 106437178.125 8        -7.748 8        48.996 8  20254333.090 8  82938108.218 8        -6.033 8        50.226 8
G20  22387430.371 7 117646757.420 7      2821.334 7        44.667 7  22387445.941 7  91672807.997 7      2198.479 7        45.635 7
R07  20894641.422 8 111850654.948 8     -1110.012 8        51.555 8  20894645.578 8  86994960.389 8      -863.537 8        48.542 8
R08  20453779.977 8 109529072.728 8      2546.949 8        52.947 8  20453785.707 7  85189312.229 7      1981.268 7        47.669 7
R12  22738287.781 6 121463823.468 6     -3726.209 6        37.263 6  22738314.773 5                     -2891.061 5        31.242 5
R13  21679247.910 6 115765996.345 6     -1630.965 6        39.134 6  21679259.367 6  90040248.837 6     -1268.748 6        37.956 6
R14  23494903.594 5 125241093.604 5      1810.988 5        32.656 5  23494916.773 5  97409779.790 5      1407.797 5        33.720 5
R23  21170745.898 7 113249224.667 7      1348.488 7        46.759 7                                                                
C01  37491599.750 7 195228597.764 7        16.828 7        45.168 7  37491609.551 7 150963173.390 7        12.750 7        45.494 7  37491618.168 7 158639304.872 7        13.475 7        42.304 7
C02  37674502.992 7 196181018.121 7        35.461 7        42.251 7  37674509.469 7 151699633.053 7        27.906 7        44.433 7  37674519.191 7 159413222.786 7        28.807 7        42.558 7
C03  36883242.156 7 192060725.741 7        37.004 7        46.325 7  36883250.098 7 148513562.531 7        28.746 7        47.600 7  36883258.555 7 156065137.539 7        30.506 7        45.353 7
C04  38556441.074 6 200773506.807 6        -2.137 6        39.448 6  38556450.125 7 155250845.511 7        -1.410 7        43.977 7  38556457.758 6 163144990.365 6        -1.701 6        40.931 6
C05  39355862.945 6 204936303.526 6        39.406 6        40.315 6  39355875.109 7 158469805.065 7        30.387 7        43.026 7  39355880.504 6 166527611.321 6        31.600 6        39.188 6
C07  36170629.539 8 188349961.953 8      -686.219 8        48.131 8  36170635.227 8 145644155.441 8      -530.863 8        50.193 8  36170641.094 7 153049818.436 7      -557.932 7        47.411 7
C08  36299013.648 8 189018485.984 8      -253.055 8        48.245 8  36299019.980 8 146161110.020 8      -195.746 8        49.844 8  36299025.703 7 153593056.856 7      -205.666 7        47.600 7
C10  35830359.453 8 186578080.065 8      -339.656 8        48.996 8  35830367.824 8 144274040.057 8      -262.445 8        49.215 8  35830373.730 8 151610033.524 8      -275.764 8        48.305 8
C13  36857672.309 8 191927569.071 8      -111.434 8        49.508 8  36857686.438 7 148410627.088 7       -86.078 7        47.715 7  36857690.801 7 155956953.064 7       -90.803 7        47.049 7
S37  36956111.609 7 194205671.308 7         1.607 7        43.959 7
> 2022 06 21 05 15 40.0000000  0 24       0.000000000000
G02  22931785.430 7 120507360.628 7      1201.088 7        43.284 7  22931798.852 7  93901895.653 7       935.842 7        46.185 7
G04  24324954.137 6 127828493.105 6       -31.002 6        41.309 6  24324969.777 6  99606627.122 6       -24.256 6        39.072 6
G06  20862640.609 8 109633917.929 8      -305.123 8        48.219 8  20862657.293 8  85429094.583 8      -238.104 8        50.226 8
G11  22071601.793 7 115987049.770 7      1452.377 7        47.213 7  22071616.285 8  90379587.264 8      1131.682 8        49.424 8
G12  22995752.238 6 120843512.420 6      2217.123 6        41.141 6  22995765.977 8  94163798.070 8      1727.814 8        49.615 8
G17  21180156.859 7 111302471.898 7      -942.174 7        47.075 7  21180169.797 8  86729235.245 8      -734.139 8        50.226 8
G19  20254340.965 8 106437275.111 8       -11.979 8        49.215 8  20254351.566 8  82938183.779 8        -9.354 8        50.226 8
G20  22382064.613 7 117618559.020 7      2817.924 7        45.912 7  22382079.797 7  91650835.285 7      2195.705 7        46.435 7
R07  20896721.055 8 111861795.898 8     -1118.717 8        50.572 8  20896727.359 8  87003625.587 8      -870.156 8        48.996 8
R08  20449031.027 8 109503633.211 8      2540.375 8        52.315 8  20449036.328 8  85169525.950 8      1975.820 8        48.609 8
R12  22745261.648 6 121501081.197 6     -3726.877 6        39.079 6  22745226.773 5                     -2891.061 5        31.242 5
R13  21682314.266 6 115782337.617 6     -1638.135 6        39.597 6  21682321.859 6  90052958.648 6     -1272.992 6        38.298 6
R14  23491507.613 6 125223018.072 6      1804.516 6        37.427 6  23491633.230 5  97395720.485 5      1403.434 5        31.864 5
R23  21168223.488 8 113235738.678 8      1348.297 8        48.285 8                                                                
C01  37491567.707 7 195228429.702 7        16.883 7        44.903 7  37491577.652 7 150963043.437 7        13.119 7        45.593 7  37491586.461 7 158639168.300 7        13.322 7        42.632 7
C02  37674434.285 7 196180660.724 7        35.770 7        42.090 7  37674440.473 7 151699356.723 7        27.514 7        44.030 7  37674450.797 7 159412932.384 7        28.459 7        42.508 7
C03  36883170.871 7 192060353.800 7        37.000 7        46.712 7  36883178.418 7 148513274.927 7        28.451 7        47.767 7  36883187.023 7 156064835.317 7        29.807 7        45.314 7
C04  38556444.590 6 200773523.992 6        -1.340 6        38.854 6  38556453.535 7 155250858.821 7        -1.666 7        43.777 7  38556460.723 6 163145004.333 6        -1.404 6        40.517 6
C05  39355787.188 6 204935909.800 6        39.266 6        40.059 6  39355799.281 7 158469500.639 7        30.209 7        42.433 7  39355804.945 6 166527291.397 6        31.662 6        39.294 6
C07  36171949.035 8 188356831.563 8      -687.924 8        48.331 8  36171954.688 8 145649467.439 8      -531.939 8        50.533 8  36171960.266 7 153055400.559 7      -559.080 7        47.600 7
C08  36299499.598 8 189021016.652 8      -253.703 8        48.110 8  36299505.359 8 146163066.896 8      -196.295 8        49.626 8  36299511.691 7 153595113.236 7      -206.014 7        47.692 7
C10  35831012.246 8 186581478.538 8      -340.832 8        48.859 8  35831020.977 8 144276667.965 8      -263.365 8        49.325 8  35831026.336 8 151612795.064 8      -277.127 8        48.259 8
C13  36857886.813 8 191928684.908 8      -112.180 8        49.523 8  36857900.980 8 148411489.927 8       -86.510 8        48.103 8  36857905.293 7 155957859.763 7       -91.111 7        47.170 7
S37  36956107.648 7 194205652.447 7         1.986 7        43.663 7
> 2022 06 21 05 15 50.0000000  0 24       0.000000000000
G02  22929501.020 7 120495354.378 7      1199.873 7        44.185 7  22929514.055 7  93892540.147 7       934.875 7        46.182 7
G04  24325017.293 6 127828826.508 6       -35.557 6        41.242 6  24325033.020 6  99606886.916 6       -27.762 6        39.208 6
G06  20863223.328 8 109636978.533 8      -306.787 8        48.628 8  20863239.813 8  85431462.458 8      -239.227 8        50.226 8
G11  22068839.168 7 115972533.669 7      1450.830 7        47.058 7  22068854.176 8  90368276.039 8      1130.441 8        49.874 8
G12  22991537.805 6 120821361.933 6      2212.100 6        40.967 6  22991550.785 8  94146537.988 8      1724.660 8        49.288 8
G17  21181952.574 7 111311908.787 7      -945.205 7        47.499 7  21181965.523 8  86736588.664 8      -736.766 8        50.226 8
G19  20254367.203 8 106437414.161 8       -15.967 8        49.063 8  20254377.590 8  82938292.122 8       -12.449 8        50.226 8
G20  22376705.016 7 117590392.823 7      2814.912 7        45.168 7  22376719.980 7  91628887.618 7      2193.586 7        46.291 7
R07  20898818.738 8 111873022.053 8     -1126.818 8        51.131 8  20898825.039 8  87012357.042 8      -876.271 8        48.628 8
R08  20444291.961 8 109478261.664 8      2533.678 8        52.523 8  20444297.977 8  85149792.547 8      1970.721 8        48.968 8
R12  22752240.102 6 121538350.121 6     -3727.117 6        37.005 6  22752138.773 5                     -2891.061 5        31.242 5
R13  21685387.785 6 115798747.679 6     -1644.566 6        37.956 6  21685393.516 6  90065721.965 6     -1278.082 6        36.731 6
R14  23488138.563 6 125205012.881 6      1797.350 6        39.188 6  23488218.770 5  97381716.260 5      1398.971 5        35.418 5
R23  21165704.805 8 113222256.454 8      1347.951 8        48.766 8                                                                
C01  37491535.457 7 195228261.721 7        16.799 7        45.182 7  37491544.938 7 150962913.546 7        13.355 7        44.772 7  37491553.836 7 158639031.821 7        13.426 7        42.330 7
C02  37674365.438 7 196180303.257 7        35.295 7        42.198 7  37674372.160 7 151699080.285 7        28.043 7        44.932 7  37674382.387 7 159412641.900 7        28.895 7        43.178 7
C03  36883099.410 7 192059982.035 7        37.326 7        46.377 7  36883107.422 7 148512987.453 7        28.785 7        47.913 7  36883115.578 7 156064533.214 7        30.418 7        45.235 7
C04  38556447.969 6 200773541.276 6        -1.658 6        39.397 6  38556456.949 7 155250872.168 7        -1.293 7        43.795 7  38556464.477 6 163145018.370 6        -1.418 6        40.785 6
C05  39355711.008 6 204935516.130 6        39.025 6        40.273 6  39355723.313 7 158469196.253 7        30.113 7        42.533 7  39355729.316 6 166526971.507 6        31.727 6        39.971 6
C07  36173270.898 8 188363715.139 8      -689.139 8        48.062 8  36173276.801 8 145654790.246 8      -532.953 8        50.763 8  36173282.129 7 153060994.019 7      -560.129 7        47.593 7
C08  36299987.023 8 189023553.408 8      -253.865 8        48.364 8  36299992.926 8 146165028.470 8      -196.273 8        49.330 8  36299999.020 7 153597174.560 7      -206.145 7        47.608 7
C10  35831666.980 8 186584891.716 8      -341.990 8        48.529 8  35831676.387 8 144279307.244 8      -264.359 8        49.273 8  35831681.719 8 151615568.545 8      -277.707 8        48.131 8
C13  36858101.824 8 191929807.117 8      -112.225 8        49.209 8  36858116.277 7 148412357.689 7       -86.742 7        47.978 7  36858120.918 7 155958771.661 7       -91.203 7        47.075 7
S37  36956104.121 7 194205633.516 7         1.963 7        44.030 7
